     3.03           OBSERVATION DATA    M: Mixed            RINEX VERSION / TYPE
Geo++ RINEX Logger  Geo++               20220917 173413 UTC PGM / RUN BY / DATE
************************************************************COMMENT
This file was generated by the Geo++ RINEX Logger App       COMMENT
for Android devices (Version 2.1.6). If you encounter       COMMENT
any issues, please send an email to android@geopp.de        COMMENT
Filtering Mode: BEST                                        COMMENT
************************************************************COMMENT
Geo++                                                       MARKER NAME
GEODETIC                                                    MARKER TYPE
Geo++               Geo++                                   OBSERVER / AGENCY
unknown             Xiaomi              MI 8                REC # / TYPE / VERS
unknown             MI 8                                    ANT # / TYPE
  4410320.9089   193654.2518  4588681.7075                  APPROX POSITION XYZ
        0.0000        0.0000        0.0000                  ANTENNA: DELTA H/E/N
G    8 C1C L1C D1C S1C C5Q L5Q D5Q S5Q                      SYS / # / OBS TYPES
R    4 C1C L1C D1C S1C                                      SYS / # / OBS TYPES
E   12 C1B L1B D1B S1B C1C L1C D1C S1C C5Q L5Q D5Q S5Q      SYS / # / OBS TYPES
C    4 C2I L2I D2I S2I                                      SYS / # / OBS TYPES
J    8 C1C L1C D1C S1C C5Q L5Q D5Q S5Q                      SYS / # / OBS TYPES
  2022     9    17    17    34   31.0002420     GPS         TIME OF FIRST OBS
 24 R01  1 R02 -4 R03  5 R04  6 R05  1 R06 -4 R07  5 R08  6 GLONASS SLOT / FRQ #
    R09 -2 R10 -5 R11  0 R12 -1 R13 -2 R14 -7 R15  0 R16 -1 GLONASS SLOT / FRQ #
    R17  4 R18 -3 R19  3 R20  2 R21  4 R22 -3 R23  3 R24  2 GLONASS SLOT / FRQ #
G L1C                                                       SYS / PHASE SHIFT
G L5Q -0.25000                                              SYS / PHASE SHIFT
R L1C                                                       SYS / PHASE SHIFT
E L1B                                                       SYS / PHASE SHIFT
E L1C +0.50000                                              SYS / PHASE SHIFT
E L5Q -0.25000                                              SYS / PHASE SHIFT
C L2I                                                       SYS / PHASE SHIFT
J L1C                                                       SYS / PHASE SHIFT
J L5Q -0.25000                                              SYS / PHASE SHIFT
 C1C    0.000 C1P    0.000 C2C    0.000 C2P    0.000        GLONASS COD/PHS/BIS
                                                            END OF HEADER
> 2022  9 17 17 34 31.0002420  2  0
> 2022  9 17 17 34 31.0002420  0 16
C21  22433967.288   116819554.6541       1937.477          25.729  
C22  22395122.879   116617281.6591      -1246.106          29.966  
C36  22364366.271   116457123.9201       -979.209          29.268  
E04                                                                                                                                  26326784.646   103311957.3841      -1313.341          26.255  
E05                                                                                                                                  25122425.407    98585793.1241       1914.066          29.076  
E24                                                                                                                                  25876938.568   101546664.6881       2523.065          26.091  
E31                                                                                                                                  23964676.100                         871.559          19.698  
G05  21089028.469   110823591.7721      -1224.658          28.304  
G07  24596964.776                       -2447.182          24.231  
G13  20092198.161   105585213.8241       1080.926          26.403  
G14  21232138.596   111575640.5451        794.503          29.823  
G18  24301599.952   127705768.8851       -408.447          26.241  
G20  22890979.305   120292908.0751      -3044.159          24.152  
G30  22075564.205                       -1877.995          18.081    22075577.096                       -1401.245          27.512  
R02  19443733.883   103755489.0331       -687.580          29.185  
R03  20253269.453                        3190.849          29.033  
> 2022  9 17 17 34 32.0002423  0 16
C21  22433686.382   116818086.742        1936.242          26.198  
C22  22395451.751   116618997.216       -1247.228          29.572  
C36  22364644.179   116458572.406        -980.156          28.835  
E04                                                                                                                                  26327208.853                       -1308.432          26.605  
E05                                                                                                                                  25122029.381    98584232.599        1913.459          28.997  
E24                                                                                                                                  25876384.852   101544495.244        2522.378          25.898  
E31                                                                                                                                  23964542.093                         874.365          22.348  
G05  21089354.344   110825290.474       -1226.076          28.836  
G07  24597522.090   129260842.3121      -2447.678          23.854  
G13  20092077.944   105584606.624        1079.826          26.936  
G14  21232079.537   111575320.010         793.161          29.947  
G18  24301764.538   127706651.647        -410.137          27.448  
G20  22891644.844                       -3045.217          23.633  
G30  22076002.202                       -1869.132          19.070    22076027.384    86631059.8271      -1401.429          27.500  
R02  19443952.432   103756657.948        -688.990          29.497  
R03  20252757.108   108414627.6571       3190.106          28.679  
> 2022  9 17 17 34 33.0002426  0 15
C21  22433405.177   116816619.486        1935.586          27.918  
C22  22395782.123   116620713.524       -1247.978          30.518  
C36  22364920.887   116460021.798        -981.063          31.093  
E04                                                                                                                                  26327631.560   103315280.8111      -1309.030          27.224  
E05                                                                                                                                  25121630.657    98582672.372        1913.163          29.146  
E24                                                                                                                                  25875832.034   101542326.199        2521.980          25.934  
E31                                                                                                                                  23964409.584    94041491.5111        874.683          21.762  
G05  21089678.719   110826990.278       -1227.178          29.694  
G13  20091956.228   105584000.295        1078.956          27.036  
G14  21232021.977   111575000.398         792.238          27.312  
G18  24301935.720   127707535.363        -411.090          29.249  
G20  22892316.079                       -3044.093          20.565  
G30  22076457.287                       -1878.617          17.884    22076471.677    86632814.894       -1402.132          26.191  
R02  19444168.882   103757827.763        -689.890          27.547  
R03  20252233.670   108411919.835        3189.266          28.695  
> 2022  9 17 17 34 34.0002430  0 16
C21  22433154.550   116815309.281        1934.643          29.073  
C22  22396142.773   116622586.875       -1248.912          34.039  
C36  22365232.672   116461628.028        -981.791          32.292  
E04                                                                                                                                  26328085.146   103317060.785       -1309.394          26.736  
E05                                                                                                                                  25121262.812    98581230.112        1912.839          26.845  
E24                                                                                                                                  25875309.196   101540275.437        2521.342          25.477  
E31                                                                                                                                  23964309.754    94041088.258         873.833          21.244  
G05  21090038.170   110828848.312       -1227.865          29.294  
G07  24598660.102   129266841.5771      -2448.416          27.205  
G13  20091872.586   105583552.296        1078.166          28.899  
G14  21231990.499                         789.345          24.924  
G18  24302130.885   127708577.664        -412.133          29.444  
G20  22893019.992                       -3040.022          18.460  
G30  22076961.538                       -1884.923          21.247    22076953.143                       -1404.137          25.338  
R02  19444415.611   103759158.994        -691.331          28.578  
R03  20251770.491   108409373.376        3188.384          29.952  
> 2022  9 17 17 34 35.0002433  0 17
C21  22432870.947                        1937.301          26.575  
C22  22396474.643   116624304.613       -1249.409          32.162  
C36  22365511.479   116463078.600        -982.243          31.302  
E04                                                                                                                                  26328508.453   103318723.331       -1309.611          25.376  
E05                                                                                                                                  25120863.488    98579670.569        1912.479          28.725  
E09                                                                                                                                  23474289.987    92118155.6041        227.376          30.060  
E24                                                                                                                                  25874754.880   101538107.082        2521.290          24.072  
E31                                                                                                                                  23964179.344                         870.445          17.794  
G05  21090358.349   110830549.795       -1228.858          29.357  
G07  24599210.521   129269762.810       -2448.607          29.283  
G13  20091759.864   105582947.305        1077.617          32.214  
G14  21231930.540   111574522.7761        790.204          24.943  
G18  24302301.767   127709463.077        -412.787          28.657  
G20  22893698.722                       -3040.127          15.066  
G30  22077397.436                       -1882.304          21.819    22077395.937    86636443.5281      -1402.403          24.149  
R02  19444639.556   103760331.006        -692.086          30.000  
R03  20251273.435   108406666.995        3187.825          29.894  
> 2022  9 17 17 34 36.0002436  0 17
C21  22432593.938                        1932.471          26.979  
C22  22396804.715   116626023.563       -1250.621          31.990  
C36  22365785.789                        -983.831          29.520  
E04                                                                                                                                  26328932.060   103320386.556       -1310.289          25.829  
E05                                                                                                                                  25120468.062    98578111.714        1911.790          31.407  
E09                                                                                                                                  23474321.465    92118281.975         226.564          29.016  
E24                                                                                                                                  25874204.161   101535939.553        2520.464          24.971  
E31                                                                                                                                  23964042.938                         873.173          24.377  
G05  21090675.829   110832252.783       -1230.362          25.947  
G07  24599763.638   129272684.998       -2449.562          30.811  
G13  20091648.941   105582343.970        1075.961          31.754  
G14  21231870.582                         787.680          23.829  
G18  24302475.346   127710349.913        -414.210          29.977  
G20  22894367.859                       -3045.028          15.626  
G30  22077835.433                       -1874.941          20.239    22077848.324                       -1404.436          25.384  
R02  19444871.596   103761504.323        -693.392          29.853  
R03  20250761.090   108403961.816        3186.623          34.346  
> 2022  9 17 17 34 37.0002439  0 19
C21  22432319.029   116810915.1651       1932.029          28.604  
C22  22397133.887   116627743.413       -1251.520          30.280  
C36  22366066.994   116465982.9611       -984.260          29.737  
E04                                                                                                                                  26329358.065   103322050.252       -1310.762          25.508  
E05                                                                                                                                  25120069.638    98576553.200        1911.449          32.571  
E09                                                                                                                                  23474354.443    92118408.869         226.041          27.432  
E24                                                                                                                                  25873652.243   101533772.615        2519.873          25.317  
E31                                                                                                                                  23963913.728                         873.333          26.228  
G05  21090999.005                       -1231.846          23.705  
G07  24600321.552   129275607.582       -2449.958          31.522  
G08                                                                  25310126.064                        -272.405          19.906  
G13  20091534.120   105581740.533        1076.063          32.388  
G14  21231803.728                         786.691          19.768  
G15  21299462.089   111929428.7091       2955.622          27.400  
G18  24302638.733   127711237.785        -415.246          30.226  
G20  22895019.908                       -3049.276          10.294  
G30  22078269.832                       -1868.854          18.001    22078292.316                       -1404.414          23.107  
R02  19445089.545   103762678.771        -694.523          28.956  
R03  20250267.332   108401257.652        3185.608          36.145  
> 2022  9 17 17 34 38.0002443  0 19
C21  22432063.905   116809608.102        1931.502          28.910  
C22  22397495.137   116629619.953       -1252.101          29.698  
C36  22366378.179   116467592.253        -984.853          29.211  
E04                                                                                                                                  26329810.751   103323831.835       -1311.003          26.135  
E05                                                                                                                                  25119702.692    98575112.589        1911.190          32.907  
E09                                                                                                                                  23474415.900    92118653.740         225.709          26.570  
E24                                                                                                                                  25873127.906   101531723.559        2519.636          25.095  
E31                                                                                                                                  23963808.201    94039092.7571        871.139          25.759  
G05  21091352.461                       -1232.062          23.914  
G07  24600909.745   129278687.929       -2450.178          31.577  
G08                                                                  25310313.734                        -270.388          20.323  
G13  20091447.181   105581295.712        1074.989          32.425  
G14  21231775.847                         785.669          17.653  
G15  21299020.195   111927104.213        2954.664          27.695  
G18  24302838.995   127712283.891        -415.938          29.962  
G20  22895712.728                       -3050.620          11.188  
G30  22078758.793                       -1874.564          18.907    22078773.183                       -1404.809          22.479  
R02  19445341.970   103764014.202        -695.531          28.797  
R03  20249792.460   108398714.588        3184.989          35.827  
> 2022  9 17 17 34 39.0002446  0 18
C21  22431785.098   116808145.693        1930.738          29.012  
C22  22397823.709   116631341.147       -1252.864          29.425  
C36  22366656.086   116469046.073        -985.490          29.707  
E04                                                                                                                                  26330234.958   103325496.164       -1311.394          26.472  
E05                                                                                                                                  25119305.467    98573554.639        1910.886          32.854  
E09                                                                                                                                  23474448.577    92118781.418         225.258          26.765  
E24                                                                                                                                  25872578.686   101529557.174        2519.320          24.994  
E31                                                                                                                                  23963678.690    94038574.728         870.964          26.536  
G05  21091681.932                       -1233.607          23.066  
G07  24601464.960   129281611.076       -2450.521          31.447  
G08                                                                  25310471.125                        -268.445          19.711  
G13  20091334.159   105580694.084        1074.255          32.492  
G14  21231734.476                         783.922          16.946  
G15  21298543.225   111924623.008        2953.831          27.695  
G18  24303005.979   127713173.334        -416.817          29.596  
G30  22079200.687                       -1884.012          18.484    22079220.174    86643589.7341      -1404.794          21.868  
R02  19445553.324   103765190.595        -696.469          28.778  
R03  20249279.515   108396011.808        3184.224          36.004  
> 2022  9 17 17 34 40.0002449  0 18
C21  22431504.193   116806683.624        1930.399          29.344  
C22  22398155.879                       -1253.730          29.400  
C36  22366934.294   116470500.247        -985.845          29.870  
E04                                                                                                                                  26330657.665   103327160.534       -1311.435          25.185  
E05                                                                                                                                  25118909.141    98571996.847        1910.726          32.998  
E09                                                                                                                                  23474483.054    92118909.319         225.034          28.384  
E24                                                                                                                                  25872027.668   101527391.058        2519.051          24.072  
E31                                                                                                                                  23963544.983    94038057.072         870.591          26.296  
G05  21092002.411                       -1236.409          22.343  
G07  24602021.975   129284534.131       -2450.429          32.008  
G08                                                                  25310631.514                        -270.412          19.480  
G13  20091218.439   105580092.844        1073.866          32.651  
G14  21231660.427                         782.417          18.706  
G15  21298078.247   111922142.003        2953.631          27.806  
G18  24303175.662   127714063.349        -417.389          30.147  
G30  22079670.762                       -1889.754          19.967    22079671.961    86645347.742       -1405.072          22.827  
R02  19445771.872   103766367.677        -697.157          28.743  
R03  20248780.661   108393309.426        3183.826          35.436  
> 2022  9 17 17 34 41.0002452  0 19
C21  22431220.589   116805222.542        1929.411          27.936  
C22  22398490.148   116634785.2801      -1254.282          29.619  
C36  22367213.101   116471955.126        -986.549          29.140  
E04                                                                                                                                  26331089.066   103328825.247       -1311.777          22.742  
E05                                                                                                                                  25118512.516    98570439.445        1910.337          33.385  
E09                                                                                                                                  23474513.033    92119037.642         224.612          29.152  
E24                                                                                                                                  25871472.752   101525225.321        2518.672          25.356  
E31                                                                                                                                  23963416.072    94037540.082         869.925          26.868  
G05  21092326.486                       -1237.145          20.466  
G07  24602576.291   129287457.827       -2451.070          30.574  
G08                                                                  25310790.404                        -274.049          19.599  
G13  20091107.516   105579492.494        1072.975          32.829  
G14  21231597.171                         782.802          18.691  
G15  21297605.175                        2951.757          28.683  
G18  24303349.541   127714954.398        -418.423          29.589  
G20  22897734.228                       -3051.440          18.895  
G30  22080106.660                       -1885.788          20.403    22080118.352                       -1406.409          22.804  
R02  19445996.417   103767545.895        -698.294          28.938  
R03  20248278.808   108390607.979        3182.891          35.764  
> 2022  9 17 17 34 42.0002456  0 19
C21  22430978.357                        1925.446          25.506  
C22  22398849.299   116636664.780       -1255.061          31.312  
C36  22367523.985   116473567.243        -987.678          28.015  
E04                                                                                                                                  26331542.053   103330608.530       -1312.703          20.340  
E05                                                                                                                                  25118144.670    98569000.168        1909.858          33.133  
E09                                                                                                                                  23474574.790    92119284.265         223.957          28.605  
E24                                                                                                                                  25870949.914   101523177.881        2518.020          24.442  
E31                                                                                                                                  23963310.246    94037141.561         869.101          26.975  
G05  21092684.438                       -1235.415          17.021  
G07  24603164.184   129290539.515       -2451.520          29.794  
G08                                                                  25310978.674                        -274.247          19.238  
G13  20091019.677   105579050.523        1072.139          31.326  
G14  21231566.592                         784.976          18.701  
G15  21297162.981   111917340.6011       2952.002          27.720  
G18  24303548.603   127716004.064        -419.498          30.073  
G20  22898447.734                       -3055.006          19.511  
G30  22080578.234                       -1881.378          17.841    22080600.119                       -1403.001          20.884  
R02  19446254.838   103768885.267        -699.472          31.053  
R03  20247797.042   108388067.918        3181.986          36.908  
> 2022  9 17 17 34 43.0002459  0 18
C21  22430701.349   116802459.3431       1927.513          23.807  
C22  22399180.270   116638389.257       -1256.148          32.547  
C36  22367805.191   116475024.123        -988.551          29.776  
E04                                                                                                                                  26331962.961   103332274.468       -1313.003          22.477  
E05                                                                                                                                  25117748.045    98567443.804        1909.298          34.264  
E09                                                                                                                                  23474606.268    92119413.923         223.277          27.565  
E24                                                                                                                                  25870398.896   101521013.364        2517.452          24.236  
E31                                                                                                                                  23963182.534    94036626.039         868.457          26.228  
G07  24603722.098   129293464.295       -2452.154          30.747  
G08                                                                  25311140.862                        -276.046          20.380  
G13  20090905.156   105578452.046        1071.104          31.923  
G14  21231519.825                         775.684          17.186  
G15  21296692.906   111914861.753        2951.474          27.166  
G18  24303713.789   127716897.387        -420.697          28.801  
G20  22899116.571                       -3055.276          17.300  
G30  22081031.220                       -1870.446          14.031    22081045.610                       -1407.798          23.817  
R02  19446467.391   103770066.007        -700.815          30.177  
R03  20247291.891   108385368.459        3180.903          35.554  
> 2022  9 17 17 34 44.0002462  0 19
C21  22430427.038                        1925.368          21.109  
C22  22399510.941   116640114.456       -1256.869          32.585  
C36  22368085.497   116476481.646        -989.193          29.734  
E04                                                                                                                                  26332389.266   103333940.764       -1313.361          23.330  
E05                                                                                                                                  25117351.419    98565887.704        1909.035          34.275  
E09                                                                                                                                  23474641.644    92119544.116         222.742          27.990  
E24                                                                                                                                  25869846.978   101518849.251        2517.048          24.106  
E31                                                                                                                                  23963053.323    94036111.187         867.787          25.909  
G05  21093339.485                       -1240.036          24.479  
G07  24604279.112   129296389.432       -2452.511          31.076  
G08                                                                  25311297.953                        -278.544          20.691  
G13  20090792.134   105577854.360        1070.312          32.683  
G14  21231456.568                         770.799          15.632  
G15  21296221.633   111912384.066        2950.313          28.081  
G18  24303884.971                        -422.392          28.394  
G20  22899795.302                       -3057.568          17.058  
G30  22081484.506                       -1871.930          14.628    22081497.098    86652502.3391      -1406.908          22.537  
R02  19446695.233   103771247.779        -701.847          28.782  
R03  20246788.240   108382669.840        3180.062          36.160  
> 2022  9 17 17 34 45.0002465  0 19
C21  22430156.326                        1924.639          21.473  
C22  22399841.612   116641840.503       -1257.717          32.681  
C36  22368366.102   116477939.991        -990.016          29.832  
E04                                                                                                                                  26332813.473   103335607.481       -1313.782          24.431  
E05                                                                                                                                  25116955.693    98564332.061        1908.578          33.988  
E09                                                                                                                                  23474674.921    92119674.759         222.293          28.259  
E24                                                                                                                                  25869295.659   101516685.497        2516.689          23.905  
E31                                                                                                                                  23962918.717    94035596.970         867.152          26.837  
G05  21093668.057   110847923.6961      -1238.830          23.364  
G07  24604833.428   129299315.018       -2452.960          30.728  
G08                                                                  25311459.241                        -276.771          19.431  
G13  20090681.211   105577257.427        1069.558          32.573  
G14  21231390.914                         776.308          18.700  
G15  21295749.759   111909907.098        2949.593          27.321  
G18  24304057.351   127718687.1611       -422.464          28.709  
G20  22900453.346                       -3055.187          17.297  
G30                                                                  22081944.088                       -1407.199          21.032  
R02  19446911.983   103772430.572        -702.868          29.197  
R03  20246283.689   108379972.106        3179.178          36.039  
> 2022  9 17 17 34 46.0002469  0 19
C21  22429901.502                        1921.658          21.263  
C22  22400202.862   116643723.452       -1258.510          32.301  
C36  22368677.887   116479555.103        -990.673          29.921  
E04                                                                                                                                  26333268.857   103337392.161       -1314.101          24.006  
E05                                                                                                                                  25116588.747    98562894.354        1908.287          34.221  
E09                                                                                                                                  23474737.577    92119923.535         221.804          28.290  
E24                                                                                                                                  25868773.421   101514639.949        2516.129          24.658  
E31                                                                                                                                  23962817.986    94035201.050         866.500          26.725  
G05  21094017.615                       -1239.626          21.989  
G07  24605418.323   129302398.557       -2453.371          30.468  
G08                                                                  25311647.811                        -270.940          19.511  
G13  20090599.068   105576818.847        1068.748          32.504  
G14  21231372.027                         775.252          18.623  
G15  21295308.165   111907588.443        2948.824          27.249  
G18  24304258.212   127719740.836        -423.507          28.903  
G20  22901155.760                       -3056.192          19.164  
G30                                                                  22082425.255    86656141.4751      -1408.084          21.214  
R02  19447161.710   103773774.400        -703.929          29.059  
R03  20245814.814   108377435.652        3178.379          36.105  
> 2022  9 17 17 34 47.0002472  0 18
C21  22429619.398                        1927.344          21.239  
C22  22400535.332   116645450.741       -1258.960          32.178  
C36  22368958.192   116481014.611        -991.179          29.813  
E04                                                                                                                                  26333692.764   103339059.581       -1314.485          23.949  
E05                                                                                                                                  25116193.021    98561339.177        1908.112          33.849  
E09                                                                                                                                  23474770.854    92120054.818         221.651          28.616  
E24                                                                                                                                  25868224.201   101512476.871        2516.012          24.411  
E31                                                                                                                                  23962687.277    94034687.754         866.231          26.995  
G05  21094341.991                       -1240.268          21.951  
G07  24605976.237   129305324.568       -2453.385          30.128  
G13  20090486.646   105576223.123        1068.350          32.626  
G14  21231325.559                         777.556          19.020  
G15  21294839.589   111905112.530        2948.539          27.915  
G18  24304426.696   127720637.431        -423.969          28.835  
G20  22901826.395                       -3057.567          19.320  
G30                                                                  22082872.246                       -1408.480          20.335  
R02  19447380.259   103774958.985        -704.659          29.525  
R03  20245304.567   108374739.166        3177.930          35.852  
> 2022  9 17 17 34 48.0002475  0 19
C21  22429338.192                        1928.555          20.985  
C22  22400868.402   116647177.396       -1258.326          32.555  
C36  22369237.899   116482473.336        -990.395          30.219  
E04                                                                                                                                  26334117.270   103340726.083       -1313.567          24.207  
E05                                                                                                                                  25115796.696    98559783.243        1908.869          33.895  
E09                                                                                                                                  23474805.630    92120185.545         222.208          28.292  
E24                                                                                                                                  25867671.384   101510313.115        2516.691          24.769  
E31                                                                                                                                  23962557.766    94034173.971         866.718          26.906  
G05  21094671.163                       -1239.043          21.696  
G07  24606535.650   129308249.534       -2452.340          30.196  
G08                                                                  25311973.086                        -278.361          19.340  
G13  20090372.125   105575626.741        1069.008          32.368  
G14  21231248.812                         778.264          20.111  
G15  21294359.921   111902635.932        2949.223          27.629  
G18  24304595.179   127721533.606        -423.549          29.028  
G20  22902499.729                       -3046.994          19.925  
G30                                                                  22083322.534    86659663.1351      -1407.501          20.378  
R02  19447605.703   103776143.115        -704.205          29.493  
R03  20244807.511   108372042.006        3178.604          35.797  
> 2022  9 17 17 34 49.0002478  0 19
C21  22429065.681                        1927.256          20.666  
C22  22401199.672   116648904.601       -1258.875          32.514  
C36  22369518.804   116483932.606        -990.940          30.098  
E04                                                                                                                                  26334542.975   103342392.902       -1313.884          23.867  
E05                                                                                                                                  25115399.471    98558227.490        1908.688          33.887  
E09                                                                                                                                  23474837.108    92120316.557         221.923          28.068  
E24                                                                                                                                  25867122.164   101508149.643        2516.407          24.545  
E31                                                                                                                                  23962425.258    94033660.695         866.211          26.942  
G05  21094991.641                       -1238.666          21.123  
G07  24607090.865   129311174.652       -2452.492          30.066  
G08                                                                  25312130.177                        -272.083          19.439  
G13  20090257.004   105575030.885        1068.482          32.355  
G14  21231201.445                         782.390          19.654  
G15  21293894.044   111900159.827        2948.731          27.329  
G18  24304766.960   127722429.979        -423.748          29.170  
G20  22903168.566                       -3050.425          19.475  
G30                                                                  22083769.225                       -1408.753          20.880  
R02  19447822.453   103777328.089        -705.049          29.657  
R03  20244305.359   108369345.431        3178.019          35.718  
> 2022  9 17 17 34 50.0002482  0 18
C21  22428815.354                        1919.622          20.348  
C22  22401561.222   116650789.084       -1260.044          32.495  
C36  22369826.991   116485549.091        -992.046          30.100  
E04                                                                                                                                  26335000.159   103344177.960       -1314.477          23.778  
E05                                                                                                                                  25115032.825    98556790.076        1907.994          33.948  
E09                                                                                                                                  23474902.463    92120565.977         221.160          27.859  
E24                                                                                                                                  25866599.326   101506104.624        2515.599          24.325  
E31                                                                                                                                  23962326.926    94033266.044         865.231          26.715  
G05  21095352.291                       -1243.899          21.489  
G07  24607675.761   129314258.138       -2453.318          29.894  
G08                                                                  25312318.447                        -273.159          18.901  
G13  20090172.163   105574593.715        1067.339          32.401  
G14  21231158.575                         778.334          19.288  
G15  21293453.949   111897842.408        2947.588          27.322  
G18  24304969.320   127723485.701        -425.554          29.321  
G30                                                                  22084247.394    86663303.0421      -1408.576          21.076  
R02  19448083.572   103778674.473        -706.484          29.933  
R03  20243827.490   108366810.495        3176.860          35.971  
> 2022  9 17 17 34 51.0002485  0 17
C21  22428521.857                        1920.500          23.526  
C22  22401893.992   116652518.644       -1261.231          31.917  
C36  22370105.798                        -993.726          29.998  
E04                                                                                                                                  26335421.367   103345846.071       -1315.176          26.910  
E05                                                                                                                                  25114639.197    98555235.594        1907.416          35.312  
E09                                                                                                                                  23474934.841    92120698.443         220.469          24.825  
E24                                                                                                                                  25866049.806   101503942.527        2515.032          23.120  
E31                                                                                                                                  23962196.816    94032754.558         864.421          23.286  
G05  21095680.564   110858520.2461      -1243.088          26.446  
G07  24608231.576   129317185.426       -2454.663          27.205  
G13  20090059.441   105574000.179        1066.161          30.536  
G14  21231100.415   111570220.2181        774.424          26.225  
G15  21292985.073   111895368.624        2946.410          26.396  
G18  24305144.399   127724385.158        -426.831          28.622  
G30                                                                  22084692.585    86665066.037       -1410.060          23.222  
R02  19448308.116   103779862.415        -708.018          30.985  
R03  20243326.836   108364116.358        3175.581          34.710  
> 2022  9 17 17 34 52.0002488  0 17
C21  22428230.459   116789661.8791       1921.972          27.522  
C22  22402225.262   116654248.752       -1261.778          32.282  
C36  22370387.603   116488472.6821       -993.689          29.723  
E04                                                                                                                                  26335845.274   103347514.596       -1315.590          30.107  
E05                                                                                                                                  25114241.972    98553681.367        1907.162          34.197  
E09                                                                                                                                  23474971.715    92120831.546         219.831          29.197  
E24                                                                                                                                  25865497.589   101501780.873        2514.589          25.679  
E31                                                                                                                                  23962063.109    94032243.565         863.928          23.133  
G05  21096008.837   110860236.920       -1244.048          27.892  
G07  24608787.391                       -2456.447          22.422  
G13  20089950.317   105573407.172        1065.633          32.611  
G14  21231050.350   111569918.821         774.023          30.963  
G15  21292512.600                        2943.817          24.627  
G18  24305312.582   127725285.369        -427.584          28.722  
G30  22085132.081   116058076.1371      -1885.504          31.145  
R02  19448537.458   103781051.169        -708.828          33.954  
R03  20242825.583   108361422.823        3174.980          35.366  
> 2022  9 17 17 34 53.0002491  0 18
C21  22427956.149   116788209.217        1920.991          28.439  
C22  22402558.032   116655979.864       -1262.783          32.754  
C36  22370667.609   116489935.608        -994.596          30.335  
E04                                                                                                                                  26336270.679   103349183.466       -1315.935          29.699  
E05                                                                                                                                  25113845.646    98552127.620        1906.682          33.862  
E09                                                                                                                                  23475005.592    92120965.046         219.436          29.835  
E24                                                                                                                                  25864948.968   101499619.694        2514.114          27.389  
E31                                                                                                                                  23961935.697    94031733.253         863.247          25.151  
G05  21096330.514   110861954.780       -1245.234          27.235  
G07  24609345.605                       -2457.334          20.061  
G13  20089835.796   105572815.142        1064.656          32.752  
G14  21230992.790   111569618.665         772.782          30.551  
G15  21292041.926                        2945.860          22.523  
G18  24305482.864   127726186.723        -428.728          30.022  
G20  22905900.275                       -3057.934          19.977  
G30  22085585.667   116060437.157       -1888.394          31.448  
R02  19448748.212   103782241.107        -710.014          35.710  
R03  20242317.735   108358730.261        3174.006          36.022  
> 2022  9 17 17 34 54.0002495  0 18
C21  22427707.921   116786913.132        1920.525          29.017  
C22  22402920.481   116657867.554       -1263.251          32.791  
C36  22370979.393   116491555.038        -994.991          29.683  
E04                                                                                                                                  26336725.764   103350970.202       -1316.155          29.649  
E05                                                                                                                                  25113479.900    98550691.666        1906.534          33.855  
E09                                                                                                                                  23475070.047    92121216.441         219.185          30.458  
E24                                                                                                                                  25864426.430   101497576.362        2513.912          28.331  
E31                                                                                                                                  23961834.967    94031340.968         862.865          25.859  
G05  21096686.968   110863830.772       -1245.825          27.107  
G07  24609929.300                       -2457.144          18.842  
G13  20089754.552   105572381.128        1064.182          33.068  
G14  21230966.408   111569476.791         772.042          30.631  
G15  21291606.328                        2944.227          22.483  
G18  24305689.421   127727246.162        -429.272          30.429  
G20  22906585.901                       -3054.582          20.646  
G30  22086065.935   116062956.005       -1888.680          31.357  
R02  19449016.526   103783591.728        -710.721          35.584  
R03  20241831.172   108356198.729        3173.457          35.842  
> 2022  9 17 17 34 55.0002498  0 18
C21  22427429.713   116785461.487        1919.974          28.925  
C22  22403252.951   116659599.693       -1263.810          32.953  
C36  22371259.699   116493018.831        -995.463          29.446  
E04                                                                                                                                  26337151.769   103352639.401       -1316.264          29.313  
E05                                                                                                                                  25113083.574    98549138.213        1906.389          33.873  
E09                                                                                                                                  23475102.725    92121350.483         218.893          30.237  
E24                                                                                                                                  25863875.711   101495415.648        2513.649          28.457  
E31                                                                                                                                  23961703.358    94030831.523         862.380          26.022  
G05  21097012.842   110865549.977       -1246.579          26.630  
G07  24610491.711                       -2457.607          17.633  
G13  20089642.730   105571790.036        1063.718          32.896  
G14  21230911.246   111569178.040         771.377          30.726  
G15  21291132.056                        2945.528          22.377  
G18  24305861.502   127728148.749        -429.960          30.470  
G20  22907250.540                       -3051.427          18.028  
G30  22086516.823   116065317.688       -1889.057          31.373  
R02  19449233.876   103784783.149        -711.495          35.229  
R03  20241344.609   108353507.251        3172.921          35.502  
> 2022  9 17 17 34 56.0002501  0 18
C21  22427150.607   116784010.670        1919.147          29.246  
C22  22403585.720   116661332.654       -1264.631          32.660  
C36  22371543.003   116494483.433        -996.273          29.139  
E04                                                                                                                                  26337576.275   103354309.188       -1316.852          29.580  
E05                                                                                                                                  25112690.246    98547585.209        1905.939          33.980  
E09                                                                                                                                  23475138.700    92121485.028         218.390          30.010  
E24                                                                                                                                  25863325.292   101493255.353        2513.229          27.887  
E31                                                                                                                                  23961574.747    94030322.711         861.747          26.057  
G05  21097342.314   110867270.252       -1247.648          26.248  
G07  24611055.021                       -2461.210          18.234  
G13  20089530.008   105571199.825        1062.837          32.860  
G14  21230853.986   111568880.391         770.274          30.550  
G15  21290665.579                        2944.132          21.325  
G18  24306029.086   127729052.406        -431.031          30.201  
G20  22907908.585                       -3048.356          15.652  
G30  22086965.312   116067680.036       -1889.722          31.663  
R02  19449454.523   103785975.732        -712.658          35.283  
R03  20240836.460   108350816.652        3172.042          35.241  
> 2022  9 17 17 34 57.0002504  0 18
C21  22426872.399   116782559.923        1919.076          29.151  
C22  22403919.689   116663066.213       -1265.230          32.975  
C36  22371822.110   116495948.538        -996.775          29.487  
E04                                                                                                                                  26338004.379   103355979.138       -1317.015          29.822  
E05                                                                                                                                  25112293.021    98546032.371        1905.773          33.878  
E09                                                                                                                                  23475171.977    92121619.932         218.031          30.238  
E24                                                                                                                                  25862774.874   101491095.339        2512.949          27.522  
E31                                                                                                                                  23961443.738    94029814.366         861.280          26.324  
G05  21097670.587                       -1248.828          26.624  
G07  24611607.239                       -2460.708          17.954  
G13  20089416.087   105570610.212        1062.239          32.910  
G14  21230795.826   111568583.611         769.406          30.527  
G15  21290189.209                        2944.254          21.101  
G18  24306205.064   127729956.734        -431.703          30.512  
G20  22908584.317                       -3047.124          13.750  
G30  22087413.202   116070042.749       -1890.088          31.511  
R02  19449675.470   103787169.212        -713.555          35.337  
R03  20240336.107   108348126.689        3171.407          35.220  
> 2022  9 17 17 34 58.0002508  0 18
C21  22426622.972   116781266.349        1918.013          29.154  
C22  22404282.138   116664956.465       -1265.813          32.882  
C36  22372133.294   116497570.271        -997.294          28.910  
E04                                                                                                                                  26338458.265   103357766.903       -1317.185          30.015  
E05                                                                                                                                  25111928.773    98544597.430        1905.521          33.973  
E09                                                                                                                                  23475236.132    92121872.786         217.726          29.856  
E24                                                                                                                                  25862256.832   101489053.247        2512.672          27.916  
E31                                                                                                                                  23961344.506    94029424.093         860.854          25.877  
G05  21098027.340   110870870.4441      -1249.041          26.722  
G07  24612187.337                       -2459.272          18.025  
G13  20089332.145   105570178.606        1061.774          32.682  
G14  21230768.845   111568445.141         768.638          30.562  
G15  21289760.505                        2941.758          21.317  
G18  24306404.426   127731019.244        -432.341          30.171  
G20  22909286.431                       -3046.399          13.158  
G30  22087892.270   116072563.402       -1890.485          31.079  
R02  19449921.300   103788523.417        -714.306          34.848  
R03  20239865.433   108345597.779        3170.836          35.214  
> 2022  9 17 17 34 59.0002511  0 17
C21  22426343.865   116779817.370        1917.308          29.815  
C22  22404615.507   116666691.339       -1266.545          32.728  
C36  22372416.298   116499036.572        -997.972          28.551  
E04                                                                                                                                  26338884.270   103359437.379       -1317.541          29.751  
E05                                                                                                                                  25111532.148    98543045.156        1905.209          34.061  
E09                                                                                                                                  23475270.908    92122008.393         217.328          29.973  
E24                                                                                                                                  25861704.614   101486893.962        2512.221          27.893  
E31                                                                                                                                  23961216.495    94028916.773         860.254          26.086  
G05  21098356.812                       -1249.942          26.464  
G07  24612749.748                       -2454.201          17.019  
G13  20089220.322   105569590.211        1061.021          32.964  
G14  21230713.383   111568150.057         767.710          30.706  
G15  21289290.431                        2943.034          21.048  
G18  24306574.109   127731925.152        -433.282          30.073  
G30  22088339.861   116074927.016       -1890.988          31.208  
R02  19450155.438   103789718.637        -715.295          35.108  
R03  20239359.983   108342909.092        3170.131          35.135  
> 2022  9 17 17 35  0.0002514  0 16
C21  22426068.356   116778368.847        1916.852          29.939  
C22  22404949.176   116668426.660       -1266.991          32.733  
C36  22372697.804   116500503.293        -998.391          28.812  
E04                                                                                                                                  26339308.776   103361108.018       -1317.703          29.786  
E05                                                                                                                                  25111136.122    98541492.934        1905.156          34.098  
E09                                                                                                                                  23475305.384    92122144.293         217.035          30.076  
E24                                                                                                                                  25861154.195   101484734.717        2512.180          28.093  
E31                                                                                                                                  23961086.685    94028409.800         859.908          26.238  
G05  21098682.386   110874316.2741      -1250.664          26.507  
G13  20089108.200   105569002.248        1060.590          32.973  
G14  21230658.521   111567855.716         766.967          30.806  
G15  21288812.862                        2944.858          21.430  
G18  24306748.288   127732831.644        -433.866          30.056  
G30  22088793.147   116077290.963       -1891.321          31.472  
R02  19450382.980   103790914.569        -716.007          34.847  
R03  20238852.434   108340220.916        3169.620          35.101  
> 2022  9 17 17 35  1.0002517  0 16
C21  22425791.348   116776921.304        1915.873          30.190  
C22  22405281.346   116670162.936       -1267.947          32.820  
C36  22372980.508   116501970.925        -999.303          28.685  
E04                                                                                                                                  26339735.081   103362779.321       -1318.368          29.298  
E05                                                                                                                                  25110741.296    98539941.285        1904.584          33.826  
E09                                                                                                                                  23475341.359    92122280.746         216.482          29.860  
E24                                                                                                                                  25860604.076   101482576.123        2511.529          27.898  
E31                                                                                                                                  23960956.875    94027903.638         859.097          26.074  
G05  21099010.359                       -1252.726          26.271  
G07  24613866.175                       -2453.053          19.524  
G13  20088996.377   105568415.246        1059.628          32.996  
G14  21230603.659   111567562.531         765.811          30.549  
G15  21288363.772                        2941.093          21.558  
G18  24306923.067   127733739.273        -435.003          29.695  
R02  19450605.726   103792111.771        -717.277          34.642  
R03  20238366.171   108337533.743        3168.616          34.933  
> 2022  9 17 17 35  2.0002521  0 16
C21  22425542.520   116775630.629        1915.114          30.052  
C22  22405644.395   116672056.112       -1268.737          32.891  
C36  22373290.193   116503595.351        -999.987          28.814  
E04                                                                                                                                  26340191.065   103364568.469       -1318.568          29.659  
E05                                                                                                                                  25110375.249    98538507.577        1904.288          33.756  
E09                                                                                                                                  23475404.915    92122535.317         216.009          30.152  
E24                                                                                                                                  25860084.236   101480535.613        2511.090          27.345  
E31                                                                                                                                  23960858.843    94027515.660         858.558          26.167  
G05  21099368.311   110877923.4651      -1252.584          25.957  
G07  24614451.370                       -2459.786          20.600  
G13  20088916.333   105567986.507        1058.907          33.056  
G14  21230579.076   111567427.920         764.779          30.628  
G18  24307126.926   127734805.377        -435.935          29.488  
G20  22912013.043                       -3060.669          14.495  
R02  19450858.151   103793469.926        -718.255          34.618  
R03  20237878.109   108335007.883        3167.785          34.792  
> 2022  9 17 17 35  3.0002524  0 17
C21  22425267.910   116774184.694        1914.264          29.933  
C22  22405976.565   116673794.025       -1269.584          32.797  
C36  22373571.399   116505064.493       -1000.812          28.562  
E04                                                                                                                                  26340616.471   103366240.471       -1319.067          29.274  
E05                                                                                                                                  25109981.022    98536956.596        1903.916          33.951  
E09                                                                                                                                  23475439.991    92122672.793         215.459          29.935  
E24                                                                                                                                  25859533.218   101478377.835        2510.713          27.318  
E31                                                                                                                                  23960729.332    94027010.678         857.916          25.934  
G05  21099695.685   110879649.861       -1253.770          26.234  
G07  24615008.684                       -2462.612          19.888  
G13  20088806.009   105567401.098        1058.035          33.058  
G14  21230520.017   111567136.807         763.739          30.766  
G15  21287464.395                        2937.843          20.030  
G18  24307300.506   127735714.844        -436.841          29.329  
G20  22912686.677                       -3058.015          14.505  
R02  19451083.295   103794669.220        -719.369          34.622  
R03  20237387.948   108332322.410        3166.917          34.890  
> 2022  9 17 17 35  4.0002527  0 17
C21  22424988.504   116772739.220        1913.803          30.170  
C22  22406310.534   116675532.464       -1270.109          32.676  
C36  22373853.504   116506534.040       -1001.218          28.403  
E04                                                                                                                                  26341042.776   103367912.645       -1319.239          29.186  
E05                                                                                                                                  25109584.996    98535405.851        1903.680          33.960  
E09                                                                                                                                  23475474.767    92122810.502         215.226          29.971  
E24                                                                                                                                  25858983.998   101476220.387        2510.383          27.918  
E31                                                                                                                                  23960603.120    94026506.192         857.422          25.870  
G05  21100025.157   110881376.851       -1254.364          25.822  
G07  24615572.893                       -2460.802          19.137  
G13  20088694.486   105566816.173        1057.551          33.234  
G14  21230467.553   111566846.440         762.993          30.569  
G15  21286986.226                        2937.170          21.542  
G18  24307471.987   127736625.029        -437.559          29.248  
G20  22913356.713                       -3054.460          14.649  
R02  19451311.437   103795869.323        -720.178          34.831  
R03  20236887.894   108329637.500        3166.354          34.869  
> 2022  9 17 17 35  5.0002530  0 17
C21  22424709.097   116771294.436        1913.114          29.761  
C22  22406644.803   116677271.530       -1270.737          32.696  
C36  22374133.809   116508004.177       -1001.808          27.820  
E04                                                                                                                                  26341470.879   103369585.090       -1319.510          29.340  
E05                                                                                                                                  25109190.169    98533855.314        1903.472          34.186  
E09                                                                                                                                  23475511.641    92122948.632         214.804          29.836  
E24                                                                                                                                  25858434.778   101474063.211        2510.111          28.175  
E31                                                                                                                                  23960473.609    94026002.100         857.027          26.139  
G05  21100351.331                       -1255.783          25.805  
G07  24616126.011                       -2456.970          19.348  
G13  20088584.462   105566231.875        1056.924          33.089  
G14  21230413.291   111566557.007         762.058          30.754  
G15  21286505.059                        2938.167          20.813  
G18  24307644.368   127737535.966        -438.311          28.889  
G20  22914018.355                       -3060.169          14.190  
R02  19451522.191   103797070.337        -721.089          34.488  
R03  20236371.052   108326953.242        3165.702          34.691  
> 2022  9 17 17 35  6.0002534  0 16
C21  22424463.267   116770006.416        1912.459          29.855  
C22  22407009.350   116679167.435       -1271.465          32.678  
C36  22374447.093   116509631.125       -1002.509          28.155  
E04                                                                                                                                  26341925.065   103371375.535       -1319.864          29.286  
E05                                                                                                                                  25108826.821    98532422.694        1903.200          33.798  
E09                                                                                                                                  23475575.497    92123204.823         214.389          30.005  
E24                                                                                                                                  25857914.938   101472024.045        2509.746          27.822  
E31                                                                                                                                  23960374.078    94025616.269         856.411          26.208  
G05  21100713.780   110884991.0711      -1256.162          26.252  
G07  24616716.302                       -2458.790          17.498  
G13  20088503.219   105565805.790        1056.253          33.389  
G14  21230386.309   111566425.983         761.192          30.442  
G15  21286059.268                        2937.647          20.401  
G18  24307849.426   127738605.265        -439.131          28.714  
R02  19451785.409   103798432.311        -722.074          34.340  
R03  20235897.680   108324430.199        3164.968          34.402  
> 2022  9 17 17 35  7.0002537  0 18
C21  22424185.060   116768562.896        1911.849          30.015  
C22  22407343.019   116680907.798       -1272.034          32.530  
C36  22374727.698   116511102.398       -1002.944          27.864  
E04                                                                                                                                  26342351.370   103373048.552       -1320.082          29.191  
E05                                                                                                                                  25108429.596    98530872.736        1902.893          33.881  
E09                                                                                                                                  23475611.173    92123343.642         214.116          29.932  
E24                                                                                                                                  25857365.119   101469867.534        2509.446          28.002  
E31                                                                                                                                  23960247.566    94025113.190         856.014          26.011  
G05  21101042.952   110886720.478       -1256.781          26.090  
G07  24617277.214                       -2462.080          17.720  
G13  20088390.197   105565222.753        1055.663          33.687  
G14  21230330.548   111566138.289         760.320          30.583  
G15  21285606.281                        2934.965          20.733  
G18  24308020.608   127739517.786        -439.895          28.869  
G20  22915394.702                       -3060.456          13.840  
G30  22092007.821   116094169.6091      -1894.943          31.530  
R02  19452013.251   103799635.085        -722.850          34.363  
R03  20235403.322   108321747.232        3164.410          34.474  
> 2022  9 17 17 35  8.0002540  0 17
C21  22423905.653   116767119.863        1911.363          29.878  
C22  22407676.089   116682648.617       -1272.489          32.559  
C36  22375008.604   116512574.191       -1003.463          27.799  
E04                                                                                                                                  26342778.574   103374721.736       -1320.249          29.130  
E05                                                                                                                                  25108035.069    98529322.842        1902.829          33.842  
E09                                                                                                                                  23475646.248    92123482.757         213.820          29.887  
E24                                                                                                                                  25856816.498   101467711.253        2509.216          27.944  
E31                                                                                                                                  23960119.854    94024610.569         855.556          25.982  
G05  21101373.323   110888450.566       -1257.462          26.661  
G07  24617822.536                       -2456.328          18.561  
G13  20088283.771   105564640.135        1055.245          34.022  
G14  21230278.984   111565851.261         759.654          30.534  
G15  21285136.507                        2934.702          20.381  
G18  24308189.990   127740430.913        -440.502          28.755  
G30  22092458.409   116096537.566       -1895.331          31.469  
R02  19452246.490   103800838.543        -723.533          34.105  
R03  20234907.465   108319064.819        3163.858          34.298  
> 2022  9 17 17 35  9.0002543  0 18
C21  22423628.945   116765677.384        1910.808          29.719  
C22  22408010.957   116684390.114       -1273.168          32.234  
C36  22375292.807   116514046.538       -1004.018          27.601  
E04                                                                                                                                  26343205.179   103376395.172       -1320.501          29.158  
E05                                                                                                                                  25107639.943    98527773.217        1902.560          33.971  
E09                                                                                                                                  23475682.823    92123622.176         213.516          30.134  
E24                                                                                                                                  25856266.979   101465555.204        2508.983          28.044  
E31                                                                                                                                  23959990.044    94024108.459         855.045          25.951  
G05  21101695.900   110890181.552       -1258.360          26.214  
G07  24618371.456                       -2460.746          19.278  
G13  20088168.950   105564058.187        1054.574          33.874  
G14  21230225.321   111565565.107         758.780          30.932  
G15  21284663.134                        2936.242          20.493  
G18  24308364.170   127741344.777        -441.237          28.656  
G20  22916750.064                       -3061.967          14.831  
G30  22092907.199   116098905.842       -1895.650          31.420  
R02  19452456.345   103802042.996        -724.528          34.071  
R03  20234396.619   108316383.000        3163.262          34.228  
> 2022  9 17 17 35 10.0002546  0 18
C21  22423351.637   116764235.383        1910.331          29.713  
C22  22408347.024   116686132.025       -1273.581          32.535  
C36  22375577.310   116515519.153       -1004.285          27.613  
E04                                                                                                                                  26343630.884   103378068.756       -1320.649          29.011  
E05                                                                                                                                  25107246.015    98526223.666        1902.486          33.946  
E09                                                                                                                                  23475718.198    92123761.887         213.225          30.071  
E24                                                                                                                                  25855716.860   101463399.361        2508.778          27.971  
E31                                                                                                                                  23959862.632    94023606.690         854.705          26.184  
G05  21102026.571   110891913.129       -1258.951          25.908  
G07  24618940.462                       -2458.606          19.715  
G13  20088059.526   105563476.615        1054.197          33.726  
G14  21230174.656   111565279.601         758.132          31.005  
G15  21284190.362                        2934.378          18.409  
G18  24308540.747   127742259.218        -441.815          28.222  
G20  22917434.490                       -3062.302          14.968  
G30  22093356.588   116101274.426       -1895.958          31.638  
R02  19452688.684   103803248.176        -725.255          33.925  
R03  20233906.158   108313701.676        3162.768          34.173  
> 2022  9 17 17 35 11.0002550  0 18
C21  22423106.706   116762950.175        1909.647          29.497  
C22  22408710.972   116688030.759       -1274.295          32.379  
C36  22375888.495                       -1005.134          27.103  
E04                                                                                                                                  26344087.468   103379860.331       -1320.995          29.190  
E05                                                                                                                                  25106880.868    98524792.054        1902.192          33.963  
E09                                                                                                                                  23475782.354    92124019.625         212.841          30.088  
E24                                                                                                                                  25855198.519   101461361.484        2508.457          28.188  
E31                                                                                                                                  23959764.600    94023223.120         854.149          26.352  
G05  21102390.819   110893802.998       -1259.701          25.929  
G07  24619544.244                       -2458.145          20.315  
G13  20087976.783   105563053.269        1053.515          33.885  
G14  21230144.677   111565152.586         757.183          30.797  
G15  21283755.063                        2936.403          19.128  
G18  24308746.105   127743332.108        -442.722          28.096  
G20  22918125.812                       -3067.776          14.772  
G30  22093836.855   116103801.011       -1896.417          31.401  
R02  19452932.415   103804614.219        -726.143          33.729  
R03  20233434.285   108311181.568        3162.033          34.215  
> 2022  9 17 17 35 12.0002553  0 18
C21  22422828.799   116761509.548        1908.956          29.702  
C22  22409045.241   116689774.066       -1274.977          32.226  
C36  22376173.597   116518622.5641      -1005.642          27.433  
E04                                                                                                                                  26344513.473   103381534.545       -1321.279          29.039  
E05                                                                                                                                  25106486.041    98523243.092        1901.897          34.311  
E09                                                                                                                                  23475819.528    92124160.094         212.466          30.037  
E24                                                                                                                                  25854648.999   101459206.374        2508.045          28.072  
E31                                                                                                                                  23959636.289    94022722.310         853.745          25.777  
G05  21102723.888   110895536.260       -1260.636          26.049  
G07  24620094.963                       -2458.302          19.795  
G13  20087868.858   105562473.062        1052.832          33.952  
G14  21230092.513   111564868.937         756.274          30.813  
G15  21283293.682                        2934.203          19.289  
G18  24308920.584   127744248.218        -443.484          28.026  
G20  22918803.043                       -3060.328          14.971  
G30  22094289.242   116106170.622       -1896.985          31.399  
R02  19453177.645   103805821.262        -727.118          33.688  
R03  20232929.135   108308501.721        3161.291          34.023  
> 2022  9 17 17 35 13.0002556  0 18
C21  22422551.790   116760069.696        1908.181          29.494  
C22  22409381.308   116691518.162       -1275.766          32.272  
C36  22376459.000   116520097.277       -1006.384          27.197  
E04                                                                                                                                  26344940.677   103383209.135       -1321.655          28.776  
E05                                                                                                                                  25106091.515    98521694.447        1901.580          33.870  
E09                                                                                                                                  23475854.904    92124301.043         211.986          29.978  
E24                                                                                                                                  25854099.779   101457051.629        2507.680          28.098  
E31                                                                                                                                  23959509.477    94022222.189         853.056          26.599  
G05  21103056.658   110897270.440       -1261.553          26.014  
G07  24620634.889                       -2458.652          19.449  
G13  20087759.434   105561893.582        1052.106          33.860  
G14  21230036.751   111564586.264         755.299          30.627  
G15  21282824.807                        2934.976          19.917  
G18  24309093.565   127745165.268        -444.424          27.614  
G20  22919477.576                       -3062.473          14.992  
G30  22094739.530   116108540.760       -1897.513          31.334  
R02  19453399.792   103807029.302        -728.116          33.825  
R03  20232426.682   108305822.696        3160.469          33.969  
> 2022  9 17 17 35 14.0002559  0 18
C21  22422277.480   116758630.559        1907.467          29.486  
C22  22409717.675   116693262.989       -1276.498          32.539  
C36  22376740.205   116521572.614       -1007.008          26.933  
E04                                                                                                                                  26345367.282   103384884.071       -1322.001          28.659  
E05                                                                                                                                  25105697.287    98520146.199        1901.183          33.834  
E09                                                                                                                                  23475890.879    92124442.445         211.533          29.653  
E24                                                                                                                                  25853550.559   101454897.382        2507.181          27.689  
E31                                                                                                                                  23959384.763    94021722.688         852.437          26.575  
G05  21103385.830   110899005.670       -1262.604          26.659  
G07  24621204.495                       -2458.566          19.808  
G13  20087650.309   105561314.866        1051.342          33.697  
G14  21229985.487   111564304.638         754.253          30.463  
G15  21282357.131                        2933.581          19.457  
G18  24309269.843   127746083.212        -445.317          27.170  
G20  22920145.513                       -3065.069          14.798  
G30  22095191.317   116110911.464       -1898.078          31.104  
R02  19453614.443   103808238.307        -729.079          33.756  
R03  20231922.731   108303144.454        3159.685          34.208  
> 2022  9 17 17 35 15.0002563  0 18
C21  22422028.053   116757348.084        1906.915          29.632  
C22  22410083.422   116695164.466       -1277.038          32.736  
C36  22377053.188   116523204.594       -1007.541          27.382  
E04                                                                                                                                  26345826.864   103386676.913       -1322.262          28.697  
E05                                                                                                                                  25105333.639    98518715.757        1901.022          34.233  
E09                                                                                                                                  23475958.332    92124701.783         211.242          29.652  
E24                                                                                                                                  25853030.719   101452860.913        2507.049          27.852  
E31                                                                                                                                  23959284.333    94021341.197         852.071          26.031  
G05  21103744.082   110900899.056       -1263.218          26.540  
G07  24621793.587                       -2462.259          21.019  
G13  20087569.065   105560894.174        1050.859          33.786  
G14  21229963.302   111564181.232         753.574          30.237  
G15  21281915.237                        2931.803          18.917  
G18  24309469.504   127747159.348        -445.968          27.228  
G20  22920842.831                       -3071.856          15.185  
G30  22095670.985   116113440.072       -1898.440          30.830  
R02  19453871.665   103809608.119        -729.913          33.724  
R03  20231461.351   108300627.200        3159.179          34.223  
> 2022  9 17 17 35 16.0002566  0 19
C19  26311890.957                       -2843.836          25.167  
C21  22421751.644   116755909.790        1906.623          29.734  
C22  22410420.089   116696910.148       -1277.353          32.570  
C36  22377336.492   116524680.705       -1007.782          27.283  
E04                                                                                                                                  26346251.070   103388352.073       -1322.225          28.628  
E05                                                                                                                                  25104937.613    98517167.661        1901.031          33.945  
E09                                                                                                                                  23475993.408    92124843.566         211.152          29.918  
E24                                                                                                                                  25852482.099   101450706.894        2506.954          28.240  
E31                                                                                                                                  23959159.619    94020842.382         851.750          25.863  
G05  21104074.153   110902635.363       -1263.681          25.886  
G07  24622348.803                       -2463.456          19.798  
G13  20087458.442   105560316.289        1050.512          33.955  
G14  21229906.941   111563900.877         752.980          30.006  
G15  21281428.074                        2927.939          19.421  
G18  24309644.283   127748078.377        -446.403          27.409  
G20  22921524.259                       -3071.246          15.758  
G30  22096121.873   116115811.324       -1898.626          30.962  
R02  19454098.308   103810818.596        -730.552          33.830  
R03  20230959.498   108297949.872        3158.771          34.006  
> 2022  9 17 17 35 17.0002569  0 19
C19  26312531.014   137016232.0411      -2843.415          25.204  
C21  22421474.636   116754471.762        1906.358          29.792  
C22  22410754.957   116698656.120       -1277.642          32.546  
C36  22377620.995   116526156.987       -1007.952          27.343  
E04                                                                                                                                  26346678.874   103390027.331       -1322.323          28.368  
E05                                                                                                                                  25104543.986    98515619.509        1901.088          33.797  
E09                                                                                                                                  23476029.683    92124985.458         211.043          29.923  
E24                                                                                                                                  25851933.479   101448552.993        2506.835          28.123  
E31                                                                                                                                  23959029.509    94020343.828         851.489          25.752  
G05  21104399.728   110904372.150       -1264.161          26.000  
G07  24622904.318                       -2458.806          19.656  
G13  20087350.816   105559738.640        1050.275          34.018  
G14  21229853.578   111563621.072         752.432          29.895  
G15  21280965.794                        2926.038          19.045  
G18  24309819.362   127748997.888        -446.885          27.243  
G20  22922197.893                       -3067.242          15.859  
G30  22096573.361   116118182.532       -1898.583          30.614  
R02  19454327.649   103812029.527        -731.007          34.166  
R03  20230452.849   108295272.795        3158.521          33.888  
> 2022  9 17 17 35 18.0002572  0 19
C19  26313166.574   137019543.699       -2843.328          25.791  
C21  22421198.827   116753033.981        1906.110          29.827  
C22  22411089.825   116700402.321       -1277.872          32.564  
C36  22377904.599                       -1009.000          27.363  
E04                                                                                                                                  26347105.478   103391702.449       -1322.183          28.432  
E05                                                                                                                                  25104149.159    98514071.364        1901.079          33.814  
E09                                                                                                                                  23476065.658    92125127.441         210.952          30.129  
E24                                                                                                                                  25851385.158   101446399.004        2506.924          28.046  
E31                                                                                                                                  23958903.896    94019845.458         851.306          25.977  
G05  21104727.401   110906109.267       -1264.491          26.013  
G07  24623457.735                       -2456.022          19.738  
G13  20087235.996   105559161.193        1050.073          33.867  
G14  21229799.915   111563341.684         752.014          29.555  
G15  21280484.627                        2933.184          16.986  
G18  24309992.642   127749917.690        -447.177          27.307  
G20  22922885.916                       -3065.977          16.280  
G30  22097022.749   116120553.851       -1898.693          30.529  
R02  19454568.682   103813240.989        -731.536          34.150  
R03  20229962.089   108292595.919        3158.320          33.904  
> 2022  9 17 17 35 19.0002575  0 18
C19  26313804.832                       -2841.636          25.375  
C21  22420923.917   116751596.744        1905.566          29.523  
C22  22411425.593   116702149.127       -1278.477          32.474  
C36  22378190.001   116529110.5481      -1008.682          26.992  
E04                                                                                                                                  26347532.083   103393377.899       -1322.514          28.519  
E05                                                                                                                                  25103753.433    98512523.405        1900.894          33.759  
E09                                                                                                                                  23476102.832    92125269.750         210.626          29.851  
E24                                                                                                                                  25850836.238   101444245.352        2506.587          28.047  
E31                                                                                                                                  23958777.084    94019347.414         850.978          26.878  
G05  21105062.569   110907847.240       -1265.347          25.922  
G07  24624017.747                       -2458.426          20.286  
G13  20087126.572   105558584.337        1049.483          33.518  
G14  21229745.653   111563063.128         751.182          29.440  
G15  21280054.125                        2939.113          17.205  
G18  24310173.417   127750838.290        -447.974          27.034  
G30  22097475.736   116122925.542       -1899.065          30.560  
R02  19454791.128   103814453.312        -732.398          34.183  
R03  20229455.439   108289919.630        3157.733          33.689  
> 2022  9 17 17 35 20.0002579  0 19
C19  26314466.174                       -2843.063          25.484  
C21  22420678.088   116750316.338        1904.845          29.924  
C22  22411788.342   116704052.657       -1279.090          32.230  
C36  22378502.685   116530744.278       -1009.291          27.349  
E04                                                                                                                                  26347989.566   103395171.271       -1322.792          28.520  
E05                                                                                                                                  25103390.085    98511093.346        1900.639          33.759  
E09                                                                                                                                  23476167.587    92125530.068         210.262          30.028  
E24                                                                                                                                  25850317.298   101442209.692        2506.239          28.049  
E31                                                                                                                                  23958682.050    94018967.674         850.320          26.011  
G05  21105429.515   110909743.532       -1266.124          26.027  
G07  24624607.739                       -2462.039          19.329  
G13  20087047.426   105558165.654        1048.850          33.924  
G14  21229722.269   111562942.959         750.337          29.357  
G15  21279613.130                        2939.309          16.775  
G18  24310379.375   127751917.227        -448.769          26.879  
G20  22924261.964                       -3062.279          15.852  
G30  22097960.500   116125455.259       -1899.548          30.350  
R02  19455053.447   103815826.405        -733.193          34.418  
R03  20228978.470   108287404.619        3156.936          33.883  
> 2022  9 17 17 35 21.0002582  0 19
C19  26315102.634   137029636.3351      -2844.022          25.732  
C21  22420403.178   116748880.639        1904.028          29.722  
C22  22412124.109   116705801.013       -1280.027          32.377  
C36  22378786.888   116532222.694       -1010.086          27.297  
E04                                                                                                                                  26348416.471   103396847.380       -1323.174          28.587  
E05                                                                                                                                  25102996.757    98509546.069        1900.212          33.736  
E09                                                                                                                                  23476204.762    92125673.298         209.705          30.007  
E24                                                                                                                                  25849769.277   101440056.838        2505.790          28.528  
E31                                                                                                                                  23958555.537    94018470.919         849.690          26.302  
G05  21105759.287   110911483.309       -1267.151          26.221  
G07  24625173.447                       -2463.475          19.728  
G13  20086941.300   105557590.310        1047.970          33.849  
G14  21229672.504   111562666.373         749.213          29.407  
G15  21279129.865                        2925.129          15.340  
G18  24310550.856   127752839.592        -449.739          27.050  
G20  22924938.295                       -3070.372          15.818  
G30  22098408.390   116127828.099       -1900.214          30.134  
R02  19455285.486   103817040.724        -734.394          34.432  
R03  20228494.904   108284730.021        3156.042          33.723  
> 2022  9 17 17 35 22.0002585  0 18
C19  26315744.189                       -2844.761          25.519  
C21  22420126.170   116747445.643        1903.326          29.965  
C22  22412459.877   116707550.052       -1280.709          32.371  
C36  22379069.892   116533701.787       -1010.764          27.314  
E04                                                                                                                                  26348843.675   103398523.898       -1323.583          28.577  
E05                                                                                                                                  25102600.731    98507999.111        1899.894          33.635  
E09                                                                                                                                  23476240.437    92125816.938         209.295          30.051  
E24                                                                                                                                  25849220.657   101437904.407        2505.366          28.272  
E31                                                                                                                                  23958426.926    94017974.726         849.129          26.245  
G05  21106091.457   110913224.015       -1268.081          25.363  
G07  24625737.657                       -2462.209          19.502  
G13  20086827.679   105557015.609        1047.327          33.952  
G14  21229617.941   111562390.706         748.292          29.465  
G15  21278702.361                        2914.946          15.854  
G18  24310731.631   127753762.843        -450.625          26.466  
G30  22098861.077   116130201.487       -1900.762          30.404  
R02  19455502.536   103818256.038        -735.389          34.273  
R03  20227993.052   108282056.179        3155.286          33.797  
> 2022  9 17 17 35 23.0002588  0 18
C19  26316377.351   137036263.3761      -2845.087          25.841  
C21  22419850.660   116746011.205        1902.767          29.401  
C22  22412796.244   116709299.698       -1281.317          32.275  
C36  22379354.995   116535181.379       -1011.263          26.599  
E04                                                                                                                                  26349271.779   103400200.619       -1323.786          28.658  
E05                                                                                                                                  25102207.703    98506452.311        1899.735          33.897  
E09                                                                                                                                  23476278.211    92125960.867         209.006          30.146  
E24                                                                                                                                  25848672.337   101435752.178        2505.163          28.260  
E31                                                                                                                                  23958299.514    94017478.957         848.703          26.236  
G05  21106420.629   110914965.415       -1268.773          25.605  
G07  24626297.969                       -2461.692          19.668  
G13  20086720.353   105556441.512        1046.724          33.944  
G14  21229563.379   111562115.883         747.449          29.402  
G15  21278226.890                        2925.278          16.782  
G18  24310908.508   127754686.807        -451.338          26.925  
G30  22099309.566   116132575.211       -1901.098          30.316  
R02  19455728.879   103819472.163        -736.200          34.518  
R03  20227489.400   108279382.888        3154.734          33.761  
> 2022  9 17 17 35 24.0002592  0 18
C19  26317041.991                       -2845.163          25.489  
C21  22419601.833   116744733.553        1902.091          29.631  
C22  22413161.991   116711206.059       -1281.922          32.285  
C36  22379667.978   116536817.690       -1011.871          26.412  
E04                                                                                                                                  26349728.363   103401995.241       -1324.042          28.397  
E05                                                                                                                                  25101843.455    98505023.493        1899.397          33.672  
E09                                                                                                                                  23476345.964    92126222.905         208.542          30.364  
E24                                                                                                                                  25848154.895   101433718.021        2504.737          28.446  
E31                                                                                                                                  23958206.279    94017101.389         848.149          26.575  
E34                                                                                                                                  27703338.678                       -1092.985          18.255  
G05  21106779.481   110916865.168       -1269.585          25.766  
G07  24626872.971                       -2459.887          19.453  
G13  20086641.507   105556025.602        1046.078          34.291  
G14  21229542.993   111561999.500         746.551          29.352  
G18  24311113.866   127755769.030        -452.055          26.929  
G30  22099792.832   116135106.993       -1901.615          30.127  
R02  19455989.998   103820849.199        -737.136          34.306  
R03  20227025.322   108276870.806        3154.008          33.768  
> 2022  9 17 17 35 25.0002595  0 19
C19  26317677.851   137043047.0311      -2845.572          25.287  
C21  22419330.820   116743300.300        1901.583          29.836  
C22  22413497.459   116712956.844       -1282.456          32.190  
C36  22379952.182   116538298.302       -1012.282          26.305  
E04                                                                                                                                  26350155.267   103403672.501       -1324.325          28.415  
E05                                                                                                                                  25101448.929    98503477.136        1899.292          33.899  
E09                                                                                                                                  23476381.639    92126367.491         208.349          29.936  
E24                                                                                                                                  25847605.375   101431566.303        2504.653          28.402  
E31                                                                                                                                  23958078.567    94016606.558         847.765          26.616  
E34                                                                                                                                  27703711.320                       -1095.495          17.713  
G05  21107108.053                       -1270.026          25.712  
G07  24627434.182                       -2465.504          18.084  
G13  20086533.582   105555452.564        1045.665          34.276  
G14  21229487.831   111561726.291         745.834          29.474  
G15  21277298.133                        2935.841          16.436  
G18  24311284.148   127756694.457        -452.801          26.764  
G30  22100246.418   116137481.491       -1901.871          29.647  
R02  19456219.340   103822067.015        -737.891          34.552  
R03  20226517.174   108274198.710        3153.540          33.630  
> 2022  9 17 17 35 26.0002598  0 18
C19  26318315.509                       -2846.606          25.362  
C21  22419056.210   116741867.574        1901.055          29.853  
C22  22413834.126   116714708.167       -1282.993          32.026  
C36  22380236.385   116539779.508       -1012.876          26.717  
E04                                                                                                                                  26350584.270   103405349.812       -1324.375          28.640  
E05                                                                                                                                  25101054.701    98501930.980        1899.091          33.657  
E09                                                                                                                                  23476417.914    92126512.356         208.071          30.044  
E24                                                                                                                                  25847057.654   101429414.982        2504.256          28.574  
E31                                                                                                                                  23957952.355    94016112.189         847.304          26.116  
E34                                                                                                                                  27704077.067                       -1088.668          18.506  
G05  21107436.925   110920351.8691      -1271.092          25.911  
G07  24627984.601                       -2462.305          19.550  
G13  20086421.760   105554880.107        1045.083          34.424  
G14  21229438.965   111561453.842         745.075          29.370  
G18  24311457.728   127757620.470        -453.387          27.150  
G30  22100697.905   116139856.413       -1902.296          29.801  
R02  19456439.687   103823285.620        -738.680          34.382  
R03  20226012.923   108271527.277        3152.877          33.224  
> 2022  9 17 17 35 27.0002601  0 19
C19  26318954.067                       -2845.415          25.525  
C21  22418781.600   116740435.215        1900.688          29.615  
C22  22414169.293   116716459.890       -1283.394          31.967  
C36  22380520.288   116541260.933       -1013.096          26.195  
E04                                                                                                                                  26351012.074   103407027.426       -1324.679          28.133  
E05                                                                                                                                  25100662.573    98500384.858        1899.057          34.049  
E09                                                                                                                                  23476456.887    92126657.460         207.830          30.019  
E24                                                                                                                                  25846508.734   101427263.705        2504.212          28.378  
E31                                                                                                                                  23957826.142    94015618.176         846.948          26.413  
E34                                                                                                                                  27704440.715                       -1089.316          17.266  
G05  21107778.389   110922096.075       -1271.580          26.122  
G07  24628547.611                       -2458.980          18.957  
G13  20086316.233   105554308.011        1044.722          34.433  
G14  21229386.801   111561181.965         744.503          29.223  
G15  21276358.284                        2935.352          16.057  
G18  24311645.398   127758547.089        -453.992          26.950  
G30  22101149.393   116142231.447       -1902.408          29.688  
R02  19456678.022   103824504.897        -739.352          34.149  
R03  20225523.362   108268856.168        3152.552          33.388  
> 2022  9 17 17 35 28.0002604  0 19
C19  26319588.728   137052989.4991      -2845.972          24.942  
C21  22418503.993   116739003.326        1900.218          29.485  
C22  22414508.359   116718212.086       -1283.866          32.174  
C36  22380805.091   116542742.787       -1013.525          26.224  
E04                                                                                                                                  26351438.379   103408705.002       -1324.641          28.121  
E05                                                                                                                                  25100267.147    98498838.869        1898.924          33.834  
E09                                                                                                                                  23476492.263    92126802.799         207.596          29.829  
E24                                                                                                                                  25845960.714   101425112.602        2504.038          28.378  
E31                                                                                                                                  23957700.529    94015124.413         846.697          26.133  
E34                                                                                                                                  27704810.958                       -1090.434          17.447  
G05  21108112.658   110923840.934       -1272.233          26.761  
G13  20086205.609   105553736.365        1044.272          34.541  
G14  21229335.237   111560910.854         743.737          29.205  
G15  21275869.922                        2923.711          15.931  
G18  24311818.678   127759474.261        -454.547          27.345  
G20  22929685.809                       -3068.395          15.641  
G30  22101602.379   116144606.785       -1902.712          29.652  
R02  19456899.569   103825724.865        -740.043          34.313  
R03  20225021.209   108266185.614        3151.998          33.155  
> 2022  9 17 17 35 29.0002607  0 17
C19  26320225.787                       -2846.024          24.970  
C21  22418227.284   116737572.152        1899.504          29.620  
C22  22414844.726   116719964.935       -1284.520          31.926  
C36  22381086.896                       -1014.324          26.359  
E04                                                                                                                                  26351865.883   103410382.966       -1325.029          28.040  
E05                                                                                                                                  25099872.920    98497293.182        1898.622          33.722  
E09                                                                                                                                  23476529.437    92126948.479         207.254          30.141  
E24                                                                                                                                  25845413.293   101422961.873        2503.664          28.581  
E31                                                                                                                                  23957575.815    94014631.203         846.145          26.043  
G05  21108440.930   110925586.641       -1273.080          26.213  
G13  20086098.583   105553165.396        1043.594          34.614  
G14  21229285.172   111560640.692         742.788          29.340  
G18  24311992.258   127760402.343        -455.455          26.847  
G20  22930362.141                       -3073.214          16.507  
G30  22102055.066   116146982.644       -1903.233          29.502  
R02  19457124.113   103826945.798        -741.008          34.285  
R03  20224522.954   108263515.749        3151.309          33.027  
> 2022  9 17 17 35 30.0002611  0 18
C19  26320892.525   137059774.8981      -2846.419          25.090  
C21  22417985.352   116736297.554        1899.037          29.690  
C22  22415212.871   116721874.483       -1285.108          32.177  
C36  22381402.278   116545864.3741      -1014.673          26.161  
E04                                                                                                                                  26352322.767   103412178.710       -1325.164          27.981  
E05                                                                                                                                  25099509.571    98495865.274        1898.488          33.832  
E09                                                                                                                                  23476597.190    92127212.102         206.957          29.953  
E24                                                                                                                                  25844895.251   101420929.060        2503.393          28.316  
E31                                                                                                                                  23957480.182    94014256.117         845.667          26.136  
G05  21108803.979   110927490.561       -1273.752          26.406  
G07  24630254.630                       -2467.258          19.169  
G13  20086020.038   105552752.410        1043.154          34.503  
G14  21229265.685   111560528.741         742.119          29.552  
G18  24312197.616                        -456.963          26.775  
G20  22931057.959                       -3073.921          17.200  
G30  22102538.031   116149516.422       -1903.610          29.156  
R02  19457392.428   103828327.470        -741.772          34.197  
R03  20224057.976   108261006.859        3150.815          32.854  
> 2022  9 17 17 35 31.0002614  0 17
C19  26321528.685   137063089.971       -2846.744          24.859  
C21  22417709.543   116734867.558        1898.325          29.760  
C22  22415548.339   116723628.587       -1285.775          32.150  
C36  22381693.376   116547347.923       -1015.219          26.292  
E04                                                                                                                                  26352750.570   103413857.211       -1325.566          27.616  
E05                                                                                                                                  25099115.044    98494320.016        1898.193          33.748  
E09                                                                                                                                  23476633.165    92127358.532         206.505          30.012  
E24                                                                                                                                  25844346.931   101418778.930        2503.065          28.135  
E31                                                                                                                                  23957353.969    94013763.956         845.095          25.878  
G05  21109137.049   110929237.850       -1274.663          26.682  
G07  24630809.545                       -2465.875          18.859  
G13  20085910.314   105552182.644        1042.393          34.540  
G14  21229210.823   111560260.226         741.141          29.581  
G18  24312378.391   127762418.0621       -456.358          27.500  
G30  22102987.720   116151893.031       -1903.983          28.858  
R02  19457613.674   103829550.171        -742.776          34.264  
R03  20223558.522   108258338.274        3150.028          32.642  
> 2022  9 17 17 35 32.0002617  0 19
C19  26322167.543   137066405.363       -2847.062          24.039  
C21  22417434.333   116733438.105        1897.782          29.718  
C22  22415885.006   116725383.169       -1286.252          31.953  
C36  22381976.980   116548831.958       -1015.706          26.256  
E04                                                                                                                                  26353178.374   103415535.916       -1325.771          27.702  
E05                                                                                                                                  25098722.916    98492774.942        1898.009          33.709  
E09                                                                                                                                  23476672.438    92127505.218         206.249          30.005  
E24                                                                                                                                  25843798.311   101416629.011        2502.854          28.053  
E31                                                                                                                                  23957228.656    94013272.092         844.800          26.751  
G05  21109471.017   110930985.862       -1275.387          26.691  
G07  24631351.270                       -2462.260          18.838  
G13  20085800.889   105551613.355        1041.915          34.328  
G14  21229156.861   111559992.414         740.438          29.159  
G15  21274041.188                        2925.118          14.864  
G18  24312557.367   127763348.230        -457.543          27.293  
G20  22932419.017                       -3074.232          18.384  
G30  22103438.008   116154270.085       -1904.428          28.847  
R02  19457850.510   103830773.630        -743.534          34.494  
R03  20223064.464   108255670.259        3149.459          32.669  
> 2022  9 17 17 35 33.0002620  0 17
C19  26322802.503   137069720.368       -2846.676          24.009  
C21  22417163.621   116732009.185        1897.249          29.559  
C22  22416223.172   116727138.380       -1286.882          31.941  
C36  22382257.286   116550316.520       -1016.232          26.304  
E04                                                                                                                                  26353607.377   103417214.722       -1325.871          27.623  
E05                                                                                                                                  25098327.789    98491230.050        1897.827          33.809  
E09                                                                                                                                  23476709.013    92127652.198         205.955          29.950  
E24                                                                                                                                  25843250.290   101414479.327        2502.619          28.145  
E31                                                                                                                                  23957103.043    94012780.744         844.282          26.117  
G05  21109805.286   110932734.557       -1276.068          26.687  
G07  24631924.474                       -2457.704          18.655  
G13  20085693.564   105551044.590        1041.391          34.265  
G14  21229109.493   111559725.438         739.602          29.126  
G18  24312734.844   127764279.078        -458.222          27.263  
G30  22103889.496   116156647.463       -1904.752          28.706  
R02  19458078.952   103831997.861        -744.306          34.596  
R03  20222565.609   108253002.804        3148.899          32.646  
> 2022  9 17 17 35 34.0002623  0 18
C19  26323436.264   137073036.142       -2847.444          23.759  
C21  22416888.411   116730580.787        1896.728          29.778  
C22  22416559.839   116728894.084       -1287.375          31.751  
C36  22382545.986                       -1017.286          25.597  
E04                                                                                                                                  26354033.982   103418893.787       -1326.130          27.879  
E05                                                                                                                                  25097935.061    98489685.341        1897.644          33.693  
E09                                                                                                                                  23476746.487    92127799.492         205.641          29.983  
E24                                                                                                                                  25842703.469   101412329.976        2502.287          27.994  
E31                                                                                                                                  23956978.629    94012289.880         843.799          26.381  
G05  21110138.655   110934483.921       -1276.738          26.805  
G07  24632487.484                       -2459.336          19.709  
G13  20085584.739   105550476.346        1040.870          34.275  
G14  21229062.126   111559459.240         738.824          29.122  
G18  24312916.218   127765210.706        -459.001          26.772  
G20  22933765.684                       -3080.547          17.288  
G30  22104338.885   116159025.167       -1905.079          28.629  
R02  19458320.285   103833222.848        -745.061          34.669  
R03  20222072.750   108250335.979        3148.269          32.485  
> 2022  9 17 17 35 35.0002627  0 18
C19  26324105.701                       -2850.290          23.900  
C21  22416644.680   116729308.381        1896.845          30.223  
C22  22416926.185   116730805.795       -1287.272          31.644  
C36  22382862.866   116553442.5191      -1016.495          26.137  
E04                                                                                                                                  26354492.065   103420690.229       -1325.862          27.860  
E05                                                                                                                                  25097570.813    98488257.949        1897.973          33.837  
E09                                                                                                                                  23476813.640    92128064.238         205.834          30.231  
E24                                                                                                                                  25842186.027   101410297.996        2502.560          27.966  
E31                                                                                                                                  23956883.295    94011916.435         844.025          26.103  
G05  21110502.303   110936390.966       -1276.877          26.799  
G07  24633080.473                       -2461.263          20.119  
G13  20085508.292   105550065.509        1041.006          34.003  
G14  21229036.644   111559350.619         738.789          28.640  
G18  24313112.283   127766299.779        -458.905          27.130  
G20  22934458.805                       -3073.141          18.621  
G30  22104824.249   116161560.118       -1904.783          28.606  
R02  19458565.216   103834607.979        -745.231          34.446  
R03  20221599.378   108247829.454        3148.449          32.719  
> 2022  9 17 17 35 36.0002630  0 17
C19  26324741.261                       -2847.789          23.845  
C21  22416371.869   116727879.155        1897.555          30.037  
C22  22417263.751   116732560.716       -1286.591          31.437  
C36  22383147.669   116554926.656       -1015.807          25.671  
E04                                                                                                                                  26354918.969   103422368.324       -1325.160          27.652  
E05                                                                                                                                  25097176.886    98486712.206        1898.678          33.974  
E09                                                                                                                                  23476850.814    92128210.680         206.493          29.845  
E24                                                                                                                                  25841637.107   101408147.688        2503.243          28.473  
E31                                                                                                                                  23956758.881    94011425.068         844.302          26.253  
G05  21110828.178   110938139.874       -1276.282          26.688  
G07  24633635.989                       -2462.322          20.038  
G13  20085396.170   105549496.518        1041.617          34.181  
G14  21228986.878   111559084.001         739.244          28.906  
G18  24313291.858   127767230.763        -458.358          26.580  
G30  22105274.237   116163936.591       -1903.847          28.200  
R02  19458789.161   103835832.761        -744.857          34.469  
R03  20221096.326   108245161.831        3149.067          32.285  
> 2022  9 17 17 35 37.0002633  0 18
C19  26325369.326                       -2840.722          23.254  
C21  22416097.559   116726449.483        1898.001          30.160  
C22  22417601.018   116734315.150       -1286.106          31.493  
C36  22383433.671                       -1015.017          26.382  
E04                                                                                                                                  26355346.773   103424045.814       -1324.555          27.742  
E05                                                                                                                                  25096782.659    98485165.824        1899.317          33.735  
E09                                                                                                                                  23476888.588    92128356.665         206.950          29.904  
E24                                                                                                                                  25841090.885   101405996.801        2503.822          28.529  
E31                                                                                                                                  23956634.467    94010933.207         844.797          26.479  
G05  21111165.744   110939888.495       -1275.995          26.249  
G07  24634201.397                       -2462.297          20.112  
G13  20085291.842   105548926.876        1042.268          34.044  
G14  21228938.312   111558817.167         739.460          29.005  
G18  24313469.036   127768161.357        -457.968          26.342  
G20  22935814.766                       -3069.634          18.399  
G30  22105728.722   116166312.451       -1903.234          28.428  
R02  19459033.791   103837057.227        -744.541          34.480  
R03  20220605.566   108242493.605        3149.670          32.283  
> 2022  9 17 17 35 38.0002636  0 18
C19  26326008.783                       -2842.118          23.517  
C21  22415819.651   116725019.336        1898.477          30.366  
C22  22417934.987   116736069.179       -1285.699          31.605  
C36  22383718.474   116557893.2841      -1014.738          26.316  
E04                                                                                                                                  26355773.977   103425722.762       -1324.013          27.064  
E05                                                                                                                                  25096388.432    98483618.887        1899.872          33.750  
E09                                                                                                                                  23476926.062    92128502.165         207.436          30.235  
E24                                                                                                                                  25840541.965   101403845.507        2504.229          28.247  
E31                                                                                                                                  23956506.156    94010441.020         845.122          26.267  
G05  21111494.616   110941636.753       -1275.632          26.349  
G07  24634746.420                       -2460.672          20.808  
G13  20085179.420   105548356.850        1042.652          34.072  
G14  21228883.750   111558550.131         739.662          29.450  
G18  24313647.712   127769091.770        -457.787          26.524  
G20  22936500.691                       -3070.005          19.393  
G30  22106182.908   116168687.624       -1902.548          28.450  
R02  19459259.535   103838281.542        -744.390          34.307  
R03  20220111.808   108239825.011        3150.038          32.084  
> 2022  9 17 17 35 39.0002639  0 18
C19  26326650.639                       -2844.292          23.260  
C21  22415547.140   116723589.046        1898.619          30.663  
C22  22418272.853   116737823.046       -1285.538          31.574  
C36  22384003.277   116559376.130       -1014.517          26.278  
E04                                                                                                                                  26356200.882   103427399.466       -1323.770          26.973  
E05                                                                                                                                  25095994.804    98482071.623        1900.199          33.585  
E09                                                                                                                                  23476961.738    92128647.479         207.621          29.953  
E24                                                                                                                                  25839992.745   101401693.851        2504.591          28.429  
E31                                                                                                                                  23956383.241    94009948.785         845.169          26.161  
G05  21111827.986   110943385.156       -1275.777          26.114  
G07  24635326.219                       -2458.290          19.753  
G13  20085068.796   105547786.605        1042.871          33.946  
G14  21228835.183   111558283.107         739.650          29.372  
G18  24313823.990   127770022.053        -457.657          26.465  
G20  22937171.627                       -3069.808          19.686  
G30  22106634.096   116171062.493       -1902.242          28.122  
R02  19459482.581   103839505.895        -744.429          34.150  
R03  20219613.253   108237156.230        3150.225          32.306  
> 2022  9 17 17 35 40.0002643  0 18
C19  26327311.981   137093228.4711      -2843.537          23.859  
C21  22415303.408   116722315.029        1898.456          30.881  
C22  22418639.799   116739733.141       -1285.656          31.556  
C36  22384320.457   116561015.174       -1014.605          26.233  
E04                                                                                                                                  26356658.665   103429193.640       -1323.594          27.288  
E05                                                                                                                                  25095631.456    98480641.882        1900.322          33.756  
E09                                                                                                                                  23477030.390    92128910.411         207.649          29.849  
E24                                                                                                                                  25839474.404   101399659.779        2504.652          28.208  
E31                                                                                                                                  23956288.806    94009574.316         845.049          26.084  
G05  21112191.634   110945291.312       -1275.989          25.926  
G07  24635908.715                       -2459.233          19.479  
G13  20084997.745   105547374.042        1042.731          34.066  
G14  21228817.495   111558174.067         739.207          29.310  
G18  24314029.947   127771110.250        -458.029          26.571  
G20  22937872.841                       -3066.244          19.387  
G30  22107112.864   116173594.824       -1902.163          28.394  
R02  19459743.700   103840890.596        -744.801          34.007  
R03  20219130.587   108234648.209        3149.946          32.117  
> 2022  9 17 17 35 41.0002646  0 18
C19  26327950.239                       -2842.801          23.425  
C21  22415031.796   116720886.433        1896.926          30.831  
C22  22418977.965   116741488.692       -1287.221          31.571  
C36  22384604.960   116562499.587       -1016.083          26.032  
E04                                                                                                                                  26357085.569   103430871.118       -1324.543          27.196  
E05                                                                                                                                  25095236.030    98479095.411        1899.406          33.763  
E09                                                                                                                                  23477066.965    92129056.749         206.597          30.033  
E24                                                                                                                                  25838926.683   101397509.181        2503.532          28.447  
E31                                                                                                                                  23956161.395    94009083.475         843.776          25.882  
G05  21112521.406   110947041.654       -1277.715          25.645  
G07  24636448.042                       -2459.183          20.174  
G13  20084883.824   105546805.490        1041.178          34.054  
G14  21228766.231   111557909.192         737.502          29.486  
G18  24314207.724   127772042.509        -459.633          26.419  
G20  22938541.678                       -3068.119          19.518  
G30  22107564.352   116175970.953       -1903.503          28.605    22107573.046    86754869.5821      -1421.489          25.504  
R02  19459971.242   103842117.117        -746.596          34.157  
R03  20218632.632   108231981.228        3148.425          32.148  
> 2022  9 17 17 35 42.0002649  0 18
C19  26328587.298                       -2847.336          24.592  
C21  22414757.786   116719459.294        1895.468          31.117  
C22  22419315.831   116743245.737       -1288.716          31.040  
C36  22384887.065   116563985.465       -1017.549          26.345  
E04                                                                                                                                  26357516.071   103432549.582       -1325.529          26.956  
E05                                                                                                                                  25094841.503    98477549.838        1898.508          33.963  
E09                                                                                                                                  23477103.539    92129204.106         205.578          29.617  
E24                                                                                                                                  25838378.363   101395359.469        2502.648          28.390  
E31                                                                                                                                  23956036.381    94008593.682         842.727          26.170  
G05  21112844.882                       -1280.228          25.454  
G07  24637019.446                       -2464.196          20.125  
G13  20084781.895   105546238.389        1039.727          34.178  
G14  21228717.065   111557646.053         735.765          29.621  
G18  24314379.805                        -462.401          25.762  
G20  22939210.815                       -3073.737          20.007  
G30  22108019.137   116178348.407       -1904.828          28.485    22108026.931    86756645.017       -1422.500          25.422  
R02  19460188.592   103843345.455        -748.412          34.126  
R03  20218131.079   108229315.857        3146.815          31.917  
> 2022  9 17 17 35 43.0002652  0 18
C19  26329222.259                       -2847.747          24.502  
C21  22414482.277   116718033.435        1894.188          31.390  
C22  22419653.697   116745004.058       -1289.991          31.355  
C36  22385174.866   116565472.529       -1018.735          26.216  
E04                                                                                                                                  26357940.577   103434228.753       -1326.236          26.576  
E05                                                                                                                                  25094448.475    98476004.959        1897.814          33.684  
E09                                                                                                                                  23477141.913    92129352.352         204.689          29.612  
E24                                                                                                                                  25837831.242   101393210.526        2501.878          28.702  
E31                                                                                                                                  23955913.166    94008104.873         841.744          26.303  
G05  21113184.546   110950547.1291      -1280.852          25.385  
G07  24637579.159                       -2463.698          19.799  
G13  20084670.372   105545672.539        1038.477          34.081  
G14  21228668.199   111557384.485         734.194          29.637  
G18  24314564.177   127773911.6731       -462.108          25.827  
G20  22939900.038                       -3074.137          19.788  
G30  22108469.125   116180726.928       -1905.895          28.369    22108477.819    86758421.154       -1423.202          25.379  
R02  19460426.927   103844575.354        -749.975          33.850  
R03  20217649.013   108226651.732        3145.569          31.866  
> 2022  9 17 17 35 44.0002655  0 18
C19  26329865.913   137106487.0061      -2847.605          24.482  
C21  22414211.564   116716608.510        1893.255          31.395  
C22  22419989.164   116746763.269       -1290.881          31.229  
C36  22385458.769                       -1019.706          26.034  
E04                                                                                                                                  26358369.580   103435908.428       -1326.739          26.772  
E05                                                                                                                                  25094056.346    98474460.640        1897.254          33.701  
E09                                                                                                                                  23477179.687    92129501.135         204.152          29.782  
E24                                                                                                                                  25837283.821   101391062.159        2501.302          28.894  
E31                                                                                                                                  23955787.254    94007616.849         840.958          26.208  
G05  21113523.312                       -1282.141          25.539  
G07  24638128.379                       -2469.111          20.295  
G13  20084563.346   105545107.685        1037.479          34.197  
G14  21228618.133   111557124.019         733.092          29.438  
G18  24314738.357   127774848.136        -463.837          26.457  
G20  22940566.476                       -3074.589          19.555  
G30  22108923.910   116183106.185       -1906.631          28.736  
R02  19460658.067   103845806.469        -751.190          34.254  
R03  20217143.863   108223988.611        3144.565          31.887  
> 2022  9 17 17 35 45.0002659  0 19
C19  26330532.652                       -2847.434          24.248  
C21  22413966.634   116715340.544        1892.405          31.313  
C22  22420357.909   116748679.498       -1291.790          31.122  
C36  22385772.052   116568605.2881      -1020.428          25.933  
E04                                                                                                                                  26358827.663   103437706.273       -1327.266          26.791  
E05                                                                                                                                  25093690.899    98473034.307        1896.913          33.744  
E09                                                                                                                                  23477248.039    92129768.094         203.621          29.732  
E24                                                                                                                                  25836766.079   101389031.916        2500.823          28.455  
E31                                                                                                                                  23955693.119    94007247.034         840.395          26.018  
E34                                                                                                                                  27711187.544                       -1095.273          17.188  
G05  21113890.258   110954215.0061      -1283.094          25.855  
G07  24638727.964                       -2465.820          20.145  
G13  20084482.102   105544701.089        1036.765          34.254  
G14  21228598.647   111557022.221         731.965          29.382  
G18  24314951.809   127775943.116        -464.812          25.613  
G20  22941279.982                       -3076.294          19.982  
G30  22109409.274   116185643.706       -1907.353          28.303  
R02  19460935.675   103847198.669        -752.300          34.043  
R03  20216672.289   108221486.834        3143.702          31.568  
> 2022  9 17 17 35 46.0002662  0 18
C19  26331171.209                       -2848.277          24.339  
C21  22413693.223   116713917.248        1891.625          31.212  
C22  22420697.874   116750440.390       -1292.563          30.934  
C36  22386057.755   116570094.817       -1021.199          25.405  
E05                                                                                                                                  25093297.871    98471490.707        1896.534          33.932  
E09                                                                                                                                  23477286.413    92129917.845         203.183          29.952  
E24                                                                                                                                  25836219.258   101386884.455        2500.396          28.402  
E31                                                                                                                                  23955570.204    94006760.269         839.700          26.545  
E34                                                                                                                                  27711557.788                       -1099.472          17.077  
G05  21114223.327   110955971.538       -1283.906          26.065  
G07  24639281.081                       -2464.221          20.808  
G13  20084376.575   105544137.838        1035.877          34.425  
G14  21228546.183   111556763.869         730.979          29.293  
G18  24315128.687   127776881.424        -465.683          26.084  
G20  22941946.121                       -3075.203          21.052  
G30  22109861.961   116188024.226       -1907.894          28.217    22109867.957                       -1424.809          26.104  
R02  19461162.617   103848431.847        -753.252          34.413  
R03  20216166.539   108218825.331        3142.946          31.614  
> 2022  9 17 17 35 47.0002665  0 19
C19  26331801.673                       -2848.448          24.211  
C21  22413420.412   116712494.515        1891.062          31.069  
C22  22421034.841   116752201.862       -1293.142          30.697  
C36  22386345.256   116571584.787       -1021.641          25.789  
E04                                                                                                                                  26359684.770   103441067.5201      -1327.844          26.238  
E05                                                                                                                                  25092905.143    98469947.343        1896.300          33.856  
E09                                                                                                                                  23477325.985    92130068.018         202.762          29.970  
E24                                                                                                                                  25835672.136   101384737.242        2500.149          28.337  
E31                                                                                                                                  23955445.190    94006273.989         839.215          26.377  
E34                                                                                                                                  27711923.235                       -1096.031          17.301  
G05  21114558.795   110957728.850       -1284.686          26.068  
G07  24639843.791                       -2459.228          20.719  
G13  20084269.250   105543575.086        1035.377          34.546  
G14  21228499.416   111556506.358         730.137          29.543  
G18  24315310.361   127777820.413        -466.363          26.084  
G20  22942618.556                       -3074.237          19.835  
G30  22110313.149   116190405.123       -1908.270          28.052    22110321.243                       -1425.132          25.917  
R02  19461394.057   103849665.940        -754.168          34.131  
R03  20215679.376   108216164.631        3142.144          31.677  
> 2022  9 17 17 35 48.0002668  0 19
C19  26332441.130                       -2847.567          24.704  
C21  22413147.001   116711071.979        1890.865          30.772  
C22  22421373.906   116753963.513       -1293.322          30.464  
C36  22386632.757   116573074.882       -1021.766          26.222  
E04                                                                                                                                  26360112.574   103442748.182       -1327.728          26.167  
E05                                                                                                                                  25092510.916    98468403.844        1896.433          33.646  
E09                                                                                                                                  23477362.860    92130218.126         202.827          29.963  
E24                                                                                                                                  25835124.116   101382590.110        2500.067          28.363  
E31                                                                                                                                  23955321.676    94005787.810         839.114          26.428  
E34                                                                                                                                  27712288.982                       -1089.559          17.568  
G05  21114888.567   110959486.568       -1285.092          26.559  
G07  24640395.109                       -2458.667          20.323  
G13  20084169.719   105543012.525        1035.188          34.499  
G14  21228449.950   111556249.237         729.747          29.254  
G18  24315489.037                        -467.323          25.665  
G20  22943311.676                       -3078.517          19.884  
G30  22110767.634   116192786.105       -1908.356          27.713    22110773.930    86767426.3651      -1425.027          26.196  
R02  19461618.002   103850900.476        -754.611          34.337  
R03  20215191.014   108213503.991        3142.084          31.171  
> 2022  9 17 17 35 49.0002672  0 18
C19  26333106.969                       -2849.402          25.182  
C21  22412903.570   116709806.199        1890.219          30.774  
C22  22421741.152   116755881.924       -1293.972          30.375  
C36  22386948.138   116574721.664       -1022.343          25.693  
E04                                                                                                                                  26360570.657   103444546.781       -1328.019          26.426  
E05                                                                                                                                  25092147.867    98466978.254        1896.170          33.930  
E09                                                                                                                                  23477431.812    92130486.313         202.393          29.724  
E24                                                                                                                                  25834607.274   101380560.795        2499.895          28.499  
E31                                                                                                                                  23955227.241    94005419.834         838.556          26.397  
G05  21115255.213   110961402.582       -1285.846          26.970  
G07  24640978.805                       -2460.416          19.676  
G13  20084088.775   105542608.122        1034.571          34.522  
G14  21228429.864   111556150.494         728.911          29.135  
G18  24315702.190   127779857.4541       -466.956          25.642  
G20  22944011.991                       -3080.973          19.362  
G30  22111251.199   116195325.002       -1908.729          27.963  
R02  19461887.516   103852295.909        -755.533          34.446  
R03  20214706.850   108211004.516        3141.400          31.631  
> 2022  9 17 17 35 50.0002675  0 19
C19  26333744.628                       -2849.502          25.388  
C21  22412627.761   116708384.849        1889.679          30.625  
C22  22422078.118   116757644.783       -1294.529          30.107  
C36  22387234.140                       -1023.353          26.196  
E04                                                                                                                                  26360998.760   103446227.988       -1328.273          26.137  
E05                                                                                                                                  25091754.840    98465435.245        1895.944          33.612  
E09                                                                                                                                  23477468.986    92130637.124         202.124          29.858  
E24                                                                                                                                  25834060.152   101378414.190        2499.540          28.288  
E31                                                                                                                                  23955104.326    94004934.514         838.255          26.356  
G05  21115594.278   110963161.846       -1286.638          26.865  
G07  24641530.423                       -2465.286          20.587  
G13  20083981.749   105542046.690        1034.058          34.442  
G14  21228384.295   111555895.071         728.049          29.119  
G18  24315875.470   127780798.375        -468.295          25.184  
G20  22944680.528                       -3078.143          18.772  
G30  22111704.785   116197706.744       -1909.116          27.525    22111709.282    86771100.9301      -1425.749          26.906  
R01  23439480.785                       -3488.108          22.900  
R02  19462120.155   103853532.171        -756.337          34.119  
R03  20214230.779   108208345.189        3140.770          31.561  
> 2022  9 17 17 35 51.0002678  0 19
C19  26334382.886   137130018.0201      -2849.010          25.371  
C21  22412353.750   116706964.316        1888.862          30.352  
C22  22422418.083   116759408.483       -1295.370          30.032  
C36  22387521.042   116577704.8131      -1023.645          26.119  
E04                                                                                                                                  26361426.264   103447909.582       -1328.659          26.084  
E05                                                                                                                                  25091361.512    98463892.606        1895.574          33.615  
E09                                                                                                                                  23477507.660    92130788.453         201.606          30.088  
E24                                                                                                                                  25833513.031   101376268.006        2499.119          28.502  
E31                                                                                                                                  23954980.212    94004450.029         837.421          26.158  
G05  21115934.842   110964922.038       -1287.567          26.908  
G07  24642109.622                       -2468.267          19.626  
G13  20083872.924   105541486.134        1033.182          34.332  
G14  21228335.129   111555640.669         727.028          29.218  
G18  24316055.345                        -469.655          25.433  
G20  22945351.764                       -3075.566          18.794  
G30  22112159.870   116200089.026       -1909.657          27.455    22112164.067    86772879.858       -1425.992          26.933  
R01  23440233.564                       -3489.844          22.813  
R02  19462342.900   103854769.451        -757.355          34.011  
R03  20213717.834   108205686.730        3139.903          31.348  
> 2022  9 17 17 35 52.0002681  0 19
C19  26335021.444                       -2850.118          25.437  
C21  22412080.040   116705544.446        1888.200          30.447  
C22  22422757.748   116761172.839       -1296.027          30.206  
C36  22387804.645   116579197.278       -1024.136          26.099  
E04                                                                                                                                  26361855.567   103449591.527       -1329.010          25.979  
E05                                                                                                                                  25090969.983    98462350.282        1895.260          33.777  
E09                                                                                                                                  23477548.132    92130940.162         201.226          29.775  
E24                                                                                                                                  25832966.509   101374122.234        2498.707          28.627  
E31                                                                                                                                  23954857.297    94003965.930         837.034          25.853  
G05  21116269.711   110966683.073       -1288.409          26.803  
G07  24642658.542                       -2463.514          19.332  
G13  20083770.095   105540926.190        1032.570          34.597  
G14  21228283.865   111555387.174         726.121          29.344  
G18  24316234.021   127782683.2471       -470.010          25.148  
G20  22946026.896                       -3082.184          19.092  
G30  22112605.062   116202471.935       -1910.283          27.177    22112615.855    86774659.394       -1426.602          26.888  
R01  23440968.055                       -3484.156          23.669  
R02  19462560.849   103856007.744        -758.368          33.855  
R03  20213226.175   108203028.909        3139.265          31.899  
> 2022  9 17 17 35 53.0002684  0 19
C19  26335655.805   137136655.2951      -2850.240          25.450  
C21  22411806.629   116704125.313        1887.463          30.338  
C22  22423095.914   116762937.915       -1296.746          30.049  
C36  22388094.245   116580690.577       -1024.969          26.046  
E04                                                                                                                                  26362284.270   103451273.765       -1329.303          25.391  
E05                                                                                                                                  25090577.255    98460808.234        1894.983          33.594  
E09                                                                                                                                  23477585.306    92131092.318         200.779          29.533  
E24                                                                                                                                  25832418.789   101371976.783        2498.386          28.358  
E31                                                                                                                                  23954734.083    94003482.411         836.453          26.462  
G05  21116596.784   110968445.003       -1289.304          26.510  
G07  24643222.452                       -2460.172          19.610  
G13  20083659.772   105540366.968        1031.849          34.592  
G14  21228234.699   111555134.638         725.162          29.289  
G18  24316411.499   127783626.687        -470.814          25.153  
G20  22946703.528                       -3084.922          17.516  
G30  22113062.845   116204855.265       -1910.704          27.406    22113071.239    86776439.150       -1426.821          26.795  
R01  23441695.952                       -3481.113          23.121  
R02  19462802.782   103857247.056        -759.387          33.792  
R03  20212726.121   108200371.961        3138.392          31.922  
> 2022  9 17 17 35 54.0002688  0 18
C19  26336325.841   137140130.286       -2850.552          25.434  
C21  22411562.598   116702862.898        1886.854          30.230  
C22  22423463.759   116764859.784       -1297.430          29.843  
C36  22388410.226   116582340.466       -1025.450          26.045  
E04                                                                                                                                  26362742.653   103453073.958       -1329.614          25.555  
E05                                                                                                                                  25090213.007    98459384.021        1894.793          33.649  
E09                                                                                                                                  23477655.457    92131362.405         200.492          29.617  
E24                                                                                                                                  25831902.846   101369949.285        2498.077          28.467  
E31                                                                                                                                  23954640.847    94003117.012         835.980          26.292  
G05  21116966.728   110970365.342       -1290.171          26.633  
G07  24643817.240                       -2462.405          20.535  
G13  20083585.723   105539965.882        1031.254          34.628  
G14  21228218.210   111555040.495         724.311          29.285  
G18  24316621.653   127784728.489        -471.634          24.781  
G30  22113549.109   116207396.641       -1911.208          26.721    22113554.505    86778336.788       -1427.058          26.949  
R01  23442458.923                       -3485.517          23.318  
R02  19463068.998   103858647.158        -760.202          33.720  
R03  20212260.543   108197876.116        3137.770          31.784  
> 2022  9 17 17 35 55.0002691  0 18
C19  26336967.097   137143449.030       -2850.415          25.536  
C21  22411291.885   116701444.762        1886.466          29.949  
C22  22423804.923   116766625.863       -1297.750          29.835  
C36  22388698.027   116583834.593       -1025.798          26.139  
E04                                                                                                                                  26363170.757   103454756.613       -1329.719          25.023  
E05                                                                                                                                  25089820.279    98457842.291        1894.665          33.503  
E09                                                                                                                                  23477693.231    92131515.141         200.199          30.048  
E24                                                                                                                                  25831358.423   101367804.274        2497.946          28.317  
E31                                                                                                                                  23954518.232    94002634.371         835.575          26.400  
G05  21117306.093   110972128.585       -1290.617          26.293  
G07  24644362.863                       -2465.443          20.239  
G13  20083479.297   105539407.636        1030.872          34.782  
G14  21228169.944   111554789.401         723.720          29.256  
G18  24316797.631   127785672.757        -471.643          24.634  
G20  22948095.164                       -3075.679          17.734  
G30  22113995.200   116209780.638       -1911.371          27.280    22114008.690    86780117.071       -1427.348          27.345  
R01  23443218.298                       -3489.470          23.335  
R02  19463304.635   103859887.933        -760.850          34.071  
> 2022  9 17 17 35 56.0002694  0 18
C19  26337593.963   137146768.251       -2850.892          25.621  
C21  22411016.076   116700027.236        1885.855          29.877  
C22  22424143.389   116768392.552       -1298.359          29.513  
C36  22388982.830   116585329.243       -1026.321          26.144  
E04                                                                                                                                  26363600.359   103456439.405       -1329.857          25.344  
E05                                                                                                                                  25089427.551    98456300.765        1894.460          33.705  
E09                                                                                                                                  23477731.904    92131668.161         199.915          29.901  
E24                                                                                                                                  25830810.702   101365659.648        2497.561          28.572  
E31                                                                                                                                  23954394.418    94002152.180         835.127          26.197  
G05  21117640.961   110973892.720       -1291.509          26.126  
G07  24644924.674                       -2465.615          18.952  
G13  20083375.868   105538849.977        1030.285          35.026  
G14  21228122.577   111554539.184         722.844          29.104  
G18  24316974.809   127786618.262        -472.878          23.937  
G30  22114457.779   116212165.048       -1911.784          27.276    22114460.178    86781897.681       -1427.675          27.561  
R01  23443953.389                       -3488.028          24.160  
R02  19463527.081   103861129.515        -761.657          33.946  
R03  20211278.423   108192564.9161       3136.768          31.509  
> 2022  9 17 17 35 57.0002697  0 19
C19  26338231.921                       -2851.380          25.367  
C21  22410745.064   116698610.198        1885.367          29.897  
C22  22424482.754   116770159.831       -1298.950          29.498  
C36  22389274.828   116586824.361       -1026.789          25.871  
E04                                                                                                                                  26364029.062   103458122.488       -1330.148          25.163  
E05                                                                                                                                  25089035.122    98454759.424        1894.276          33.737  
E09                                                                                                                                  23477771.777    92131821.505         199.591          30.030  
E24                                                                                                                                  25830263.281   101363515.148        2497.435          28.898  
E31                                                                                                                                  23954273.302    94001670.416         834.699          26.270  
G05  21117979.127   110975657.511       -1292.165          26.045  
G07  24645500.575                       -2469.580          19.265  
G13  20083270.641   105538292.877        1029.726          35.041  
G14  21228076.708   111554289.741         722.069          29.025  
G18  24317157.082                        -473.179          23.719  
G20  22949457.421                       -3077.458          17.359  
G30  22114911.965   116214549.849       -1912.175          26.880    22114914.963    86783678.522       -1427.906          27.699  
R01  23444682.784                       -3489.218          23.678  
R02  19463767.214   103862371.977        -762.537          33.673  
R03  20210778.369   108189910.222        3136.138          31.554  
> 2022  9 17 17 35 58.0002700  0 19
C19  26338876.475                       -2850.523          25.482  
C21  22410471.653   116697193.615        1884.913          30.036  
C22  22424822.418   116771927.480       -1299.319          29.542  
C36  22389561.129   116588319.804       -1027.114          26.284  
E04                                                                                                                                  26364457.166   103459805.660       -1330.237          25.087  
E05                                                                                                                                  25088641.195    98453218.173        1894.186          33.921  
E09                                                                                                                                  23477811.050    92131975.005         199.434          29.913  
E24                                                                                                                                  25829716.759   101361370.814        2497.268          28.598  
E31                                                                                                                                  23954149.487    94001189.053         834.298          26.606  
G05  21118310.398   110977422.876       -1292.739          25.942  
G07  24646056.090                       -2470.725          18.934  
G13  20083161.517   105537736.107        1029.397          35.099  
G14  21228028.442   111554040.893         721.475          29.173  
G18  24317339.056   127788511.6021       -474.113          24.533  
G20  22950109.170                       -3078.064          17.513  
G30  22115361.954   116216934.794       -1912.319          27.266    22115370.048    86785459.507       -1428.050          27.758  
R01  23445440.359                       -3489.074          24.171  
R02  19464002.851   103863615.049        -763.147          34.373  
R03  20210288.508   108187255.911        3135.755          31.618  
> 2022  9 17 17 35 59.0002704  0 19
C19  26339541.115   137156882.8191      -2851.455          25.690  
C21  22410229.121   116695933.790        1884.264          29.751  
C22  22425191.763   116773851.887       -1299.968          29.640  
C36  22389875.911   116589971.978       -1027.734          26.186  
E04                                                                                                                                  26364916.448   103461606.758       -1330.518          24.840  
E05                                                                                                                                  25088280.245    98451794.786        1893.967          33.424  
E09                                                                                                                                  23477880.002    92132246.539         199.047          29.979  
E24                                                                                                                                  25829201.116   101359344.500        2496.894          28.399  
E31                                                                                                                                  23954055.652    94000825.740         833.893          26.073  
G05  21118674.946   110979346.571       -1293.526          25.785  
G07  24646646.082                       -2463.734          19.484  
G13  20083084.470   105537337.522        1028.753          35.144  
G14  21228015.551   111553950.534         720.526          29.117  
G18  24317547.412   127789616.671        -474.901          24.353  
G20  22950810.385                       -3087.892          16.319  
G30  22115845.819   116219477.690       -1912.728          27.517    22115852.114    86787358.455       -1428.368          28.138  
R01  23446227.614                       -3488.749          24.991  
R02  19464281.658   103865019.020        -764.071          34.419  
R03  20209804.044   108184762.819        3135.017          31.284  
> 2022  9 17 17 36  0.0002707  0 19
C19  26340178.474   137160202.633       -2851.485          25.314  
C21  22409956.010   116694518.232        1883.887          29.813  
C22  22425531.727   116775620.589       -1300.372          29.505  
C36  22390164.312   116591468.407       -1028.100          25.580  
E04                                                                                                                                  26365345.751   103463290.331       -1330.638          25.376  
E05                                                                                                                                  25087886.018    98450253.885        1893.836          33.556  
E09                                                                                                                                  23477918.675    92132400.565         198.909          29.762  
E24                                                                                                                                  25828654.595   101357200.671        2496.765          28.614  
E31                                                                                                                                  23953934.236    94000345.079         833.596          26.255  
G05  21119010.114   110981113.319       -1294.122          25.548  
G07  24647200.698                       -2462.419          20.235  
G13  20082978.943   105536781.828        1028.320          35.055  
G14  21227963.986   111553703.169         719.991          29.089  
G18  24317727.887   127790564.701        -475.403          24.387  
G20  22951480.721                       -3091.105          13.335  
G30  22116299.405   116221863.333       -1913.017          27.150    22116307.199    86789139.831       -1428.441          27.918  
R01  23446966.303                       -3490.015          25.187  
R02  19464503.804   103866263.669        -764.725          34.509  
R03  20209321.678   108182109.643        3134.620          31.390  
> 2022  9 17 17 36  1.0002710  0 19
C19  26340818.231   137163522.515       -2851.552          25.239  
C21  22409686.197   116693103.182        1883.379          29.961  
C22  22425869.893   116777389.806       -1300.887          29.337  
C36  22390453.612   116592965.242       -1028.506          26.403  
E04                                                                                                                                  26365774.154   103464974.021       -1330.755          24.737  
E05                                                                                                                                  25087494.489    98448713.074        1893.746          33.600  
E09                                                                                                                                  23477957.648    92132554.878         198.622          29.943  
E24                                                                                                                                  25828108.672   101355057.007        2496.599          28.643  
E31                                                                                                                                  23953813.420    93999864.834         833.179          26.222  
G05  21119344.382   110982880.727       -1294.782          25.041  
G07  24647762.809                       -2465.757          19.033  
G13  20082874.615   105536226.550        1027.904          35.080  
G14  21227919.317   111553456.583         719.212          29.358  
G18  24317908.962   127791512.875        -475.548          24.657  
G20  22952157.352                       -3087.992          13.090  
G30  22116750.592   116224249.269       -1913.310          27.185    22116759.586    86790921.514       -1428.748          28.018  
R01  23447717.883                       -3489.123          24.898  
R02  19464740.640   103867509.079        -765.485          34.441  
R03  20208806.634   108179457.086        3134.001          31.404  
> 2022  9 17 17 36  2.0002713  0 18
C19  26341454.391   137166842.483       -2851.639          24.973  
C21  22409416.684   116691688.496        1883.016          30.135  
C22  22426210.757   116779159.405       -1301.270          29.351  
C36  22390742.312   116594462.452       -1028.881          26.434  
E04                                                                                                                                  26366203.457   103466657.858       -1330.903          25.078  
E05                                                                                                                                  25087101.161    98447172.361        1893.648          33.719  
E09                                                                                                                                  23477996.921    92132709.488         198.324          30.121  
E24                                                                                                                                  25827562.151   101352913.537        2496.405          28.482  
E31                                                                                                                                  23953688.706    93999384.954         832.815          26.004  
G05  21119681.948   110984648.771       -1295.418          24.553  
G07  24648315.326                       -2464.697          19.205  
G13  20082768.189   105535671.680        1027.496          35.049  
G14  21227872.550   111553210.612         718.597          29.298  
G18  24318090.336                        -476.894          24.244  
G30  22117206.277                       -1913.655          27.265    22117214.671    86792703.470       -1429.021          28.261  
R01  23448440.383                       -3486.427          25.482  
R02  19464969.382   103868755.144        -766.140          34.359  
R03  20208338.358   108176804.870        3133.659          31.440  
> 2022  9 17 17 36  3.0002716  0 18
C19  26342092.649   137170162.258       -2851.446          25.423  
C21  22409144.772   116690274.474        1882.352          30.232  
C22  22426550.722   116780929.671       -1301.936          29.480  
C36  22391029.813   116595960.184       -1029.403          26.734  
E04                                                                                                                                  26366633.959   103468341.923       -1331.130          24.612  
E05                                                                                                                                  25086708.433    98445631.863        1893.433          33.711  
E09                                                                                                                                  23478037.393    92132864.326         198.098          29.887  
E24                                                                                                                                  25827015.929   101350770.330        2496.141          28.759  
E31                                                                                                                                  23953567.890    93998905.545         832.344          26.456  
G05  21120014.718                       -1297.031          24.510  
G07  24648865.745                       -2463.825          18.734  
G13  20082661.763   105535117.428        1026.878          35.031  
G14  21227826.082   111552965.465         717.773          29.329  
G18  24318266.015   127793412.5231       -477.327          24.649  
G30  22117666.158   116229021.9781      -1913.960          26.814    22117669.156    86794485.615       -1429.210          27.908  
R01  23449172.476   125349371.0911      -3489.697          25.395  
R02  19465201.421   103870002.073        -767.005          34.301  
R03  20207839.504   108174153.319        3132.995          31.637  
> 2022  9 17 17 36  4.0002719  0 19
C19  26342727.309   137173483.435       -2852.847          25.156  
C21  22408872.860   116688861.139        1881.664          30.339  
C22  22426892.785   116782700.620       -1302.619          29.311  
C36  22391314.915   116597458.615       -1030.101          26.450  
E04                                                                                                                                  26367062.063   103470026.430       -1331.572          24.315  
E05                                                                                                                                  25086315.705    98444091.724        1893.074          33.760  
E09                                                                                                                                  23478076.966    92133019.649         197.612          29.715  
E24                                                                                                                                  25826470.307   101348627.507        2495.758          28.681  
E31                                                                                                                                  23953446.174    93998426.788         831.692          25.937  
G05  21120349.886                       -1297.616          24.641  
G07  24649420.062                       -2463.283          17.962  
G13  20082557.435   105534563.882        1026.172          34.993  
G14  21227776.016   111552721.326         716.766          29.260  
G18  24318449.788   127794363.352        -478.203          25.184  
G20  22954191.144                       -3083.914          15.171  
G30  22118115.847                       -1914.564          27.042    22118123.342    86796268.225       -1429.675          27.706  
R01  23449929.152   125353342.096       -3490.236          26.175  
R02  19465433.461   103871250.083        -768.085          34.483  
R03  20207349.643   108171502.525        3132.238          31.567  
> 2022  9 17 17 36  5.0002723  0 19
C19  26343394.947   137176960.580       -2852.706          25.238  
C21  22408631.527   116687604.545        1881.033          30.572  
C22  22427263.029   116784628.303       -1303.244          29.542  
C36  22391631.496   116599113.662       -1030.608          26.747  
E04                                                                                                                                  26367522.244   103471828.739       -1331.729          25.087  
E05                                                                                                                                  25085953.856    98442669.451        1892.852          33.763  
E09                                                                                                                                  23478147.117    92133292.965         197.264          29.788  
E24                                                                                                                                  25825954.364   101346602.760        2495.327          28.346  
E31                                                                                                                                  23953354.138    93998066.053         831.315          25.832  
E34                                                                                                                                  27718694.047                       -1100.953          18.217  
G05  21120709.937   110990115.1051      -1297.776          23.869  
G07  24650047.227                       -2464.985          18.143  
G13  20082481.288   105534168.441        1025.609          34.936  
G14  21227759.228   111552635.587         715.907          29.238  
G18  24318661.141                        -479.725          23.968  
G20  22954897.155                       -3082.898          15.547  
G30  22118601.511                       -1915.278          26.864    22118607.507                       -1429.823          27.743  
R01  23450708.912                       -3489.854          25.930  
R02  19465707.771   103872658.833        -768.850          34.085  
> 2022  9 17 17 36  6.0002726  0 19
C19  26344028.708   137180281.679       -2852.769          24.430  
C21  22408362.913   116686192.456        1880.419          30.681  
C22  22427604.792   116786400.479       -1303.847          29.211  
C36  22391922.894   116600613.164       -1031.173          26.739  
E04                                                                                                                                  26367950.348   103473513.739       -1332.065          24.677  
E05                                                                                                                                  25085560.828    98441129.773        1892.614          33.808  
E09                                                                                                                                  23478185.490    92133448.971         196.929          29.733  
E24                                                                                                                                  25825408.142   101344460.508        2495.187          28.434  
E31                                                                                                                                  23953233.322    93997588.201         830.787          26.272  
G05  21121050.501   110991886.382       -1298.651          24.253  
G07  24650573.063                       -2467.616          18.624  
G13  20082373.962   105533616.101        1024.966          34.881  
G14  21227716.058   111552393.100         715.112          29.145  
G18  24318850.310                        -480.599          24.426  
G20  22955576.185                       -3084.658          15.360  
G30  22119052.099   116236342.0781      -1915.331          26.887    22119062.891    86799951.9121      -1430.282          28.136  
R01  23451450.299   125361445.5271      -3491.009          26.221  
R02  19465908.332   103873908.498        -769.740          34.073  
R03  20206396.603   108166363.3941       3130.921          31.410  
> 2022  9 17 17 36  7.0002729  0 19
C19  26344667.866                       -2852.468          24.241  
C21  22408091.601   116684780.818        1879.968          30.677  
C22  22427944.757   116788173.117       -1304.309          29.006  
C36  22392213.393   116602113.064       -1031.571          26.688  
E04                                                                                                                                  26368379.950   103475198.774       -1332.100          24.178  
E05                                                                                                                                  25085168.999    98439590.158        1892.550          33.686  
E09                                                                                                                                  23478225.962    92133605.199         196.706          29.776  
E24                                                                                                                                  25824862.819   101342318.535        2494.908          28.463  
E31                                                                                                                                  23953110.107    93997110.635         830.501          26.237  
G05  21121390.466                       -1300.196          24.423  
G07  24651132.776                       -2468.565          18.192  
G13  20082274.131   105533064.196        1024.531          34.906  
G14  21227667.791   111552151.326         714.400          29.306  
G18  24319027.188                        -480.113          24.788  
G20  22956263.010                       -3078.345          15.991  
G30  22119511.980   116238730.226       -1915.522          27.252    22119515.578    86801735.346       -1430.499          28.490  
R01  23452195.883   125365417.522       -3491.227          25.869  
R02  19466156.860   103875158.876        -770.453          33.682  
R03  20205883.058   108163714.402        3130.436          30.893  
> 2022  9 17 17 36  8.0002732  0 19
C19  26345306.724                       -2854.217          24.133  
C21  22407819.389   116683369.538        1879.609          30.633  
C22  22428282.623   116789946.148       -1304.702          28.997  
C36  22392499.095   116603613.259       -1031.865          26.683  
E04                                                                                                                                  26368810.153   103476883.946       -1332.237          23.942  
E05                                                                                                                                  25084776.571    98438050.635        1892.458          33.743  
E09                                                                                                                                  23478265.235    92133761.600         196.535          29.502  
E24                                                                                                                                  25824316.598   101340176.627        2494.843          28.634  
E31                                                                                                                                  23952988.991    93996633.482         830.088          26.320  
G05  21121725.334                       -1299.531          24.256  
G07  24651695.187                       -2470.671          18.689  
G13  20082166.505   105532512.631        1024.191          34.992  
G14  21227623.122   111551910.152         713.800          29.607  
G18  24319208.262   127798330.6371       -480.822          24.785  
G20  22956934.245                       -3084.414          17.026  
G30  22119968.265   116241118.600       -1915.748          26.566    22119970.963    86803518.847       -1430.566          28.474  
R01  23452952.859   125369389.687       -3491.395          25.927  
R02  19466411.983   103876409.815        -771.014          33.559  
R03  20205379.107   108161065.767        3130.079          31.108  
> 2022  9 17 17 36  9.0002735  0 18
C19  26345950.678                       -2852.462          23.895  
C21  22407549.276   116681958.806        1879.061          30.882  
C22  22428624.386   116791719.646       -1305.168          28.489  
C36  22392782.999   116605113.993       -1032.405          26.994  
E04                                                                                                                                  26369239.455   103478569.389       -1332.507          24.416  
E05                                                                                                                                  25084384.142    98436511.311        1892.259          33.863  
E09                                                                                                                                  23478306.307    92133918.330         196.204          30.178  
E24                                                                                                                                  25823770.676   101338034.970        2494.592          28.797  
E31                                                                                                                                  23952867.875    93996156.710         829.707          26.506  
G05  21122066.198                       -1300.150          23.551  
G07  24652265.392                       -2470.272          18.304  
G13  20082063.677   105531961.591        1023.666          34.863  
G14  21227574.556   111551669.732         713.046          29.548  
G18  24319389.037   127799284.811        -481.547          24.990  
G20  22957615.973                       -3091.262          16.662  
G30  22120417.354   116243507.305       -1916.079          26.955    22120426.048    86805302.640       -1430.857          28.605  
R01  23453684.352                       -3491.782          26.185  
R02  19466635.329   103877661.633        -771.893          33.449  
> 2022  9 17 17 36 10.0002739  0 19
C19  26346617.416   137193723.6971      -2853.415          23.499  
C21  22407307.344   116680704.695        1878.551          30.610  
C22  22428993.431   116793649.907       -1305.822          28.249  
C36  22393103.177                       -1033.437          26.666  
E04                                                                                                                                  26369698.438   103480372.568       -1332.599          23.818  
E05                                                                                                                                  25084022.293    98435089.754        1892.137          33.716  
E09                                                                                                                                  23478375.859    92134192.901         196.009          29.845  
E24                                                                                                                                  25823255.033   101336011.178        2494.371          28.865  
E31                                                                                                                                  23952775.838    93995798.047         829.243          26.456  
G05  21122425.649                       -1301.783          23.526  
G07  24652849.388                       -2464.727          19.127  
G13  20081988.728   105531568.570        1023.189          35.194  
G14  21227562.264   111551587.663         712.237          29.283  
G18  24319595.295                        -482.399          24.034  
G20  22958327.081                       -3094.383          17.995  
G30  22120902.718   116246053.957       -1916.484          26.694    22120909.013    86807204.282       -1431.062          28.654  
R01  23454469.808   125377495.1891      -3492.019          26.614  
R02  19466888.354   103879074.221        -772.687          33.799  
R03  20204419.172   108155930.8501       3128.880          30.596  
> 2022  9 17 17 36 11.0002742  0 19
C19  26347252.377                       -2853.084          23.341  
C21  22407037.830   116679295.164        1877.860          30.962  
C22  22429334.295   116795424.614       -1306.378          28.150  
C36  22393396.074   116608273.0431      -1033.434          27.076  
E04                                                                                                                                  26370127.141   103482058.493       -1332.990          23.675  
E05                                                                                                                                  25083629.565    98433550.850        1891.839          33.790  
E09                                                                                                                                  23478415.131    92134350.275         195.562          29.953  
E24                                                                                                                                  25822709.410   101333870.151        2493.962          28.722  
E31                                                                                                                                  23952654.123    93995322.203         828.779          25.940  
G05  21122765.614                       -1302.739          24.257  
G07  24653414.796                       -2460.675          18.518  
G13  20081882.002   105531018.661        1022.536          35.049  
G14  21227514.597   111551348.879         711.410          29.822  
G18  24319780.866   127801353.1091       -482.944          24.158  
G20  22959000.715                       -3085.112          17.460  
G30  22121358.702   116248443.431       -1916.848          27.058    22121363.799    86808988.669       -1431.453          29.095  
R01  23455202.801   125381468.461       -3492.503          26.361  
R02  19467124.590   103880327.726        -773.581          33.271  
R03  20203926.313   108153284.071        3128.223          30.197  
> 2022  9 17 17 36 12.0002745  0 19
C19  26347891.534                       -2854.088          23.858  
C21  22406765.319   116677886.193        1877.300          31.292  
C22  22429676.658   116797199.975       -1307.032          28.261  
C36  22393684.775                       -1034.386          27.236  
E04                                                                                                                                  26370557.643   103483744.532       -1333.104          23.612  
E05                                                                                                                                  25083239.235    98432012.120        1891.665          33.658  
E09                                                                                                                                  23478455.603    92134507.985         195.225          29.492  
E24                                                                                                                                  25822164.388   101331729.345        2493.742          28.600  
E31                                                                                                                                  23952533.006    93994846.818         828.320          26.092  
G05  21123103.180   111002684.9981      -1302.729          24.537  
G07  24653972.110                       -2462.003          18.670  
G13  20081776.475   105530469.405        1021.882          34.980  
G14  21227473.526   111551110.944         710.561          29.572  
G18  24319966.138   127802309.451        -483.715          24.531  
G20  22959650.365                       -3078.884          16.057  
G30  22121809.890   116250833.361       -1917.304          26.841    22121820.083    86810773.390       -1431.786          28.986  
R01  23455950.184   125385441.993       -3492.763          26.432  
R02  19467368.022   103881582.165        -774.514          33.401  
R03  20203432.854   108150637.915        3127.600          30.172  
> 2022  9 17 17 36 13.0002748  0 19
C19  26348530.692                       -2854.665          23.711  
C21  22406496.705   116676477.940        1876.582          31.010  
C22  22430017.822   116798976.046       -1307.741          28.151  
C36  22393973.475   116611278.2091      -1034.570          27.082  
E04                                                                                                                                  26370985.447   103485430.939       -1333.472          23.567  
E05                                                                                                                                  25082847.106    98430473.792        1891.263          33.539  
E09                                                                                                                                  23478495.476    92134666.128         194.792          29.646  
E24                                                                                                                                  25821618.466   101329588.969        2493.311          28.978  
E31                                                                                                                                  23952414.289    93994371.977         827.776          25.821  
G05  21123449.740   111004461.328       -1303.703          24.378  
G07  24654532.422                       -2469.855          18.918  
G13  20081673.347   105529920.791        1021.240          34.886  
G14  21227427.957   111550873.938         709.632          29.760  
G18  24320141.816                        -485.029          24.666  
G20  22960323.998                       -3080.901          16.112  
G30  22122265.574   116253223.751       -1917.764          26.925    22122273.369    86812558.453       -1432.128          29.176  
R01  23456700.864   125389416.183       -3493.422          26.583  
R02  19467596.164   103882837.531        -775.441          33.728  
R03  20202953.187   108147992.569        3126.790          29.747  
> 2022  9 17 17 36 14.0002751  0 19
C19  26349171.048                       -2851.153          22.862  
C21  22406224.793   116675070.373        1875.896          31.040  
C22  22430358.986   116800752.770       -1308.395          27.702  
C36  22394260.976   116612781.806       -1035.268          27.120  
E04                                                                                                                                  26371416.548   103487117.675       -1333.800          23.524  
E05                                                                                                                                  25082454.378    98428935.680        1891.047          33.615  
E09                                                                                                                                  23478537.147    92134824.645         194.418          29.744  
E24                                                                                                                                  25821074.342   101327448.883        2493.021          28.528  
E31                                                                                                                                  23952291.674    93993897.798         827.114          26.243  
G05  21123784.908   111006238.453       -1304.500          24.070  
G07  24655079.544                       -2469.920          17.704  
G13  20081571.417   105529372.838        1020.580          35.244  
G14  21227379.091   111550637.872         708.692          29.748  
G18  24320318.394   127804224.0591       -485.436          24.388  
G20  22961018.318                       -3083.473          17.040  
G30  22122718.261   116255614.710       -1918.332          27.296    22122729.353    86814343.905       -1432.517          29.191  
R01  23457442.850   125393390.758       -3493.807          26.625  
R02  19467841.394   103884093.804        -776.348          33.672  
R03  20202452.233   108145347.955        3126.058          30.065  
> 2022  9 17 17 36 15.0002755  0 19
C19  26349837.487                       -2857.395          23.217  
C21  22405986.758   116673819.484        1875.329          31.120  
C22  22430727.730   116802686.169       -1308.960          27.778  
C36  22394578.456   116614441.936       -1035.691          27.270  
E04                                                                                                                                  26371878.229   103488922.291       -1334.037          23.724  
E05                                                                                                                                  25082091.929    98427515.394        1890.866          33.536  
E09                                                                                                                                  23478608.198    92135101.169         194.056          29.790  
E24                                                                                                                                  25820557.800   101325426.787        2492.676          28.616  
E31                                                                                                                                  23952201.136    93993541.590         826.788          26.669  
G05  21124157.550   111008173.823       -1305.201          24.704  
G07  24655665.938                       -2475.201          16.793  
G13  20081495.870   105528983.022        1019.984          35.150  
G14  21227363.802   111550560.141         707.898          29.733  
G18  24320535.144                        -486.389          24.036  
G20  22961735.122                       -3086.517          16.997  
G30  22123204.524   116258163.535       -1918.657          27.166    22123214.717    86816247.260       -1432.775          29.500  
R01  23458220.812   125397525.953       -3494.170          26.418  
R02  19468110.008   103885510.887        -777.183          33.821  
R03  20201985.456   108142864.351        3125.529          29.586  
> 2022  9 17 17 36 16.0002758  0 20
C19  26350471.848                       -2859.152          22.494  
C21  22405714.846   116672413.060        1874.753          31.035  
C22  22431069.494   116804464.123       -1309.624          27.370  
C36  22394868.955   116615946.589       -1036.323          27.189  
E04                                                                                                                                  26372307.531   103490609.577       -1334.351          23.781  
E05                                                                                                                                  25081700.100    98425977.744        1890.585          33.723  
E09                                                                                                                                  23478646.571    92135260.323         193.781          30.054  
E24                                                                                                                                  25820013.377   101323287.272        2492.450          28.693  
E31                                                                                                                                  23952080.320    93993068.228         826.298          26.182  
E34                                                                                                                                  27722830.584                       -1104.399          18.428  
G05  21124488.221   111009952.514       -1306.066          24.112  
G07  24656246.336                       -2474.259          17.354  
G13  20081388.544   105528436.209        1019.439          35.067  
G14  21227320.632   111550325.688         707.079          29.894  
G18  24320719.216                        -487.463          24.562  
G20  22962428.841                       -3085.477          17.312  
G30  22123663.806   116260555.256       -1919.095          27.035    22123670.402    86818033.183       -1432.988          29.366  
R01  23458971.792   125401501.248       -3494.526          26.303  
R02  19468351.940   103886768.838        -778.026          33.849  
R03  20201495.596   108140220.904        3124.890          29.615  
> 2022  9 17 17 36 17.0002761  0 20
C19  26351113.104                       -2854.652          23.159  
C21  22405444.134   116671007.206        1874.183          30.728  
C22  22431411.557   116806242.570       -1310.117          27.393  
C36  22395159.154   116617451.678       -1036.760          26.980  
E04                                                                                                                                  26372736.235   103492296.982       -1334.469          22.938  
E05                                                                                                                                  25081307.972    98424440.252        1890.427          33.645  
E09                                                                                                                                  23478688.842    92135419.785         193.473          29.638  
E24                                                                                                                                  25819468.054   101321148.032        2492.175          28.809  
E31                                                                                                                                  23951961.602    93992595.310         825.853          26.273  
E34                                                                                                                                  27723204.425                       -1111.346          18.558  
G05  21124832.982                       -1307.658          24.203  
G07  24656808.746                       -2468.005          18.880  
G13  20081287.514   105527889.927        1018.909          35.182  
G14  21227274.763   111550091.975         706.339          29.904  
G18  24320905.388                        -488.135          24.623  
G20  22963105.773                       -3086.282          16.952  
G30  22124117.692   116262947.317       -1919.435          27.179    22124123.688    86819819.454       -1433.337          29.254  
R01  23459684.998   125405476.835       -3494.818          26.775  
R02  19468580.382   103888027.612        -778.849          33.923  
R03  20201006.334   108137577.994        3124.354          29.531  
> 2022  9 17 17 36 18.0002764  0 20
C19  26351749.863                       -2854.739          22.878  
C21  22405176.119   116669601.697        1873.838          30.897  
C22  22431753.620   116808021.397       -1310.498          27.604  
C36  22395445.456   116618957.174       -1037.167          26.986  
E04                                                                                                                                  26373166.737   103493984.535       -1334.618          22.887  
E05                                                                                                                                  25080917.342    98422902.823        1890.364          33.558  
E09                                                                                                                                  23478729.014    92135579.467         193.253          29.351  
E24                                                                                                                                  25818923.032   101319008.918        2492.050          28.632  
E31                                                                                                                                  23951839.586    93992122.787         825.458          26.220  
E34                                                                                                                                  27723577.367                       -1112.880          18.228  
G05  21125170.249   111013511.6941      -1307.153          23.636  
G07  24657359.165                       -2462.461          18.784  
G13  20081180.788   105527344.015        1018.537          34.916  
G14  21227232.493   111549858.947         705.654          30.099  
G18  24321078.967   127808220.7691       -487.960          24.965  
G20  22963790.499                       -3086.536          17.683  
G30  22124575.175   116265339.542       -1919.599          27.001    22124580.272    86821605.945       -1433.555          29.658  
R01  23460439.576   125409452.612       -3495.008          26.470  
R02  19468815.420   103889287.001        -779.464          34.025  
R03  20200504.182   108134935.546        3123.892          29.531  
> 2022  9 17 17 36 19.0002767  0 20
C19  26352388.421                       -2854.498          22.160  
C21  22404904.807   116668196.729        1873.298          30.708  
C22  22432092.985   116809800.757       -1311.031          27.557  
C36  22395729.659   116620462.925       -1037.421          26.490  
E04                                                                                                                                  26373596.939   103495672.271       -1334.802          23.199  
E05                                                                                                                                  25080524.614    98421365.521        1890.237          33.844  
E09                                                                                                                                  23478770.385    92135739.362         193.040          29.738  
E24                                                                                                                                  25818378.009   101316869.989        2491.863          28.769  
E31                                                                                                                                  23951719.370    93991650.478         825.244          26.423  
E34                                                                                                                                  27723950.309                       -1107.717          17.603  
G05  21125506.316   111015292.268       -1307.947          23.621  
G07  24657922.775                       -2464.012          17.620  
G13  20081080.657   105526798.594        1018.048          35.087  
G14  21227193.820   111549626.632         704.941          29.886  
G18  24321270.235                        -489.587          23.869  
G20  22964469.529                       -3087.688          17.423  
G30  22125029.361   116267732.089       -1919.921          27.256    22125034.757    86823392.504       -1433.624          29.788  
R01  23461201.048   125413428.697       -3495.317          26.554  
R02  19469054.354   103890547.168        -780.242          33.782  
R03  20200008.025   108132293.649        3123.340          29.735  
> 2022  9 17 17 36 20.0002770  0 19
C19  26353025.780                       -2858.324          22.752  
C21  22404634.095   116666792.386        1872.673          31.095  
C22  22432440.145   116811580.736       -1311.649          27.609  
C36  22396018.959   116621969.365       -1038.111          26.791  
E04                                                                                                                                  26374028.940   103497360.231       -1335.024          23.412  
E05                                                                                                                                  25080133.685    98419828.486        1889.970          33.791  
E09                                                                                                                                  23478809.359    92135899.657         192.639          29.632  
E24                                                                                                                                  25817832.387   101314731.443        2491.481          28.941  
E31                                                                                                                                  23951600.052    93991178.851         824.562          26.767  
E34                                                                                                                                  27724322.351                       -1095.919          18.329  
G05  21125849.878   111017073.649       -1308.756          23.807  
G07  24658472.894                       -2469.289          16.853  
G13  20080973.931   105526253.786        1017.434          35.072  
G14  21227147.052   111549395.178         704.080          30.282  
G18  24321454.607   127810143.4811       -489.300          24.436  
G30  22125482.048   116270125.042       -1920.326          27.259    22125490.142    86825179.525       -1434.087          29.683  
R01  23461934.041   125417405.199       -3495.733          25.916  
R02  19469290.291   103891808.218        -781.125          33.852  
R03  20199524.160   108129652.383        3122.709          29.806  
> 2022  9 17 17 36 21.0002774  0 19
C19  26353696.116                       -2854.985          22.665  
C21  22404393.661   116665544.704        1872.121          30.662  
C22  22432810.389   116813517.362       -1312.187          26.983  
C36  22396341.236   116623632.429       -1038.625          27.214  
E04                                                                                                                                  26374487.622   103499166.096       -1335.285          23.296  
E05                                                                                                                                  25079771.535    98418409.293        1889.772          33.688  
E09                                                                                                                                  23478882.208    92136177.854         192.383          29.497  
E24                                                                                                                                  25817317.343   101312710.734        2491.289          29.228  
E31                                                                                                                                  23951509.515    93990825.230         824.201          26.436  
E34                                                                                                                                  27724722.574                       -1100.271          17.471  
G05  21126204.833   111019013.287       -1309.470          23.861  
G13  20080898.683   105525867.094        1016.859          35.067  
G14  21227133.261   111549321.995         703.351          30.374  
G18  24321662.663   127811263.759        -490.110          24.713  
G20  22965855.469                       -3088.415          17.263  
G30  22125969.210   116272676.001       -1920.792          27.804    22125975.506    86827084.392       -1434.286          29.888  
R01  23462702.109   125421542.247       -3496.023          26.061  
R02  19469564.901   103893230.093        -781.975          33.774  
R03  20199069.075   108127172.158        3122.150          29.900  
> 2022  9 17 17 36 22.0002777  0 18
C19  26354335.873                       -2857.370          21.925  
C21  22404124.148   116664141.465        1871.568          30.578  
C22  22433149.454   116815298.513       -1312.822          27.354  
C36  22396630.835   116625139.843       -1039.084          26.434  
E04                                                                                                                                  26374917.824   103500854.497       -1335.466          23.035  
E05                                                                                                                                  25079379.107    98416872.637        1889.591          33.643  
E09                                                                                                                                  23478921.481    92136338.818         191.971          29.549  
E24                                                                                                                                  25816772.920   101310572.783        2490.886          29.051  
E31                                                                                                                                  23951391.097    93990354.433         823.732          26.671  
G05  21126545.097                       -1310.540          23.356  
G13  20080795.255   105525323.403        1016.317          35.193  
G14  21227086.194   111549092.189         702.431          30.623  
G18  24321845.537                        -490.765          24.695  
G20  22966530.002                       -3085.907          18.897  
G30  22126428.193   116275069.749       -1921.122          27.697    22126430.891    86828871.960       -1434.633          30.020  
R01  23463447.993                       -3496.144          26.192  
R02  19469788.846   103894492.815        -782.797          33.846  
R03  20198569.921   108124532.177        3121.425          29.930  
> 2022  9 17 17 36 23.0002780  0 18
C19  26354974.131                       -2859.283          21.800  
C21  22403855.833   116662738.888        1870.907          30.416  
C22  22433496.613   116817080.240       -1313.398          26.558  
C36  22396922.533   116626647.873       -1039.701          26.617  
E04                                                                                                                                  26375347.727   103502543.200       -1335.768          22.308  
E05                                                                                                                                  25078989.377    98415336.266        1889.307          33.733  
E09                                                                                                                                  23478963.452    92136500.044         191.709          29.743  
E24                                                                                                                                  25816227.598   101308434.987        2490.730          28.725  
E31                                                                                                                                  23951269.381    93989884.105         823.263          26.126  
G05  21126895.255                       -1311.554          23.400  
G13  20080697.522   105524780.355        1015.675          35.403  
G14  21227043.923   111548863.124         701.691          30.806  
G18  24322038.303   127813191.8191       -491.583          25.062  
G20  22967191.644                       -3082.999          19.700  
G30  22126882.978   116277463.859       -1921.484          27.938    22126885.976    86830659.815       -1434.920          29.630  
R01  23464199.872                       -3499.709          26.205  
R02  19470031.378   103895756.413        -783.673          33.758  
R03  20198062.672   108121892.853        3120.767          30.071  
> 2022  9 17 17 36 24.0002783  0 20
C19  26355611.790                       -2853.034          21.119  
C21  22403586.020   116661336.738        1870.479          30.342  
C22  22433836.278   116818862.460       -1313.890          26.227  
C36  22397207.336   116628156.175       -1039.973          26.411  
E04                                                                                                                                  26375777.929   103504232.004       -1335.870          22.296  
E05                                                                                                                                  25078596.949    98413800.017        1889.183          33.716  
E09                                                                                                                                  23479004.224    92136661.560         191.419          29.834  
E24                                                                                                                                  25815684.973   101306297.455        2490.467          28.699  
E31                                                                                                                                  23951149.464    93989414.234         822.806          26.473  
E34                                                                                                                                  27725836.303                       -1106.789          17.162  
G05  21127241.215                       -1312.564          23.059  
G07  24660727.334                       -2461.934          16.286  
G13  20080592.295   105524237.697        1015.283          35.216  
G14  21226999.854   111548634.778         700.972          30.893  
G18  24322218.479   127814156.562        -492.117          24.927  
G20  22967867.376                       -3081.002          20.250  
G30  22127338.962   116279858.342       -1921.857          28.133    22127341.960    86832447.841       -1435.091          29.686  
R01  23464937.662   125433474.7151      -3496.977          25.840  
R02  19470257.421   103897020.708        -784.370          33.626  
R03  20197570.113   108119253.977        3120.320          30.197  
> 2022  9 17 17 36 25.0002786  0 19
C19  26356246.450                       -2854.669          21.141  
C21  22403318.006   116659934.955        1870.113          30.068  
C22  22434180.440   116820645.038       -1314.249          26.271  
C36  22397500.833   116629664.968       -1040.463          26.420  
E04                                                                                                                                  26376208.131   103505920.925       -1335.986          22.590  
E05                                                                                                                                  25078204.520    98412263.757        1889.195          33.491  
E09                                                                                                                                  23479046.494    92136823.219         191.275          29.625  
E24                                                                                                                                  25815138.751   101304160.050        2490.341          28.698  
E31                                                                                                                                  23951029.547    93988944.542         822.627          26.517  
G05  21127573.385                       -1314.174          22.666  
G07  24661278.952                       -2463.649          15.283  
G13  20080486.169   105523695.415        1014.908          35.398  
G14  21226954.885   111548407.050         700.354          30.914  
G18  24322404.949   127815121.339        -492.151          25.389  
G20  22968541.010                       -3088.757          21.347  
G30  22127798.544   116282252.954       -1921.986          27.931    22127797.644    86834236.082       -1435.306          30.075  
R01  23465681.147   125437452.670       -3497.187          25.926  
R02  19470489.461   103898285.585        -784.952          33.503  
R03  20197081.152   108116615.489        3119.932          30.054  
> 2022  9 17 17 36 26.0002789  0 19
C19  26356894.302                       -2858.444          21.308  
C21  22403048.492   116658533.564        1869.720          29.797  
C22  22434522.803   116822427.975       -1314.607          26.063  
C36  22397789.533   116631173.964       -1040.667          26.367  
E04                                                                                                                                  26376640.732   103507609.853       -1335.993          22.434  
E05                                                                                                                                  25077814.190    98410727.617        1889.075          33.509  
E09                                                                                                                                  23479087.566    92136985.043         191.111          30.014  
E24                                                                                                                                  25814594.028   101302022.805        2490.180          28.673  
E31                                                                                                                                  23950912.328    93988475.177         822.300          26.995  
G05  21127917.547                       -1312.753          22.978  
G07  24661848.558                       -2471.785          15.038  
G13  20080386.038   105523153.480        1014.562          35.445  
G14  21226913.214   111548179.986         699.690          31.232  
G18  24322583.026   127816087.071        -493.106          25.588  
G20  22969223.937                       -3093.167          20.359  
G30  22128254.228   116284647.664       -1922.084          27.978    22128253.029    86836024.367       -1435.349          30.303  
R01  23466409.343   125441430.747       -3497.308          25.654  
R02  19470734.691   103899551.196        -785.686          33.771  
R03  20196590.391   108113977.429        3119.504          30.131  
> 2022  9 17 17 36 27.0002793  0 19
C19  26357558.642                       -2857.401          22.262  
C21  22402809.258   116657288.850        1869.153          29.896  
C22  22434895.145   116824367.615       -1315.201          26.254  
C36  22398110.910   116632839.592       -1041.189          26.399  
E04                                                                                                                                  26377099.714   103509416.580       -1336.147          21.727  
E05                                                                                                                                  25077452.941    98409309.282        1888.914          33.640  
E09                                                                                                                                  23479158.617    92137264.841         190.782          30.064  
E24                                                                                                                                  25814079.585   101300003.413        2489.971          28.656  
E31                                                                                                                                  23950820.592    93988123.952         821.805          26.748  
E34                                                                                                                                  27726980.611                       -1115.073          18.572  
G05  21128285.992   111029877.7301      -1313.436          23.714  
G13  20080313.188   105522769.669        1013.979          35.531  
G14  21226902.721   111548111.175         698.978          31.257  
G18  24322797.078                        -494.495          25.884  
G20  22969929.948                       -3092.385          19.404  
G30  22128738.993   116287200.391       -1922.558          27.642    22128739.592    86837930.584       -1435.637          30.177  
R01  23467228.975                       -3497.614          25.786  
R02  19471002.106   103900977.595        -786.499          33.697  
R03  20196129.311   108111500.346        3119.008          29.854  
> 2022  9 17 17 36 28.0002796  0 20
C19  26358194.502                       -2859.103          21.941  
C21  22402541.843   116655888.650        1868.529          30.098  
C22  22435238.707   116826151.761       -1315.817          26.014  
C36  22398395.713                       -1042.422          26.205  
E04                                                                                                                                  26377527.817   103511106.228       -1336.714          22.403  
E05                                                                                                                                  25077062.311    98407773.507        1888.710          33.648  
E09                                                                                                                                  23479199.688    92137427.378         190.398          29.963  
E24                                                                                                                                  25813534.262   101297866.641        2489.707          28.559  
E31                                                                                                                                  23950700.675    93987655.644         821.243          26.603  
E34                                                                                                                                  27727354.452                       -1116.757          17.598  
G05  21128621.460   111031664.547       -1314.191          24.458  
G07  24662990.467                       -2470.062          14.502  
G13  20080212.158   105522228.930        1013.364          35.482  
G14  21226858.951   111547885.671         698.130          31.274  
G18  24322980.851                        -495.059          25.248  
G20  22970605.081                       -3093.076          18.804  
G30  22129194.977   116289595.964       -1922.947          28.082    22129195.277                       -1436.115          30.215  
R01  23467963.467                       -3497.444          25.283  
R02  19471250.334   103902244.863        -787.344          33.570  
R03  20195643.047   108108863.606        3118.184          30.040  
> 2022  9 17 17 36 29.0002799  0 19
C19  26358834.858                       -2857.051          21.976  
C21  22402270.231   116654489.143        1867.837          29.890  
C22  22435576.574                       -1317.339          26.067  
C36  22398687.411   116635860.3681      -1042.306          26.713  
E04                                                                                                                                  26377960.718   103512795.986       -1336.823          21.556  
E05                                                                                                                                  25076669.583    98406238.078        1888.364          33.741  
E09                                                                                                                                  23479241.659    92137590.289         190.024          29.941  
E24                                                                                                                                  25812991.038   101295730.262        2489.314          28.375  
E31                                                                                                                                  23950582.857    93987187.750         820.828          27.007  
E34                                                                                                                                  27727728.593                       -1113.553          18.201  
G05  21128971.617                       -1315.855          24.190  
G13  20080104.533   105521688.818        1012.738          35.222  
G14  21226813.683   111547661.164         697.134          31.113  
G18  24323168.521                        -495.706          24.818  
G20  22971277.515                       -3092.421          18.631  
G30  22129654.259   116291992.052       -1923.462          27.874    22129650.662    86841508.7591      -1436.321          30.183  
R01  23468699.158                       -3498.847          25.215  
R02  19471482.373   103903513.073        -788.284          33.443  
R03  20195136.098   108106227.519        3117.530          29.405  
> 2022  9 17 17 36 30.0002802  0 20
C19  26359479.412                       -2855.361          22.714  
C21  22402001.917   116653090.109        1867.363          30.115  
C22  22435921.035   116829721.9571      -1317.022          25.808  
C36  22398980.009   116637371.543       -1042.846          26.649  
E04                                                                                                                                  26378390.920   103514486.012       -1337.091          21.732  
E05                                                                                                                                  25076278.953    98404702.802        1888.211          33.521  
E09                                                                                                                                  23479283.930    92137753.486         189.738          29.571  
E24                                                                                                                                  25812446.015   101293594.169        2489.028          28.311  
E31                                                                                                                                  23950463.839    93986720.281         820.404          26.822  
E34                                                                                                                                  27728103.633                       -1104.539          18.288  
G05  21129310.083   111035240.6471      -1315.746          24.872  
G07  24664111.091                       -2470.417          15.392  
G13  20080009.499   105521149.215        1012.229          35.099  
G14  21226772.611   111547437.334         696.456          31.204  
G18  24323353.193   127820115.6121       -496.125          25.654  
G20  22971964.640                       -3087.535          20.001  
G30  22130106.646                       -1923.848          27.775    22130108.145    86843298.267       -1436.573          30.451  
R01  23469439.345   125457507.1901      -3498.830          25.239  
R02  19471724.306   103904782.037        -789.039          33.475  
R03  20194643.539   108103592.011        3116.952          29.224  
> 2022  9 17 17 36 31.0002805  0 19
C19  26360115.872                       -2856.707          22.331  
C21  22401735.701   116651691.391        1867.047          30.109  
C22  22436263.098   116831507.595       -1317.309          25.771  
C36  22399270.508   116638882.919       -1043.047          26.728  
E04                                                                                                                                  26378821.722   103516176.056       -1337.108          21.335  
E05                                                                                                                                  25075888.923    98403167.544        1888.193          33.446  
E09                                                                                                                                  23479324.102    92137916.790         189.632          29.790  
E24                                                                                                                                  25811901.592   101291458.069        2489.035          28.112  
E31                                                                                                                                  23950343.622    93986253.159         820.058          26.381  
E34                                                                                                                                  27728476.875                       -1100.056          18.417  
G05  21129655.444   111037029.511       -1316.238          24.795  
G13  20079901.573   105520609.932        1011.910          35.333  
G14  21226730.340   111547214.064         695.896          31.091  
G18  24323535.767   127821084.226        -495.989          25.274  
G20  22972643.670                       -3087.629          20.824  
G30  22130564.729   116296784.9491      -1923.894          27.416    22130562.930    86845087.872       -1436.671          30.150  
R01  23470184.329   125461486.908       -3498.949          25.175  
R02  19471954.546   103906051.618        -789.656          33.315  
R03  20194155.477   108100956.823        3116.632          29.058  
> 2022  9 17 17 36 32.0002809  0 19
C19  26360782.910                       -2857.602          22.789  
C21  22401498.265   116650449.002        1866.828          30.039  
C22  22436635.740   116833449.494       -1317.460          25.622  
C36  22399593.384   116640550.588       -1043.229          26.755  
E04                                                                                                                                  26379282.503   103517983.637       -1337.001          21.403  
E05                                                                                                                                  25075527.074    98401749.808        1888.316          33.542  
E09                                                                                                                                  23479395.153    92138197.760         189.609          29.547  
E24                                                                                                                                  25811387.748   101289439.596        2489.054          27.790  
E31                                                                                                                                  23950256.682    93985903.747         819.992          26.543  
E34                                                                                                                                  27728878.597                       -1099.973          18.311  
G05  21130025.088                       -1317.100          24.673  
G13  20079832.321   105520228.329        1011.771          35.212  
G14  21226715.651   111547148.724         695.508          30.669  
G18  24323752.816   127822211.271        -496.877          24.922  
G20  22973348.782                       -3092.500          19.564  
G30  22131050.992   116299338.991       -1923.874          27.465    22131049.193    86846995.137       -1436.685          30.366  
R01  23470939.806   125465626.814       -3498.881          24.497  
R02  19472232.454   103907481.590        -790.072          33.249  
R03  20193696.195   108098482.402        3116.346          29.232  
> 2022  9 17 17 36 33.0002812  0 19
C19  26361430.162                       -2853.933          22.675  
C21  22401230.251   116649050.625        1866.707          30.284  
C22  22436974.806   116835235.502       -1317.678          25.796  
C36  22399882.684   116642062.157       -1043.239          26.819  
E04                                                                                                                                  26379716.003   103519673.438       -1336.866          21.375  
E05                                                                                                                                  25075135.245    98400214.281        1888.462          33.467  
E09                                                                                                                                  23479438.023    92138361.065         189.631          29.784  
E24                                                                                                                                  25810843.325   101287303.459        2489.072          28.252  
E31                                                                                                                                  23950135.266    93985436.833         819.849          26.373  
E34                                                                                                                                  27729248.840                       -1109.625          18.670  
G05  21130366.252   111040765.7571      -1316.861          25.146  
G13  20079726.495   105519689.308        1011.647          35.387  
G14  21226675.478   111546926.226         695.124          30.652  
G18  24323934.491                        -497.268          24.837  
G20  22974039.803                       -3089.601          19.325  
G30  22131509.375                       -1923.924          27.215    22131505.478    86848784.654       -1436.582          30.271  
R01  23471664.405                       -3497.498          24.476  
R02  19472453.401   103908751.953        -790.438          32.963  
R03  20193206.934   108095847.636        3116.210          29.427  
> 2022  9 17 17 36 34.0002815  0 19
C19  26362061.525                       -2857.624          22.742  
C21  22400961.037   116647652.143        1866.811          30.163  
C22  22437316.869   116837021.461       -1317.629          25.214  
C36  22400171.084   116643573.671       -1043.185          26.782  
E04                                                                                                                                  26380143.507   103521363.026       -1336.653          21.496  
E05                                                                                                                                  25074744.915    98398678.511        1888.705          33.117  
E09                                                                                                                                  23479480.294    92138524.227         189.773          29.592  
E24                                                                                                                                  25810298.602   101285167.132        2489.262          28.626  
E31                                                                                                                                  23950018.647    93984969.909         819.859          26.600  
E34                                                                                                                                  27729624.480                       -1110.432          18.600  
G05  21130700.221   111042555.329       -1316.946          25.405  
G13  20079626.064   105519150.232        1011.702          35.169  
G14  21226631.409   111546703.903         694.949          30.717  
G18  24324124.559                        -496.989          24.570  
G20  22974714.636                       -3085.628          18.576  
G30  22131962.961   116304131.5631      -1923.519          26.898    22131959.963    86850574.011       -1436.422          30.288  
R01  23472404.592                       -3498.098          24.045  
R02  19472685.740   103910022.499        -790.621          33.146  
R03  20192712.876   108093212.776        3116.303          29.451  
> 2022  9 17 17 36 35.0002818  0 19
C19  26362703.080                       -2858.525          23.846  
C21  22400691.224   116646253.082        1867.390          30.374  
C22  22437659.831   116838806.723       -1316.933          25.035  
C36  22400464.281   116645084.440       -1042.440          26.871  
E04                                                                                                                                  26380575.508   103523051.966       -1336.005          21.180  
E05                                                                                                                                  25074352.187    98397142.043        1889.403          33.446  
E09                                                                                                                                  23479519.867    92138686.850         190.311          29.697  
E24                                                                                                                                  25809754.479   101283030.173        2489.894          28.222  
E31                                                                                                                                  23949899.330    93984502.531         820.314          26.849  
E34                                                                                                                                  27729995.024                       -1106.202          19.127  
G05  21131046.181                       -1316.277          25.292  
G13  20079521.137   105518610.477        1012.381          35.416  
G14  21226589.138   111546481.137         695.392          30.945  
G18  24324309.531                        -496.539          24.208  
G20  22975393.666                       -3087.883          18.928  
G30  22132418.346   116306526.876       -1922.687          26.553    22132418.346    86852362.701       -1435.755          30.271  
R01  23473147.778                       -3497.766          24.118  
R02  19472930.071   103911292.640        -790.216          32.548  
R03  20192219.417   108090577.195        3117.025          29.429  
> 2022  9 17 17 36 36.0002821  0 20
C19  26363338.341                       -2854.319          23.080  
C21  22400424.709   116644854.329        1867.082          30.455  
C22  22438001.595                       -1317.671          24.968  
C36  22400754.480   116646595.561       -1042.792          27.287  
E04                                                                                                                                  26381004.511   103524740.981       -1336.080          20.794  
E05                                                                                                                                  25073960.658    98395605.564        1889.415          33.181  
E09                                                                                                                                  23479562.437    92138849.524         190.261          29.763  
E24                                                                                                                                  25809209.156   101280893.287        2489.820          28.297  
E31                                                                                                                                  23949778.513    93984035.387         820.079          26.625  
E34                                                                                                                                  27730365.567                       -1106.719          18.532  
G05  21131387.045   111046134.1161      -1317.047          25.429  
G07  24667496.947                       -2466.378          14.789  
G13  20079419.807   105518071.082        1012.021          35.337  
G14  21226545.968   111546258.982         694.781          31.076  
G18  24324495.102   127826090.3011       -497.177          24.791  
G20  22976081.690                       -3089.963          19.718  
G30  22132869.533   116308922.418       -1922.917          26.327    22132872.831    86854151.574       -1435.938          30.248  
R01  23473915.247   125481542.5691      -3497.753          24.368  
R02  19473167.507   103912563.383        -790.818          33.126  
R03  20191723.860   108087942.141        3116.498          29.122  
> 2022  9 17 17 36 37.0002825  0 20
C19  26364007.477                       -2857.461          21.892  
C21  22400186.673   116643612.349        1866.419          30.791  
C22  22438376.935   116842534.7711      -1318.015          24.841  
C36  22401072.860   116648263.356       -1043.356          26.920  
E04                                                                                                                                  26381467.390   103526547.907       -1336.346          20.680  
E05                                                                                                                                  25073600.308    98394187.108        1889.036          33.279  
E09                                                                                                                                  23479632.888    92139130.313         189.791          29.836  
E24                                                                                                                                  25808695.612   101278874.424        2489.443          28.080  
E31                                                                                                                                  23949690.974    93983686.529         819.438          26.809  
E34                                                                                                                                  27730767.889                       -1105.673          18.391  
G05  21131756.689                       -1318.112          25.764  
G07  24668086.039                       -2466.203          14.984  
G13  20079343.959   105517689.847        1011.403          35.309  
G14  21226533.976   111546195.265         693.884          31.000  
G18  24324704.657   127827217.928        -497.459          23.943  
G20  22976767.015                       -3091.093          19.953  
G30  22133359.694   116311475.937       -1923.351          26.637    22133358.195    86856058.406       -1436.252          30.465  
R01  23474689.311                       -3498.649          24.401  
R02  19473437.620   103913995.037        -791.754          33.003  
R03  20191273.272   108085468.210        3115.856          28.901  
> 2022  9 17 17 36 38.0002828  0 20
C19  26364646.935                       -2858.883          22.551  
C21  22399917.760   116642214.805        1865.873          30.664  
C22  22438718.099   116844321.573       -1318.472          24.297  
C36  22401363.659                       -1043.652          26.430  
E04                                                                                                                                  26381896.093   103528237.335       -1336.493          21.015  
E05                                                                                                                                  25073207.580    98392651.048        1888.995          33.222  
E09                                                                                                                                  23479675.159    92139293.662         189.586          29.936  
E24                                                                                                                                  25808150.289   101276738.060        2489.299          28.583  
E31                                                                                                                                  23949571.057    93983220.276         819.188          26.762  
E34                                                                                                                                  27731138.732                       -1107.312          18.268  
G05  21132096.354   111049873.3311      -1318.594          25.736  
G07  24668659.243                       -2466.539          15.166  
G13  20079245.328   105517151.499        1010.974          35.348  
G14  21226490.806   111545974.694         693.197          31.300  
G18  24324889.929   127828189.098        -498.544          23.930  
G20  22977432.255                       -3091.270          20.265  
G30  22133818.676   116313872.150       -1923.586          26.688    22133815.378    86857847.775       -1436.435          30.602  
R01  23475424.402                       -3498.777          24.202  
R02  19473673.856   103915267.495        -792.533          33.043  
R03  20190784.910   108082834.352        3115.302          29.147  
> 2022  9 17 17 36 39.0002831  0 20
C19  26365284.293                       -2856.336          22.655  
C21  22399649.445   116640817.547        1865.588          30.934  
C22  22439061.061                       -1318.986          23.711  
C36  22401653.558   116651287.6721      -1043.922          26.637  
E04                                                                                                                                  26382324.197   103529926.829       -1336.559          20.984  
E05                                                                                                                                  25072816.650    98391115.018        1888.965          33.431  
E09                                                                                                                                  23479715.931    92139457.145         189.452          29.792  
E24                                                                                                                                  25807606.766   101274601.799        2489.196          28.481  
E31                                                                                                                                  23949453.239    93982754.311         818.901          26.451  
E34                                                                                                                                  27731513.773                       -1106.554          19.265  
G05  21132445.313                       -1319.321          25.949  
G07  24669225.251                       -2467.029          15.487  
G13  20079143.698   105516613.484        1010.641          35.361  
G14  21226450.934   111545754.717         692.603          31.322  
G18  24325074.301   127829160.833        -499.109          23.917  
G20  22978124.775                       -3091.806          20.132  
G30  22134271.962   116316268.454       -1923.678          27.068    22134270.164    86859637.257       -1436.546          30.688  
R01  23476189.772                       -3497.704          23.731  
R02  19473913.390   103916540.465        -793.045          33.097  
R03  20190292.651   108080200.792        3115.004          29.065  
> 2022  9 17 17 36 40.0002834  0 20
C19  26365928.547                       -2853.227          22.399  
C21  22399381.131   116639419.940        1865.937          30.977  
C22  22439400.426                       -1318.971          23.962  
C36  22401944.357   116652799.716       -1043.714          26.288  
E04                                                                                                                                  26382753.800   103531615.847       -1336.083          21.326  
E05                                                                                                                                  25072425.121    98389578.515        1889.438          33.283  
E09                                                                                                                                  23479758.202    92139620.246         189.834          29.776  
E24                                                                                                                                  25807063.542   101272465.101        2489.633          28.371  
E31                                                                                                                                  23949333.621    93982288.171         819.075          26.711  
E34                                                                                                                                  27731887.913                       -1108.716          18.808  
G05  21132783.778   111053456.3161      -1318.764          26.527  
G07  24669789.760                       -2465.098          15.521  
G13  20079040.869   105516075.103        1011.007          35.198  
G14  21226411.061   111545534.548         692.796          31.746  
G18  24325259.573   127830132.226        -498.767          23.468  
G20  22978806.803                       -3089.843          20.072  
G30  22134725.848   116318664.305       -1923.225          27.037    22134726.448    86861426.347       -1436.155          30.934  
R01  23476926.662                       -3494.264          23.076  
R02  19474147.828   103917813.365        -792.975          33.093  
R03  20189795.595   108077566.991        3115.245          28.995  
> 2022  9 17 17 36 41.0002837  0 19
C19  26366562.309                       -2857.963          22.004  
C21  22399113.716   116638022.818        1865.451          31.121  
C22  22439744.588                       -1319.204          23.748  
C36  22402232.457   116654312.091       -1044.046          26.462  
E04                                                                                                                                  26383190.297   103533305.042       -1336.260          20.000  
E05                                                                                                                                  25072032.693    98388042.187        1889.263          33.427  
E09                                                                                                                                  23479801.072    92139783.638         189.543          30.023  
E24                                                                                                                                  25806517.320   101270328.674        2489.362          28.247  
E31                                                                                                                                  23949215.503    93981822.384         818.722          26.989  
E34                                                                                                                                  27732260.855                       -1108.025          19.665  
G05  21133121.045   111055248.449       -1319.507          26.619  
G13  20078936.541   105515537.222        1010.507          35.285  
G14  21226369.390   111545315.140         692.034          31.646  
G18  24325441.247                        -500.040          23.082  
G20  22979489.131                       -3085.367          21.182  
G30  22135184.531   116321060.455       -1923.524          27.011    22135182.132    86863215.645       -1436.363          31.008  
R01  23477686.636                       -3496.200          23.521  
R02  19474408.048   103919086.956        -793.666          33.791  
R03  20189300.338   108074933.579        3114.856          28.887  
> 2022  9 17 17 36 42.0002841  0 19
C19  26367230.546                       -2858.507          21.517  
C21  22398875.381   116636782.670        1864.587          31.325  
C22  22440119.029                       -1320.854          23.745  
C36  22402553.235   116655981.308       -1044.778          25.882  
E04                                                                                                                                  26383651.378                       -1337.108          19.625  
E05                                                                                                                                  25071672.043    98386623.887        1888.880          33.180  
E09                                                                                                                                  23479870.624    92140065.135         189.083          29.888  
E24                                                                                                                                  25806003.176   101268310.299        2488.955          28.384  
E31                                                                                                                                  23949125.565    93981474.867         818.097          26.869  
E34                                                                                                                                  27732660.778                       -1110.412          19.884  
G05  21133491.888   111057199.081       -1320.464          26.677  
G13  20078864.591   105515157.699        1009.691          35.327  
G14  21226358.298   111545254.345         690.962          31.712  
G18  24325661.895                        -500.447          22.886  
G20  22980184.050                       -3088.552          19.741  
G30  22135670.794   116323614.743       -1924.120          27.223    22135668.695    86865123.080       -1436.855          30.732  
R01  23478453.205                       -3499.419          23.666  
R02  19474660.173   103920521.656        -794.800          33.580  
R03  20188826.966   108072461.584        3113.920          28.261  
> 2022  9 17 17 36 43.0002844  0 19
C19  26367868.804                       -2858.533          20.839  
C21  22398607.966   116635387.100        1863.900          31.100  
C22  22440470.685                       -1320.975          23.893  
C36  22402845.233   116657495.152       -1045.515          25.143  
E04                                                                                                                                  26384076.784                       -1338.805          19.473  
E05                                                                                                                                  25071280.514    98385088.242        1888.580          33.267  
E09                                                                                                                                  23479913.794    92140229.512         188.558          29.707  
E24                                                                                                                                  25805459.352   101266174.747        2488.487          28.052  
E31                                                                                                                                  23949009.246    93981010.422         817.380          27.112  
E34                                                                                                                                  27733033.121                       -1109.388          19.866  
G05  21133835.750   111058993.120       -1321.413          26.748  
G13  20078761.762   105514621.348        1008.977          35.074  
G14  21226317.826   111545036.993         689.978          31.678  
G18  24325844.169                        -505.439          22.668  
G20  22980858.882                       -3092.033          20.677  
G30  22136126.179   116326012.033       -1924.663          27.457    22136124.980    86866913.293       -1437.278          30.906  
R01  23479194.592                       -3499.465          22.969  
R02  19474905.104   103921797.415        -795.834          33.397  
R03  20188338.304   108069829.949        3113.079          28.441  
> 2022  9 17 17 36 44.0002847  0 19
C19  26368512.159                       -2857.988          20.487  
C21  22398337.254   116633992.155        1863.274          31.079  
C22  22440812.449                       -1321.196          23.885  
C36  22403131.535   116659009.530       -1046.048          25.133  
E04                                                                                                                                  26384506.087   103538492.4351      -1337.213          20.364  
E05                                                                                                                                  25070888.685    98383552.773        1888.404          33.272  
E09                                                                                                                                  23479954.566    92140394.228         188.219          29.768  
E24                                                                                                                                  25804915.829   101264039.390        2488.292          28.108  
E31                                                                                                                                  23948890.228    93980546.335         817.022          27.086  
E34                                                                                                                                  27733407.861                       -1111.855          18.831  
G05  21134180.811   111060787.868       -1322.122          26.346  
G13  20078658.334   105514085.565        1008.409          35.381  
G14  21226273.457   111544820.433         689.186          31.568  
G18  24326029.440                        -500.188          22.161  
G20  22981543.009                       -3091.934          20.361  
G30  22136580.664   116328409.761       -1925.103          27.605    22136580.964    86868703.711       -1437.483          31.014  
R01  23479947.371                       -3496.864          23.341  
R02  19475148.535   103923073.979        -796.640          33.610  
R03  20187848.144   108067198.893        3112.499          28.589  
> 2022  9 17 17 36 45.0002850  0 19
C19  26369151.316                       -2854.140          20.879  
C21  22398073.736   116632597.639        1862.846          30.725  
C22  22441148.816                       -1321.951          23.146  
C36  22403420.235   116660524.262       -1046.403          24.921  
E04                                                                                                                                  26384937.788                       -1336.995          19.451  
E05                                                                                                                                  25070497.456    98382017.494        1888.214          33.238  
E09                                                                                                                                  23479997.736    92140559.071         188.092          29.761  
E24                                                                                                                                  25804370.806   101261904.297        2488.028          28.441  
E31                                                                                                                                  23948773.609    93980082.641         816.629          26.934  
E34                                                                                                                                  27733778.705                       -1116.791          18.957  
G05  21134517.778   111062583.266       -1322.772          26.132  
G13  20078557.604   105513550.206        1007.985          35.023  
G14  21226230.886   111544604.532         688.527          31.732  
G18  24326216.211                        -499.634          21.929  
G20  22982233.731                       -3089.512          19.448  
G30  22137035.749   116330807.636       -1925.248          27.451    22137038.447    86870494.415       -1437.769          30.787  
R01  23480677.965                       -3500.520          23.371  
R02  19475385.971   103924351.222        -797.317          33.731  
R03  20187366.077   108064568.333        3112.004          28.497  
> 2022  9 17 17 36 46.0002853  0 18
C19  26369792.572                       -2857.482          21.028  
C21  22397801.824   116631203.625        1862.343          30.892  
C22  22441498.974                       -1319.833          23.687  
C36  22403712.233   116662039.412       -1046.821          24.828  
E05                                                                                                                                  25070107.126    98380482.317        1888.112          33.097  
E09                                                                                                                                  23480040.306    92140724.219         187.787          30.083  
E24                                                                                                                                  25803826.683   101259769.441        2487.792          28.657  
E31                                                                                                                                  23948654.292    93979619.296         816.280          26.881  
E34                                                                                                                                  27734154.644                       -1112.144          18.524  
G05  21134861.940   111064379.243       -1323.351          26.155  
G13  20078457.473   105513015.365        1007.466          35.181  
G14  21226190.714   111544389.417         687.741          31.805  
G18  24326406.279                        -504.604          22.267  
G20  22982893.574                       -3089.672          18.491  
G30  22137495.331   116333205.865       -1925.603          27.812    22137493.532    86872285.286       -1437.936          31.204  
R01  23481408.259                       -3502.532          23.275  
R02  19475617.710   103925629.285        -798.138          33.669  
R03  20186879.514                        3111.074          28.639  
> 2022  9 17 17 36 47.0002856  0 18
C19  26370424.835                       -2859.263          20.573  
C21  22397535.909   116629810.135        1861.819          30.802  
C22  22441846.733                       -1322.972          23.606  
C36  22404004.231                       -1048.276          24.557  
E05                                                                                                                                  25069715.597    98378947.323        1887.929          33.001  
E09                                                                                                                                  23480080.778    92140889.646         187.508          29.870  
E24                                                                                                                                  25803282.859   101257634.698        2487.677          28.480  
E31                                                                                                                                  23948536.173    93979156.443         815.788          27.147  
E34                                                                                                                                  27734525.787                       -1108.918          18.212  
G05  21135203.703                       -1324.707          26.041  
G13  20078356.743   105512481.035        1006.957          35.279  
G14  21226154.439   111544175.017         687.027          31.777  
G18  24326594.249                        -504.420          22.127  
G20  22983576.501                       -3090.999          18.838  
G30  22137951.015                       -1926.006          27.726    22137950.416    86874076.372       -1438.151          31.190  
R01  23482152.044                       -3500.408          22.793  
R02  19475868.337   103926908.080        -798.870          33.443  
R03  20186373.165   108059308.9051       3110.935          28.665  
> 2022  9 17 17 36 48.0002860  0 19
C19  26371098.768                       -2860.378          20.748  
C21  22397295.175   116628573.354        1861.221          30.778  
C22  22442219.974                       -1323.339          22.896  
C36  22404325.908   116665227.3021      -1047.794          24.820  
E05                                                                                                                                  25069354.347    98377530.216        1887.687          33.118  
E09                                                                                                                                  23480154.227    92141173.038         187.188          29.999  
E24                                                                                                                                  25802769.315   101255617.969        2487.309          28.816  
E31                                                                                                                                  23948449.234    93978811.612         815.411          27.520  
E34                                                                                                                                  27734927.209                       -1111.308          18.625  
G05  21135574.846   111068130.9651      -1324.806          25.874  
G07  24674329.817                       -2467.000          16.946  
G13  20078283.893   105512104.815        1006.388          35.408  
G14  21226142.747   111544118.948         686.236          31.767  
G18  24326806.502                        -504.880          21.842  
G20  22984283.112                       -3095.359          18.339  
G30  22138445.673   116338160.9511      -1926.379          27.691    22138436.979    86875985.513       -1438.561          31.304  
R01  23482955.188                       -3503.346          23.129  
R02  19476141.448   103928347.782        -799.802          33.577  
R03  20185918.080   108056840.590        3110.240          28.588  
> 2022  9 17 17 36 49.0002863  0 17
C19  26371725.634                       -2855.053          20.799  
C21  22397027.760   116627181.020        1860.663          30.649  
C22  22442560.239                       -1322.450          23.682  
C36  22404616.707                       -1049.097          24.393  
E05                                                                                                                                  25068963.118    98375995.644        1887.506          33.271  
E09                                                                                                                                  23480196.798    92141339.156         186.817          30.165  
E24                                                                                                                                  25802224.891   101253483.860        2487.045          28.808  
E31                                                                                                                                  23948330.516    93978349.676         814.871          27.080  
E34                                                                                                                                  27735305.847                       -1116.281          19.104  
G05  21135908.215   111069929.246       -1325.655          25.535  
G13  20078182.264   105511571.636        1005.805          35.339  
G14  21226100.177   111543906.208         685.366          31.346  
G18  24326983.979                        -502.701          22.523  
G30  22138897.760   116340560.325       -1926.748          27.539    22138893.263    86877777.227       -1438.779          31.402  
R01  23483679.187                       -3501.064          23.214  
R02  19476369.290   103929628.269        -800.562          33.700  
R03  20185424.621                        3109.155          28.138  
> 2022  9 17 17 36 50.0002866  0 21
C19  26372371.687                       -2858.660          20.094  
C21  22396759.746   116625789.280        1860.070          30.708  
C22  22442902.602                       -1323.282          23.330  
C36  22404909.304                       -1049.657          24.226  
E04                                                                                                                                  26387123.874                       -1339.437          19.397  
E05                                                                                                                                  25068572.788    98374461.273        1887.306          33.091  
E09                                                                                                                                  23480237.870    92141505.579         186.512          29.968  
E24                                                                                                                                  25801681.068   101251350.009        2486.785          28.729  
E31                                                                                                                                  23948212.098    93977888.129         814.481          27.047  
E34                                                                                                                                  27735675.491                       -1118.518          20.164  
G05  21136253.276   111071728.192       -1326.320          25.272  
G07  24675448.343                       -2481.682          17.449  
G13  20078081.533   105511038.981        1005.281          35.278  
G14  21226059.705   111543694.235         684.599          31.330  
G18  24327172.549                        -507.409          22.601  
G20  22985640.572                       -3096.256          16.922  
G30  22139349.847   116342960.001       -1927.050          27.607    22139349.547    86879569.205       -1439.044          31.131  
R01  23484405.884                       -3498.155          22.971  
R02  19476614.520   103930909.564        -801.370          33.705  
R03  20184936.559   108051584.7341       3109.028          28.408  
R11  23398627.767                       -3633.031          22.427  
> 2022  9 17 17 36 51.0002869  0 20
C19  26373019.239                       -2858.038          20.023  
C21  22396495.329   116624397.798        1859.811          30.592  
C22  22443253.659                       -1325.188          23.869  
C36  22405197.405   116669778.6331      -1049.095          24.363  
E05                                                                                                                                  25068180.959    98372926.946        1887.262          32.912  
E09                                                                                                                                  23480281.040    92141672.093         186.421          29.868  
E24                                                                                                                                  25801136.945   101249216.238        2486.706          28.445  
E31                                                                                                                                  23948094.579    93977426.864         814.200          27.288  
E34                                                                                                                                  27736051.431                       -1112.726          19.961  
G05  21136590.543   111073527.646       -1326.828          25.011  
G07  24676035.636                       -2484.858          16.654  
G13  20077980.803   105510506.613        1004.994          35.261  
G14  21226017.134   111543482.766         684.095          31.306  
G18  24327362.018                        -510.072          21.740  
G20  22986318.403                       -3087.967          19.428  
G30  22139806.431   116345359.842       -1927.215          27.955    22139806.431    86881361.287       -1439.147          31.104  
R01  23485166.458                       -3499.904          21.986  
R02  19476862.748   103932191.446        -801.957          33.746  
R03  20184430.510   108048957.468        3108.709          28.260  
R11  23399402.431                       -3634.630          22.798  
> 2022  9 17 17 36 52.0002872  0 20
C19  26373653.600                       -2856.603          19.710  
C21  22396227.914   116623006.820        1859.307          30.467  
C22  22443596.921                       -1328.235          23.723  
C36  22405487.604                       -1050.054          23.983  
E05                                                                                                                                  25067791.529    98371392.661        1887.220          33.117  
E09                                                                                                                                  23480322.711    92141838.803         186.226          29.591  
E24                                                                                                                                  25800593.421   101247082.632        2486.541          28.410  
E31                                                                                                                                  23947977.660    93976965.933         813.866          27.096  
E34                                                                                                                                  27736423.773                       -1109.198          19.616  
G05  21136933.206                       -1327.762          24.667  
G07  24676573.164                       -2471.343          16.072  
G13  20077877.974   105509974.708        1004.531          35.323  
G14  21225976.662   111543272.027         683.366          31.451  
G18  24327547.889                        -510.017          22.097  
G20  22986989.039                       -3086.669          18.692  
G30  22140262.715   116347759.931       -1927.463          27.525    22140264.514    86883153.570       -1439.348          31.230  
R01  23485922.534                       -3505.220          21.958  
R02  19477091.790   103933473.980        -802.608          34.195  
R03  20183949.642   108046330.669        3108.243          28.078  
R11  23400178.893                       -3632.260          22.914  
> 2022  9 17 17 36 53.0002876  0 21
C19  26374328.432                       -2859.336          19.768  
C21  22395989.879   116621772.385        1858.874          30.190  
C22  22443974.060   116871644.9001      -1325.625          23.832  
C36  22405813.178   116672970.7111      -1049.903          24.552  
E04                                                                                                                                  26388446.259                       -1339.229          18.445  
E05                                                                                                                                  25067428.480    98369976.168        1887.074          33.224  
E09                                                                                                                                  23480395.860    92142123.453         185.930          29.425  
E24                                                                                                                                  25800081.675   101245066.907        2486.305          28.878  
E31                                                                                                                                  23947890.420    93976623.005         813.508          27.101  
E34                                                                                                                                  27736825.195                       -1110.955          20.200  
G05  21137307.347                       -1328.348          24.999  
G07  24677129.279                       -2457.821          16.707  
G13  20077805.724   105509600.803        1004.073          35.033  
G14  21225966.769   111543219.538         682.657          31.464  
G18  24327766.438                        -507.476          22.168  
G20  22987700.746                       -3092.265          19.945  
G30  22140751.677   116350317.805       -1927.706          27.158    22140749.878    86885063.723       -1439.573          31.300  
R01  23486700.196                       -3505.031          20.988  
R02  19477365.800   103934917.313        -803.434          33.927  
R03  20183486.163   108043864.947        3107.647          28.128  
R11  23400972.744                       -3633.650          23.078  
> 2022  9 17 17 36 54.0002879  0 20
C19  26374952.600                       -2857.138          20.195  
C21  22395720.965   116620382.133        1858.582          30.221  
C22  22444311.926                       -1325.319          23.201  
C36  22406102.178                       -1050.380          24.999  
E04                                                                                                                                  26388878.859                       -1338.201          18.193  
E05                                                                                                                                  25067037.551    98368442.000        1887.103          32.989  
E09                                                                                                                                  23480438.131    92142290.529         185.858          29.851  
E24                                                                                                                                  25799536.353   101242933.574        2486.268          28.945  
E31                                                                                                                                  23947773.501    93976162.718         813.222          27.006  
G05  21137653.907                       -1328.491          24.797  
G07  24677728.264                       -2463.121          15.903  
G13  20077706.493   105509069.609        1003.820          35.018  
G14  21225925.997   111543009.989         682.175          31.292  
G18  24327947.812                        -505.984          22.285  
G20  22988370.182                       -3096.755          19.891  
G30  22141204.663   116352718.256       -1927.825          27.189    22141207.061    86886856.216       -1439.558          31.224  
R01  23487434.987                       -3501.269          21.791  
R02  19477596.940   103936201.184        -803.946          33.816  
R03  20183001.099   108041239.026        3107.364          28.370  
R11  23401735.116                       -3633.519          22.840  
> 2022  9 17 17 36 55.0002882  0 19
C19  26375596.554                       -2857.710          19.002  
C21  22395453.250   116618991.868        1858.594          30.119  
C22  22444658.786                       -1326.548          23.653  
C36  22406398.373                       -1050.563          24.495  
E05                                                                                                                                  25066646.622    98366907.617        1887.318          33.077  
E09                                                                                                                                  23480480.102    92142457.452         186.013          29.903  
E24                                                                                                                                  25798992.529   101240800.049        2486.460          28.861  
E31                                                                                                                                  23947655.983    93975702.409         813.245          27.113  
E34                                                                                                                                  27737572.278                       -1115.963          20.318  
G05  21137998.968                       -1328.637          24.543  
G13  20077606.362   105508538.315        1003.919          35.084  
G14  21225889.423   111542800.581         682.033          31.115  
G18  24328143.876                        -508.517          22.009  
G20  22989077.992                       -3092.399          20.122  
G30  22141661.247   116355118.408       -1927.525          26.277    22141663.945    86888648.517       -1439.365          31.480  
R01  23488203.355                       -3499.517          20.880  
R02  19477845.768   103937485.215        -804.106          34.071  
R03  20182514.836   108038613.030        3107.440          28.619  
R11  23402512.178                       -3634.546          23.326  
> 2022  9 17 17 36 56.0002885  0 19
C19  26376227.318                       -2858.311          19.003  
C21  22395188.234   116617601.728        1858.470          29.726  
C22  22445003.847   116877027.2811      -1325.965          23.427  
C36  22406688.872   116677525.8781      -1050.108          24.478  
E05                                                                                                                                  25066256.891    98365373.118        1887.434          32.950  
E09                                                                                                                                  23480522.672    92142624.407         185.980          29.702  
E24                                                                                                                                  25798449.605   101238666.456        2486.527          28.525  
E31                                                                                                                                  23947537.865    93975242.204         813.139          26.767  
E34                                                                                                                                  27737947.618                       -1115.374          19.951  
G05  21138336.534   111082689.7651      -1328.999          24.836  
G07  24678830.301                       -2471.841          17.864  
G13  20077502.934   105508007.178        1003.763          35.075  
G14  21225851.049   111542591.593         681.614          31.376  
G18  24328329.148                        -512.474          22.154  
G30  22142116.332   116357518.560       -1927.527          26.221    22142119.929    86890440.848       -1439.396          31.612  
R01  23488928.553                       -3499.948          21.398  
R02  19478085.902   103938769.674        -804.534          34.055  
R03  20182026.474   108035987.212        3107.261          28.636  
R11  23403268.554                       -3636.983          23.808  
> 2022  9 17 17 36 57.0002888  0 18
C19  26376868.574                       -2859.143          18.094  
C21  22394921.718   116616212.154        1857.903          29.874  
C22  22445345.910   116878822.048       -1326.438          23.477  
C36  22406976.073                       -1051.096          24.380  
E04                                                                                                                                  26390163.470                       -1333.406          17.434  
E05                                                                                                                                  25065865.063    98363838.791        1887.262          33.053  
E09                                                                                                                                  23480565.843    92142791.663         185.678          29.823  
E24                                                                                                                                  25797905.182   101236533.140        2486.251          28.563  
E31                                                                                                                                  23947421.245    93974782.477         812.662          27.141  
G05  21138684.293                       -1329.904          24.938  
G13  20077402.803   105507476.616        1003.188          34.942  
G14  21225810.277   111542383.451         680.768          31.449  
G18  24328509.623                        -507.876          22.213  
G30  22142572.316   116359919.116       -1927.930          26.535    22142576.813    86892233.424       -1439.641          31.387  
R01  23489670.240                       -3501.874          22.102  
R02  19478323.637   103940054.880        -805.281          34.019  
R03  20181532.716   108033362.028        3106.628          28.283  
R11  23404050.713                       -3630.879          23.977  
> 2022  9 17 17 36 58.0002891  0 19
C19  26377514.027                       -2861.649          19.741  
C21  22394652.505   116614822.973        1857.510          29.993  
C22  22445693.670                       -1324.405          23.344  
C36  22407274.067                       -1052.519          25.063  
E05                                                                                                                                  25065475.033    98362304.547        1887.179          32.981  
E09                                                                                                                                  23480608.713    92142959.102         185.496          29.849  
E24                                                                                                                                  25797361.358   101234399.981        2486.094          28.652  
E31                                                                                                                                  23947304.326    93974323.055         812.358          27.168  
G05  21139022.459   111086294.7901      -1330.162          25.969  
G07  24679954.523                       -2458.584          18.388  
G13  20077301.773   105506946.405        1002.837          34.928  
G14  21225769.506   111542175.874         680.203          31.561  
G18  24328700.891                        -507.055          22.422  
G20  22991112.384                       -3095.229          22.009  
G30  22143030.099   116362319.776       -1928.034          26.222    22143033.997    86894026.178       -1439.819          31.124  
R01  23490412.526                       -3503.607          22.410  
R02  19478564.970   103941340.776        -805.971          34.077  
R03  20181047.951   108030737.221        3106.251          28.623  
R11  23404816.982                       -3631.132          22.892  
