     3.03           OBSERVATION DATA    M: Mixed            RINEX VERSION / TYPE
Geo++ RINEX Logger  Geo++               20220917 181930 UTC PGM / RUN BY / DATE
************************************************************COMMENT
This file was generated by the Geo++ RINEX Logger App       COMMENT
for Android devices (Version 2.1.6). If you encounter       COMMENT
any issues, please send an email to android@geopp.de        COMMENT
Filtering Mode: MORE                                        COMMENT
************************************************************COMMENT
Geo++                                                       MARKER NAME
GEODETIC                                                    MARKER TYPE
Geo++               Geo++                                   OBSERVER / AGENCY
unknown             Xiaomi              MI 8                REC # / TYPE / VERS
unknown             MI 8                                    ANT # / TYPE
  4410324.6499   193655.0044  4588689.9496                  APPROX POSITION XYZ
        0.0000        0.0000        0.0000                  ANTENNA: DELTA H/E/N
G    8 C1C L1C D1C S1C C5Q L5Q D5Q S5Q                      SYS / # / OBS TYPES
R    4 C1C L1C D1C S1C                                      SYS / # / OBS TYPES
E   12 C1B L1B D1B S1B C1C L1C D1C S1C C5Q L5Q D5Q S5Q      SYS / # / OBS TYPES
C    4 C2I L2I D2I S2I                                      SYS / # / OBS TYPES
J    8 C1C L1C D1C S1C C5Q L5Q D5Q S5Q                      SYS / # / OBS TYPES
  2022     9    17    18    19   48.9999929     GPS         TIME OF FIRST OBS
 24 R01  1 R02 -4 R03  5 R04  6 R05  1 R06 -4 R07  5 R08  6 GLONASS SLOT / FRQ #
    R09 -2 R10 -5 R11  0 R12 -1 R13 -2 R14 -7 R15  0 R16 -1 GLONASS SLOT / FRQ #
    R17  4 R18 -3 R19  3 R20  2 R21  4 R22 -3 R23  3 R24  2 GLONASS SLOT / FRQ #
G L1C                                                       SYS / PHASE SHIFT
G L5Q -0.25000                                              SYS / PHASE SHIFT
R L1C                                                       SYS / PHASE SHIFT
E L1B                                                       SYS / PHASE SHIFT
E L1C +0.50000                                              SYS / PHASE SHIFT
E L5Q -0.25000                                              SYS / PHASE SHIFT
C L2I                                                       SYS / PHASE SHIFT
J L1C                                                       SYS / PHASE SHIFT
J L5Q -0.25000                                              SYS / PHASE SHIFT
 C1C    0.000 C1P    0.000 C2C    0.000 C2P    0.000        GLONASS COD/PHS/BIS
                                                            END OF HEADER
> 2022  9 17 18 19 48.9999929  0 22
C07  39920357.412   207875776.2641       -207.772          25.640  
C10  39160236.333                         192.350          23.638  
C21  22026700.133   114698771.381         476.688          32.832  
C22  23601941.916                       -2414.523          21.988  
C36  23375125.837                       -1915.526          21.041  
E05                                                                  24178841.536   127060670.0251       1951.180          30.905    24178845.134    94882980.910        1456.942          27.070  
E09                                                                  23794202.416   125039377.6001       -646.843          33.756    23794210.511    93373592.111        -483.013          28.262  
E24                                                                  24583891.126                        2479.465          21.735    24583892.925                        1854.653          18.573  
E31                                                                  23951650.717                        -189.207          22.015  
G05  22368676.687                       -2697.300          24.028  
G13  20108752.101   105672285.327        -254.883          33.178  
G14  21547933.676   113235148.299       -1062.668          29.637  
G15  20329465.004   106832058.890        1633.340          32.366  
G17  24178650.269   127059663.7991       2814.841          28.165  
G24  22630045.346                        3380.237          20.258    22630053.140    88805188.7921       2523.224          29.465  
G30  23453899.903   123251075.002       -2482.258          31.287    23453907.098    92038168.9641      -1853.601          27.793  
R02  20526883.734                       -2593.164          16.817  
R03  19288069.947   103250547.793        1405.174          30.172  
R04  22315270.160                        4311.405          22.708  
R14  22563110.084                        4176.660          15.452  
R20  24028694.981                        -830.717          21.222  
R21  24230615.694   129662918.4221       2432.112          27.340  
> 2022  9 17 18 19 49.9999932  0 23
C07  39920488.121   207876449.409        -204.815          26.154  
C10  39160286.098                         197.574          23.073  
C21  22026700.433   114698760.505         479.206          32.102  
C22  23602492.035                       -2410.293          20.307  
C36  23375588.117                       -1916.901          18.821  
E04                                                                                                                                  27611407.021                       -1695.105          18.592  
E05                                                                  24178559.132   127059188.600        1954.050          30.324    24178562.729    94881874.506        1459.339          28.108  
E09                                                                  23794413.770   125040494.329        -644.103          33.410    23794421.565    93374426.058        -481.012          27.619  
E24                                                                  24583510.390   129187210.7971       2481.397          20.927    24583507.092                        1853.149          18.697  
E31                                                                  23951774.232   125867346.4461       -187.911          22.937    23951782.026    93991943.0961       -140.294          25.839  
G05  22369287.664   117551357.1141      -2695.174          25.969  
G13  20108892.703   105673010.341        -252.389          33.198  
G14  21548226.873                       -1058.772          27.210  
G15  20329245.856   106830895.730        1635.786          34.206  
G17  24178204.477                        2819.680          27.979  
G24  22629485.034                        3381.204          20.958    22629500.323    88803016.373        2525.355          29.903  
G30  23454462.314   123254027.099       -2479.470          31.254    23454469.209    92040373.398       -1851.500          27.523  
R02  20527464.132                       -2587.227          15.436  
R03  19287897.566   103249621.816        1407.420          30.129  
R04  22314546.761                        4316.892          23.392  
R14  22562464.931                        4173.827          15.290  
R20  24028956.100                        -833.184          21.204  
R21  24230258.041                        2436.662          26.988  
> 2022  9 17 18 19 50.9999934  0 22
C07  39920587.652   207876962.612        -200.983          25.808  
C10  39160296.891                         202.529          22.218  
C21  22026665.956   114698589.988         482.736          33.749  
C22  23603013.973                       -2405.767          17.055  
C36  23376013.822                       -1912.017          18.291  
E05                                                                  24178249.146   127057545.752        1957.932          30.608    24178249.446    94880647.884        1461.912          25.419  
E09                                                                  23794593.945   125041449.718        -640.305          34.841    23794602.939    93375139.407        -478.058          27.598  
E24                                                                  24583098.475                        2480.617          19.860    24583093.978                        1859.989          19.931  
E31                                                                  23951869.266                        -182.576          24.982    23951876.461                        -135.870          27.193  
G05  22369863.865                       -2689.365          24.862  
G13  20109000.329   105673574.081        -248.656          33.276  
G14  21548488.592   113238053.4501      -1056.662          26.798  
G15  20328991.032   106829571.353        1639.460          35.100  
G17  24177724.210   127054812.8141       2821.505          28.172  
G24  22628894.742                        3387.664          20.076    22628916.327    88800723.346        2528.317          28.921  
G30  23454993.546   123256817.549       -2475.366          31.624    23454999.841    92042457.178       -1848.489          27.629  
R02  20528021.746                       -2575.630          13.885  
R03  19287691.909   103248531.871        1410.908          30.272  
R04  22313794.282                        4323.349          24.000  
R14  22561779.005                        4173.821          17.042  
R20  24029151.565                        -828.551          21.724  
R21  24229857.818                        2439.803          25.917  
> 2022  9 17 18 19 51.9999937  0 21
C07  39920714.165                        -195.533          25.677  
C10  39160351.453                         202.096          20.556  
C21  22026660.560   114698572.023         486.295          35.093  
C22  23603578.483                       -2405.930          14.820  
C36  23376472.805                       -1902.048          16.353  
E05                                                                  24177967.641   127056056.573        1961.805          29.810    24177963.444                        1465.717          21.343  
E09                                                                  23794805.299   125042558.725        -636.381          34.418    23794816.092    93375967.641        -475.299          28.298  
E24                                                                  24582711.443                        2489.744          20.348    24582708.745                        1861.769          21.383  
E31                                                                  23951997.277                        -178.436          22.744    23952000.875    93992803.6861       -134.862          29.077  
G05  22370457.455   117557524.1741      -2687.754          23.876  
G13  20109135.535   105674291.679        -244.972          33.072  
G14  21548777.592   113239579.124       -1053.049          27.758  
G15  20328769.486   106828400.933        1643.046          33.370  
G17  24177276.020   127052459.951        2825.489          27.921  
G24  22628354.216                        3395.307          18.393    22628362.611    88798545.100        2531.181          27.943  
G30  23455552.059   123259761.528       -2471.353          32.656    23455559.554    92044655.547       -1845.434          27.409  
R03  19287514.731   103247598.916        1414.399          30.379  
R04  22313079.277                        4329.556          23.386  
R14  22561048.711                        4181.956          17.259  
R20  24029384.803                        -818.952          22.326  
R21  24229490.273                        2442.938          25.787  
> 2022  9 17 18 19 52.9999940  0 22
C07  39920838.878                        -194.821          25.988  
C10  39160407.214                         208.656          20.013  
C21  22026657.862   114698552.214         488.138          34.992  
C22  23604116.310                       -2408.162          14.805  
C36  23376920.095                       -1899.052          13.667  
E05                                                                  24177680.140   127054565.277        1963.922          29.586  
E09                                                                  23795018.751   125043665.727        -634.376          34.361    23795025.047    93376794.256        -473.680          27.793  
E24                                                                  24582325.310                        2490.797          20.352    24582326.509                        1862.371          21.516  
E31                                                                  23952125.588                        -178.521          21.443    23952123.190    93993289.880        -133.258          28.770  
G05  22371057.639                       -2684.169          22.599  
G13  20109272.840   105675007.304        -243.000          32.877  
G14  21549063.893   113241103.106       -1051.355          28.576  
G15  20328547.340   106827228.672        1644.887          33.125  
G17  24176829.329   127050105.049        2827.528          27.322  
G24  22627803.498                        3398.872          14.557    22627806.795                        2532.994          26.635  
G30  23456111.472   123262703.236       -2469.082          32.659    23456118.667    92046852.260       -1843.779          26.548  
R02  20529123.783                       -2562.563          12.303  
R03  19287338.154   103246664.306        1416.054          30.268  
R04  22312366.370                        4328.626          24.421  
R14  22560322.614                        4185.547          15.815  
R20  24029622.838                        -815.853          22.574  
R21  24229127.824   129654925.6801       2443.340          26.787  
> 2022  9 17 18 19 53.9999942  0 21
C07  39920939.609   207878797.1371       -194.049          26.511  
C10  39160434.495                         208.456          20.239  
C21  22026621.887   114698376.159         488.274          35.167  
C30  26749898.231                        2595.574          23.118  
C36  23377342.503                       -1898.039          16.124  
E05                                                                  24177369.256   127052915.916        1964.445          30.146  
E09                                                                  23795197.428   125044614.803        -633.992          34.712    23795204.623    93377502.974        -473.429          29.020  
E24                                                                  24581921.490                        2492.537          20.772    24581910.398                        1857.420          22.360  
E31                                                                  23952214.027   125869643.3421       -178.233          21.020    23952217.925    93993658.263        -133.093          29.856  
G05  22371632.641                       -2687.807          21.905  
G13  20109380.466   105675565.188        -242.800          32.937  
G14  21549321.115   113242469.332       -1051.142          28.889  
G15  20328291.617   106825898.684        1645.072          33.412  
G17  24176351.460   127047592.112        2828.021          27.211  
G24  22627213.506                        3403.018          14.944    22627221.301    88794067.2121       2533.211          27.413  
G30  23456639.706   123265486.764       -2468.445          32.641    23456649.599    92048930.960       -1843.410          27.160  
R03  19287129.198   103245569.191        1416.078          30.357  
R04  22311636.076   119477732.8001       4326.699          25.172  
R14  22559577.629                        4192.587          14.528  
R20  24029832.993                        -824.301          22.598  
R21  24228732.997   129652803.135        2443.395          27.299  
> 2022  9 17 18 19 54.9999945  0 20
C07  39921065.821   207879459.288        -193.821          27.034  
C10  39160476.166                         205.107          20.086  
C21  22026620.688   114698356.346         488.142          35.182  
C22  23605182.072                       -2410.884          15.222  
C30  26749489.614                        2594.537          23.735  
E05                                                                  24177081.455   127051424.025        1964.516          30.110  
E09                                                                  23795408.182   125045721.369        -633.940          34.587    23795416.876    93378329.300        -473.391          28.977  
E24                                                                  24581523.665   129176811.9321       2490.924          19.887    24581529.361                        1861.223          22.297  
E31                                                                  23952337.842                        -177.159          19.849    23952340.540    93994144.315        -133.117          30.021  
G05  22372231.626                       -2686.068          22.056  
G13  20109512.074   105676280.684        -242.870          32.846  
G14  21549614.013   113243992.750       -1050.792          28.857  
G15  20328070.370   106824726.340        1644.970          33.446  
G17  24175909.266   127045236.035        2828.703          26.689  
G24  22626628.311                        3397.472          15.454    22626665.785    88791886.878        2533.269          27.709  
G30  23457200.318   123268427.597       -2468.207          32.472    23457209.911    92051126.997       -1843.102          27.633  
R03  19286967.011   103244634.889        1415.745          30.451  
R04  22310927.966                        4327.069          25.943  
R20  24030058.737                        -825.939          21.966  
R21  24228370.848   129650841.287        2443.123          27.008  
> 2022  9 17 18 19 55.9999947  0 22
C07  39921161.455                        -192.083          27.660  
C10  39160504.347                         204.666          19.807  
C21  22026587.711   114698179.878         488.688          34.969  
C22  23605706.410                       -2405.582          17.530  
C30  26749048.919                        2596.037          24.546  
C36  23378213.999                       -1901.843          21.559  
E05                                                                  24176766.373   127049773.652        1965.457          29.937    24176770.570                        1472.974          18.793  
E09                                                                  23795589.856   125046669.578        -633.124          34.709    23795595.552    93379037.403        -472.812          29.061  
E24                                                                  24581109.352                        2492.101          20.475    24581115.948    96461556.2881       1859.177          20.054  
E31                                                                  23952432.276   125870786.9821       -177.683          20.134    23952432.876    93994512.341        -132.736          31.958  
G05  22372800.632   117569840.5321      -2684.597          24.919  
G13  20109618.801   105676838.000        -242.233          32.798  
G14  21549876.031   113245358.609       -1050.775          28.484  
G15  20327814.947   106823395.921        1645.503          34.844  
G17  24175427.500   127042722.232        2828.888          25.982  
G24                                                                  22626076.093    88789588.265        2533.903          28.551  
G30  23457730.651   123271209.877       -2467.196          31.239    23457739.645    92053204.657       -1842.369          28.554  
R03  19286749.061   103243539.762        1416.090          31.300  
R04  22310180.883   119469881.0121       4327.790          27.263  
R14  22558251.647                        4184.443          20.161  
R20  24030281.782                        -822.925          22.828  
R21  24227964.030   129648718.598        2443.539          27.665  
> 2022  9 17 18 19 56.9999950  0 22
C07  39921287.368   207880624.4781       -191.750          27.886  
C10  39160550.515                         203.653          21.553  
C21  22026577.817   114698158.883         489.324          34.964  
C22  23606261.026                       -2399.532          15.720  
C30  26748636.404                        2596.965          24.545  
C36  23378678.678                       -1901.706          23.313  
E05                                                                  24176487.266   127048279.850        1966.428          30.439    24176484.268                        1470.985          20.114  
E09                                                                  23795800.910   125047774.412        -632.208          35.328    23795807.805    93379862.467        -472.129          29.240  
E24                                                                  24580728.016                        2493.059          21.191  
E31                                                                  23952552.493   125871436.409        -176.801          18.483    23952556.390    93994997.238        -131.962          32.948  
G05  22373403.515   117572996.846       -2683.688          25.653  
G13  20109756.705   105677552.118        -241.492          33.287  
G14  21550165.631   113246881.474       -1050.239          28.501  
G15  20327592.501   106822222.360        1646.187          34.995  
G17  24174979.310   127040364.848        2830.009          27.703  
G24  22625525.375                        3392.962          22.289    22625521.178    88787406.527        2534.672          28.058  
G30  23458288.865   123274148.583       -2466.080          30.329    23458298.158    92055399.146       -1841.554          27.785  
R03  19286581.777   103242604.659        1416.546          31.353  
R04  22309466.778   119466033.899        4328.725          27.129  
R14  22557535.143                        4189.477          20.963  
R20  24030525.513                        -822.543          23.138  
R21  24227596.184   129646755.773        2444.100          28.030  
> 2022  9 17 18 19 57.9999953  0 22
C07  39921415.379   207881283.998        -191.191          28.186  
C10  39160599.081                         207.032          20.941  
C21  22026579.616   114698137.649         489.564          35.140  
C22  23606805.149                       -2396.034          10.948  
C30  26748231.984   139285075.0641       2596.513          23.593  
C36  23379134.962                       -1899.822          22.806  
E05                                                                  24176197.667   127046785.535        1966.941          30.316    24176198.866                        1467.862          19.516  
E09                                                                  23796010.465   125048878.854        -631.816          35.103    23796017.060    93380687.182        -471.780          29.396  
E24                                                                  24580348.479   129170593.9361       2493.335          21.979  
E31                                                                                                                                  23952679.005    93995482.008        -131.835          32.917  
G05  22374004.299   117576152.917       -2683.445          26.382  
G13  20109885.316   105678265.992        -241.247          33.084  
G14  21550457.629   113248404.179       -1050.080          28.175  
G15  20327371.254   106821048.605        1646.382          35.128  
G17  24174531.120   127038007.101        2830.373          27.593  
G24  22624962.364                        3397.203          22.745    22624965.063    88785224.404        2535.059          27.853  
G30  23458846.778   123277086.794       -2465.586          30.148    23458856.971    92057593.240       -1841.159          27.975  
R03  19286398.604   103241669.585        1416.518          31.309  
R04  22308737.083   119462186.368        4329.144          27.759  
R14  22556774.570                        4189.497          21.388  
R20  24030786.333                        -823.361          22.696  
R21  24227224.442   129644792.842        2444.206          28.066  
> 2022  9 17 18 19 58.9999955  0 22
C07  39921511.912   207881788.084        -191.867          28.554  
C10  39160611.673                         216.652          19.300  
C21  22026545.740   114697961.463         488.406          35.161  
C27  26918761.429                         967.317          11.988  
C30  26747791.589                        2594.944          22.947  
C36  23379555.570                       -1897.676          23.071  
E05                                                                  24175887.981   127045134.493        1966.126          30.185    24175887.681                        1466.765          17.872  
E09                                                                  23796190.640   125049826.622        -632.684          35.225    23796197.835    93381394.935        -472.463          29.104  
E24                                                                  24579931.767                        2492.082          20.820  
E31                                                                                                                                  23952774.639    93995849.843        -132.546          32.975  
G05  22374578.701   117579152.397       -2684.396          26.669  
G13  20109998.638   105678823.326        -242.251          32.728  
G14  21550712.752   113249770.391       -1051.127          28.397  
G15  20327116.730   106819718.374        1645.315          35.125  
G17  24174049.953   127035492.623        2829.563          27.775  
G24  22624368.775   118891846.5101       3394.008          23.199    22624380.168    88782925.196        2534.497          27.914  
G30  23459374.413   123279867.961       -2466.083          29.798    23459388.503    92059670.154       -1841.624          27.167  
R03  19286191.747   103240575.456        1415.091          31.291  
R04  22308002.591   119458178.981        4328.462          27.858  
R14  22556063.162                        4182.908          20.963  
R20  24031025.867                        -821.762          22.828  
R21  24226823.619   129642670.766        2442.926          28.363  
> 2022  9 17 18 19 59.9999958  0 23
C07  39921640.224   207882448.829        -192.416          28.591  
C10  39160661.138                         218.314          19.481  
C21  22026538.844   114697942.355         487.437          35.231  
C27  26918668.793                         969.235          12.252  
C30  26747387.169                        2594.524          24.084  
C36  23380007.957                       -1900.060          22.497  
E04                                                                                                                                  27616495.398                       -1693.816          20.334  
E05                                                                  24175601.080   127043641.709        1965.410          30.161  
E09                                                                  23796400.495   125050932.792        -633.544          35.332    23796406.790    93382220.941        -473.071          29.401  
E24                                                                  24579545.035                        2490.541          20.626  
E31                                                                                                                                  23952896.954    93996335.972        -133.193          32.976  
G05  22375180.385   117582310.142       -2685.119          26.794  
G13  20110133.844   105679539.132        -243.180          33.423  
G14  21551004.750   113251295.265       -1052.249          28.482  
G15  20326895.783   106818546.685        1644.315          34.961  
G17  24173600.265   127033136.337        2828.911          27.273  
G24  22623812.061                        3392.979          23.713    22623824.652    88780744.185        2533.946          27.910  
G30  23459934.725   123282807.393       -2466.805          29.507    23459945.817    92061865.152       -1842.063          27.362  
R03  19286014.870   103239642.838        1414.061          31.267  
R04  22307281.590   119454332.936        4327.657          28.365  
R14  22555351.755                        4182.732          21.619  
R20  24031247.713                        -825.422          22.383  
R21  24226462.369   129640710.229        2441.812          28.069  
> 2022  9 17 18 20  0.9999960  0 23
C07  39921737.956   207882953.751        -192.702          28.376  
C10  39160685.721                         207.171          19.669  
C21  22026506.467   114697767.825         486.750          35.181  
C30  26746945.875                        2594.101          24.865  
C36  23380432.763                       -1900.721          22.200  
E04                                                                                                                                  27616987.957                       -1689.312          19.385  
E05                                                                  24175288.096   127041991.759        1965.034          30.479  
E09                                                                  23796581.270   125051881.841        -633.965          35.530    23796587.565    93382929.655        -473.424          29.935  
E24                                                                  24579130.722                        2490.740          21.231  
E31                                                                                                                                  23952991.389    93996704.948        -133.686          33.055  
G05  22375749.091   117585310.790       -2685.564          26.634  
G13  20110240.270   105680097.990        -243.774          33.057  
G14  21551264.370   113252663.239       -1052.889          28.539  
G15  20326645.756   106817218.137        1643.631          35.359  
G17  24173120.597                        2827.881          27.389  
G24  22623231.363                        3392.632          23.425    22623238.558    88778445.797        2533.678          28.060  
G30  23460464.458   123285589.464       -2466.988          29.473    23460474.651    92063942.677       -1842.235          27.534  
R02  20533593.389                       -2574.604          18.766  
R03  19285812.810   103238550.720        1413.081          31.533  
R04  22306539.904   119450326.672        4327.339          27.950  
R14  22554631.354                        4186.934          22.030  
R20  24031471.359                        -826.099          21.804  
R21  24226068.442   129638590.052        2441.027          27.861  
> 2022  9 17 18 20  1.9999963  0 23
C07  39921867.466   207883614.853        -192.772          28.468  
C10  39160747.778                         203.652          18.988  
C21  22026500.471   114697749.831         486.324          35.178  
C30  26746542.054                        2593.766          24.403  
C36  23380890.546                       -1901.368          22.480  
E04                                                                                                                                  27617508.097   108376933.4721      -1691.568          20.121  
E05                                                                  24175003.293   127040499.600        1964.785          30.530  
E09                                                                  23796793.822   125052988.642        -634.175          35.480    23796798.619    93383756.183        -473.594          29.513  
E24                                                                  24578752.084                        2491.216          20.941  
E31                                                                                                                                  23953115.503    93997191.726        -133.843          33.025  
G05  22376344.779                       -2686.193          26.423  
G13  20110372.479   105680814.821        -244.205          33.073  
G14  21551556.368   113254189.324       -1053.459          28.861  
G15  20326421.511   106816047.567        1643.196          35.240  
G17  24172676.604   127028267.4241       2828.293          27.246  
G24  22622672.250                        3394.453          22.808    22622683.042    88776265.164        2533.568          28.190  
G30  23461023.871   123288529.134       -2467.044          29.470    23461036.462    92066137.951       -1842.339          27.580  
R02  20534160.596                       -2582.092          17.394  
R03  19285645.525   103237619.793        1412.371          31.307  
R04  22305821.901   119446481.007        4327.278          27.792  
R14  22553931.038                        4186.312          22.214  
R20  24031693.805                        -827.746          21.788  
R21  24225706.892   129636630.972        2440.355          28.216  
> 2022  9 17 18 20  2.9999966  0 23
C07  39921989.182   207884275.930        -192.748          28.527  
C10  39160793.047                         202.576          19.471  
C21  22026498.073   114697732.318         485.842          35.212  
C30  26746131.339                        2593.593          23.862  
C36  23381343.533                       -1901.925          21.918  
E04                                                                                                                                  27618031.834                       -1691.974          20.064  
E05                                                                  24174720.889   127039007.434        1964.792          30.763  
E09                                                                  23797003.977   125054095.675        -634.407          35.536    23797009.073    93384582.812        -473.694          29.566  
E24                                                                  24578366.251                        2489.821          20.756  
E31                                                                  23953250.110                        -185.589          17.636    23953239.617    93997678.817        -134.157          33.095  
G05  22376953.358   117591628.2051      -2686.215          26.560  
G13  20110510.084   105681532.023        -244.575          32.949  
G14  21551848.366   113255715.879       -1053.929          28.896  
G15  20326197.566   106814877.474        1642.719          35.204  
G17  24172226.016   127025911.901        2828.149          27.110  
G24  22622118.833                        3390.742          22.727    22622126.328    88774084.667        2533.432          27.624  
G30  23461583.584   123291468.866       -2467.105          29.283    23461593.177    92068333.144       -1842.257          27.595  
R02  20534687.332                       -2579.478          19.094  
R03  19285476.442   103236689.397        1411.839          31.401  
R04  22305105.097                        4326.771          27.819  
R14  22553247.512                        4184.052          22.110  
R20  24031945.330                        -830.600          21.551  
R21  24225346.841   129634672.488        2439.759          28.073  
> 2022  9 17 18 20  3.9999968  0 24
C07  39922091.411   207884781.419        -193.269          28.360  
C10  39160810.135                         209.271          20.306  
C21  22026467.194   114697559.695         484.843          35.268  
C30  26745696.640                        2592.911          22.781  
C36  23381760.244                       -1903.178          22.077  
E04                                                                                                                                  27618522.295   108380905.1951      -1691.913          20.737  
E05                                                                  24174409.105   127037358.406        1964.112          30.719  
E09                                                                  23797183.253   125055045.909        -635.150          35.394    23797190.148    93385292.485        -474.382          29.623  
E24                                                                  24577951.938                        2488.496          20.572  
E31                                                                                                                                  23953333.752    93998048.925        -134.818          33.016  
G05  22377524.162                       -2687.653          26.748  
G13  20110621.007   105682092.601        -245.494          33.142  
G14  21552113.682   113257085.903       -1054.940          28.942  
G15  20325947.539   106813550.777        1641.781          35.082  
G17  24171745.449   127023399.649        2827.336          27.017  
G18  25143948.407                       -1788.542           9.739  
G24  22621532.739                        3389.869          22.939    22621542.032    88771786.972        2532.986          27.832  
G30  23462110.319   123294251.614       -2467.664          28.832    23462123.510    92070411.118       -1842.684          27.802  
R02  20535261.434                       -2573.015          19.491  
R03  19285275.282   103235599.804        1410.556          31.704  
R04  22304356.215   119438630.1991       4326.422          27.944  
R14  22552517.217                        4183.075          22.402  
R20  24032194.158                        -826.261          21.663  
R21  24224946.618   129632554.645        2438.694          28.440  
> 2022  9 17 18 20  4.9999971  0 23
C07  39922217.024   207885443.974        -194.226          28.174  
C10  39160856.303                         207.725          19.479  
C21  22026462.997   114697544.452         483.573          35.154  
C30  26745284.425                        2591.469          22.752  
C36  23382219.526                       -1900.882          21.677  
E04                                                                                                                                  27619039.437   108382950.795       -1692.665          20.786  
E05                                                                  24174125.201   127035868.000        1963.032          30.560  
E09                                                                  23797395.806   125056154.849        -636.314          35.537    23797399.703    93386120.492        -475.073          29.532  
E24                                                                  24577574.799                        2487.375          21.357  
E31                                                                                                                                  23953458.766    93998537.524        -135.664          33.159  
G05  22378125.546   117597791.0041      -2688.120          26.346  
G13  20110757.113   105682811.926        -246.699          33.335  
G14  21552402.682   113258614.852       -1056.324          29.254  
G15  20325722.695   106812382.922        1640.481          35.194  
G17  24171297.559   127021045.930        2826.345          26.559  
G24  22620979.921                        3390.397          23.284    22620986.517    88769607.738        2532.169          27.854  
G30  23462673.029   123297192.769       -2468.530          29.085    23462682.323    92072607.444       -1843.391          27.570  
R02  20535814.851                       -2576.845          20.551  
R03  19285096.905   103234672.217        1409.030          31.540  
R04  22303641.810   119434786.382        4325.429          27.666  
R14  22551819.001                        4183.801          23.362  
R20  24032418.703                        -829.916          21.329  
R21  24224574.876   129630598.757        2437.162          28.204  
> 2022  9 17 18 20  5.9999974  0 23
C07  39922345.635   207886107.219        -194.915          28.257  
C10  39160907.268                         202.582          19.922  
C21  22026460.599   114697530.313         482.468          34.996  
C30  26744877.607                        2593.872          23.489  
C36  23382681.207                       -1905.861          22.053  
E04                                                                                                                                  27619565.273   108384996.824       -1693.094          20.671  
E05                                                                  24173841.298   127034378.342        1962.284          30.720    24173837.700                        1462.362          17.998  
E09                                                                  23797605.061   125057264.602        -637.127          35.483    23797613.455                        -476.200          29.207  
E24                                                                  24577182.670                        2487.519          20.630  
E31                                                                                                                                  23953583.179    93999026.896        -136.436          33.123  
G05  22378729.628   117600952.658       -2689.028          27.420  
G13  20110892.019   105683532.239        -247.687          33.431  
G14  21552693.181   113260144.865       -1057.387          29.416  
G15  20325506.844   106811216.152        1639.396          35.145  
G17  24170854.166   127018693.044        2825.512          26.615  
G24  22620423.507   118871095.0941       3390.096          23.033    22620431.001    88767428.986        2531.687          27.745  
G30  23463228.845   123300134.577       -2469.182          28.927    23463244.434    92074804.286       -1843.906          27.607  
R02  20536451.311                       -2582.508          20.704  
R03  19284926.923   103233745.962        1407.699          31.793  
R04  22302911.216   119430943.437        4324.558          27.367  
R14  22551132.176   120210176.3911       4182.568          23.485  
R20  24032668.730                        -831.397          21.906  
R21  24224208.529   129628644.008        2436.024          28.040  
> 2022  9 17 18 20  6.9999976  0 23
C07  39922441.869   207886615.017        -195.578          28.204  
C14  26646629.322                        3645.387          11.571  
C21  22026428.221   114697361.150         481.382          34.872  
C30  26744443.807                        2593.281          23.764  
C36  23383102.415                       -1907.300          22.172  
E04                                                                                                                                  27620057.832                       -1697.341          19.655  
E05                                                                  24173524.117   127032731.956        1961.471          30.955    24173527.415                        1465.884          18.164  
E09                                                                  23797787.335   125058217.700        -638.014          35.515    23797793.630    93387661.0371       -476.504          29.077  
E24                                                                  24576770.456   129151808.0371       2486.730          19.484  
E31                                                                                                                                  23953677.314    93999399.326        -137.140          33.046  
G05  22379294.737   117603957.706       -2689.964          26.731  
G13  20111001.743   105684096.070        -248.747          33.207  
G14  21552951.902   113261518.504       -1058.555          29.494  
G15  20325249.922   106809892.931        1638.305          35.021  
G17  24170375.098   127016183.483        2824.645          26.115  
G24  22619840.710                        3393.492          22.939    22619845.807                        2530.764          26.992  
G30  23463762.475   123302919.537       -2469.876          28.824    23463772.968    92076883.942       -1844.366          27.305  
R02  20536980.444                       -2584.747          20.231  
R03  19284714.370   103232660.602        1406.322          32.240  
R04  22302153.940   119426940.531        4323.980          27.474  
R14  22550423.467                        4183.111          24.353  
R20  24032865.993                        -831.139          21.652  
R21  24223811.604   129626530.099        2434.760          27.928  
> 2022  9 17 18 20  7.9999979  0 22
C07  39922567.781   207887279.456        -196.109          27.410  
C10  39160984.015                         200.963          20.596  
C21  22026426.122   114697349.053         480.427          34.598  
C30  26744036.988                        2590.705          23.229  
C36  23383567.093                       -1906.750          20.669  
E04                                                                                                                                  27620577.072                       -1698.776          18.032  
E05                                                                  24173246.210   127031243.672        1960.909          31.148    24173242.912                        1464.352          21.867  
E09                                                                  23797999.888   125059329.038        -638.712          34.710    23798006.783    93388490.826        -476.854          28.033  
E31                                                                                                                                  23953804.126    93999889.878        -137.618          32.452  
G05  22379895.221   117607121.033       -2690.701          26.287  
G13  20111139.048   105684818.351        -249.655          33.175  
G14  21553245.998   113263050.736       -1059.605          28.525  
G15  20325032.273   106808728.255        1637.302          34.556  
G17  24169930.505   127013832.019        2824.090          26.382  
G24  22619282.497                        3389.878          22.713    22619289.092    88762955.6001       2530.623          28.681  
G30  23464323.987   123305862.649       -2470.486          29.223    23464332.980    92079081.591       -1844.714          27.842  
R02  20537533.861                       -2586.233          20.802  
R03  19284547.386   103231736.840        1405.207          31.996  
R04  22301450.027   119423098.978        4323.166          27.286  
R14  22549729.147                        4185.238          23.178  
R20  24033125.014                        -838.614          21.572  
R21  24223450.054   129624577.732        2433.641          27.171  
> 2022  9 17 18 20  8.9999981  0 24
C07  39922666.113   207887787.895        -196.220          26.405  
C10  39161006.499                         198.457          20.787  
C21  22026391.347   114697181.435         479.838          32.795  
C22  23612732.046                       -2409.414          16.990  
C30  26743594.195                        2580.908          19.137  
C36  23383998.495                       -1909.420          20.206  
E04                                                                                                                                  27621071.730                       -1693.885          21.223  
E05                                                                  24172932.327   127029598.297        1960.460          32.168    24172928.430                        1468.017          20.543  
E09                                                                  23798176.765   125060283.285        -639.163          35.385    23798188.457    93389203.506        -477.390          27.592  
E24                                                                  24575969.710                        2486.595          21.351  
E31                                                                  23953909.953                        -194.549          27.306  
G05  22380466.326                       -2690.793          24.490  
G13  20111254.168   105685383.638        -250.203          32.546  
G14  21553508.017                       -1062.639          25.121  
G15  20324775.651   106807406.549        1636.790          34.191  
G17  24169454.735   127011323.448        2823.654          26.079  
G24  22618688.308                        3387.649          21.428    22618704.497    88760660.656        2530.234          29.444  
G30  23464854.919   123308648.318       -2470.585          28.322    23464864.812    92081161.897       -1845.016          25.193  
R02  20538101.368                       -2587.927          23.482  
R03  19284342.627   103230653.396        1404.407          31.180  
R04  22300690.353   119419097.152        4322.901          26.112  
R14  22549018.639                        4182.141          21.896  
R20  24033339.365                        -840.090          21.078  
R21  24223043.236                        2433.444          25.989  
> 2022  9 17 18 20  9.9999984  0 24
C07  39922792.326   207888451.361        -195.136          26.341  
C10  39161053.267                         203.957          19.471  
C21  22026389.248   114697169.297         480.467          31.630  
C22  23613280.966                       -2403.360          15.661  
C30  26743188.576                        2577.652          14.420  
C36  23384453.580                       -1902.197          21.319  
E04                                                                                                                                  27621594.568                       -1692.338          22.528  
E05                                                                  24172646.925   127028109.386        1961.537          32.368    24172648.424                        1469.589          20.064  
E09                                                                  23798393.215   125061394.174        -638.263          35.473    23798399.211    93390033.046        -476.605          28.080  
E24                                                                  24575586.276   129145611.1641       2486.516          20.957    24575594.370                        1857.201          17.977  
E31                                                                  23954016.679                        -184.093          27.537  
G05  22381072.206   117613290.3821      -2690.375          23.216  
G13  20111388.176   105686105.617        -249.352          33.013  
G14  21553797.317                       -1063.304          23.326  
G15  20324556.802   106806241.741        1637.434          34.003  
G17  24168995.153   127008971.430        2824.644          23.945  
G24  22618145.084                        3389.814          19.259    22618148.382    88758482.459        2531.132          30.157  
G30  23465415.831   123311590.457       -2469.513          28.857    23465421.827                       -1843.448          23.584  
R02  20538676.970                       -2582.070          24.304  
R03  19284172.645   103229729.872        1404.968          31.573  
R04  22299981.644                        4326.954          24.843  
R14  22548335.112                        4178.911          21.318  
R20  24033561.811                        -835.242          21.502  
R21  24222685.284   129620513.6261       2433.457          25.676  
> 2022  9 17 18 20 10.9999987  0 23
C07  39922919.138   207889113.497        -193.807          26.099  
C10  39161104.232                         205.657          21.105  
C21  22026383.552   114697156.109         481.517          31.340  
C22  23613831.385                       -2408.129          14.051  
C30  26742784.156                        2588.617          15.032  
E04                                                                                                                                  27622115.607   108394994.1101      -1692.337          22.419  
E05                                                                  24172363.021   127026619.159        1962.853          32.150    24172363.921    94857551.1911       1465.712          24.042  
E09                                                                  23798602.470   125062503.671        -636.871          35.571    23798609.965    93390861.568        -475.587          27.832  
E24                                                                  24575195.946                        2488.880          20.849    24575205.539                        1856.652          17.702  
E31                                                                  23954142.292   125879831.9571       -183.058          27.400  
G05  22381673.290   117616452.012       -2689.004          24.033  
G13  20111521.284   105686826.554        -248.311          33.415  
G14  21554101.606                       -1057.395          23.088  
G15  20324331.358   106805075.878        1638.489          33.827  
G17  24168546.364                        2827.086          23.953  
G24  22617576.677                        3393.169          15.716    22617592.566                        2532.829          30.170  
G30  23465973.445   123314531.075       -2467.992          29.826    23465981.839    92085554.8271      -1842.981          23.109  
R02  20539242.978                       -2579.223          24.912  
R03  19284001.464   103228805.511        1405.805          31.083  
R04  22299270.536                        4327.277          24.417  
R14  22547648.288                        4180.419          20.280  
R20  24033807.941                        -833.701          22.493  
R21  24222321.636                        2435.378          25.246  
> 2022  9 17 18 20 11.9999989  0 23
C07  39923018.070   207889617.661        -191.944          26.163  
C10  39161124.318                         210.339          21.955  
C21  22026352.074   114696985.481         482.847          30.183  
C30  26742335.966                        2597.292          15.927  
C36  23385337.668   121773511.1281      -1901.768          25.347  
E04                                                                                                                                  27622604.569   108396920.342       -1690.941          23.248  
E05                                                                  24172049.139   127024969.703        1964.540          32.296    24172050.937                        1467.610          25.102  
E09                                                                  23798783.845   125063454.208        -635.453          35.651    23798792.839    93391571.316        -474.458          28.071  
E24                                                                  24574786.429                        2490.006          21.782    24574789.727                        1858.471          17.899  
E31                                                                  23954237.926   125880328.647        -181.606          27.261  
G05  22382248.292                       -2687.448          24.968  
G13  20111631.607   105687388.522        -246.884          33.757  
G14  21554359.128                       -1056.184          23.812  
G15  20324078.933   106803751.085        1639.877          33.314  
G17  24168073.891                        2828.222          23.787  
G24  22616996.279                        3394.098          13.328    22617007.971    88754005.3071       2533.308          29.814  
G30  23466503.777   123317312.395       -2466.236          30.172    23466512.172                       -1841.576          21.771  
R02  20539782.604   109604346.7781      -2580.403          25.631  
R03  19283802.701   103227719.555        1406.918          30.350  
R04  22298524.653                        4331.346          22.860  
R14  22546902.704                        4188.678          20.338  
R20  24034024.091                        -833.406          22.177  
R21  24221920.513   129616445.5291       2435.664          25.525  
> 2022  9 17 18 20 12.9999992  0 23
C07  39923146.081   207890276.472        -190.482          26.245  
C10  39161175.882                         209.408          22.301  
C21  22026349.675   114696969.825         483.985          30.015  
C30  26741923.452                        2601.539          16.773  
C36  23385792.753                       -1899.383          25.139  
E04                                                                                                                                  27623125.608   108398962.986       -1689.710          23.238  
E05                                                                  24171765.535   127023476.386        1965.943          32.147    24171767.334                        1468.026          25.086  
E09                                                                  23798991.301   125064560.831        -633.997          35.566    23799001.794    93392397.763        -473.512          27.912  
E24                                                                  24574408.991                        2490.564          21.735    24574407.192                        1859.385          17.854  
E31                                                                  23954360.841                        -179.905          26.811  
G05  22382850.875   117622613.5011      -2686.144          25.023  
G13  20111766.814   105688106.836        -245.688          33.461  
G14  21554642.432                       -1055.816          23.965  
G15  20323852.290   106802582.720        1640.991          33.217  
G17  24167626.300   127001749.2831       2829.410          23.699  
G24                                                                  22616452.756    88751823.854        2534.388          29.815  
G30  23467063.490   123320249.657       -2464.636          30.155    23467070.385                       -1839.671          22.479  
R02  20540339.619                       -2579.079          25.863  
R03  19283616.230   103226793.069        1407.930          30.042  
R04  22297794.358                        4329.425          21.866  
R14  22546194.894                        4183.741          20.809  
R20  24034296.303                        -832.016          21.582  
R21  24221562.261   129614490.191        2436.612          26.035  
> 2022  9 17 18 20 13.9999995  0 23
C07  39923270.195                        -188.546          25.906  
C10  39161222.949                         206.181          22.318  
C21  22026348.176   114696953.359         484.796          30.062  
C30  26741519.331                        2600.495          14.756  
C36  23386243.041                       -1898.973          25.363  
E04                                                                                                                                  27623648.746   108401004.800       -1688.878          22.945  
E05                                                                  24171480.432   127021981.846        1967.166          32.184    24171481.332    94854088.3171       1468.972          25.774  
E09                                                                  23799205.053   125065666.397        -632.940          35.582    23799211.948    93393223.384        -472.685          27.981  
E24                                                                  24574026.755                        2493.323          20.490  
E31                                                                  23954487.054   125881633.5421       -179.285          26.696  
G05  22383442.665   117625771.348       -2685.222          25.286  
G13  20111901.420   105688824.201        -244.739          33.248  
G14  21554936.828                       -1054.935          23.546  
G15  20323631.343   106801413.484        1641.861          33.155  
G17  24167176.312   126999391.599        2830.310          24.299  
G24                                                                  22615895.741    88749641.530        2535.260          29.945  
G30  23467616.008   123323185.706       -2463.423          29.974    23467628.299                       -1839.538          22.375  
R02  20540911.923   109610464.3851      -2578.450          25.782  
R03  19283446.848   103225865.954        1408.558          30.245  
R04  22297085.349                        4332.009          21.306  
R14  22545505.671                        4182.517          19.924  
R20  24034555.024                        -828.868          20.984  
R21  24221196.515   129612534.081        2437.385          26.050  
> 2022  9 17 18 20 14.9999997  0 23
C07  39923364.630   207891435.1421       -188.990          26.096  
C10  39161235.241                         208.409          21.708  
C21  22026314.600   114696780.932         484.646          30.273  
C30  26741060.049                        2591.760          16.605  
C36  23386672.943   121780458.0171      -1898.489          25.218  
E04                                                                                                                                  27624137.408   108402928.811       -1688.722          23.323  
E05                                                                  24171166.550   127020329.733        1967.196          32.469    24171166.550    94852854.569        1469.038          25.845  
E09                                                                  23799383.430   125066614.474        -632.993          35.994    23799393.023    93393931.381        -472.708          28.025  
E24                                                                  24573606.446   129135207.7591       2491.613          20.390  
E31                                                                  23954581.189   125882128.118        -179.493          26.625  
G05  22384022.164                       -2686.067          25.355  
G13  20112012.344   105689384.110        -244.825          33.227  
G14  21555200.046   113273289.4531      -1055.526          23.878  
G15  20323384.314   106800086.907        1641.662          32.495  
G17  24166701.141   126996876.479        2830.204          24.165  
G24                                                                  22615309.647    88747341.480        2535.340          30.188  
G30  23468145.441   123325963.981       -2463.191          30.061    23468158.932                       -1839.985          22.699  
R02  20541470.436                       -2577.301          25.408  
R03  19283244.188   103224778.812        1408.104          30.422  
R04  22296321.778                        4326.790          21.692  
R14  22544731.007                        4188.280          19.414  
R20  24034776.570                        -829.779          21.917  
R21  24220799.290   129610417.889        2437.042          26.373  
> 2022  9 17 18 20 16.0000000  0 24
C07  39923495.339                        -189.575          26.096  
C10  39161295.799                         207.372          21.608  
C21  22026311.902   114696765.788         483.473          30.738  
C30  26740665.522                        2589.832          16.223  
C36  23387125.030                       -1901.206          25.729  
E04                                                                                                                                  27624657.847   108404970.894       -1689.148          23.099  
E05                                                                  24170881.447   127018835.888        1966.472          32.226    24170882.346    94851739.090        1468.414          26.092  
E09                                                                  23799595.083   125067720.935        -633.835          35.718    23799603.178    93394757.615        -473.298          27.914  
E24                                                                  24573214.018   129133189.487        2490.898          20.367  
E31                                                                  23954702.005   125882781.161        -180.417          27.044  
G05  22384625.047                       -2688.209          24.812  
G13  20112137.957   105690102.644        -245.908          33.177  
G14  21555481.850                       -1057.375          22.826  
G15  20323158.570   106798918.929        1640.604          32.666  
G17  24166255.949   126994519.819        2829.286          24.038  
G18  25149023.293                       -1782.663           9.890  
G24                                                                  22614754.131    88745159.659        2534.755          30.457  
G30  23468705.154   123328900.435       -2463.828          29.422    23468716.246                       -1840.910          21.950  
R02  20542052.933   109616422.7751      -2579.888          25.921  
R03  19283076.304   103223853.402        1406.854          30.801  
R04  22295614.567                        4326.495          22.086  
R14  22544058.273                        4188.330          19.310  
R20  24035016.404                        -833.690          22.020  
R21  24220442.237   129608463.264        2435.901          26.295  
> 2022  9 17 18 20 17.0000003  0 23
C07  39923619.753                        -189.407          25.550  
C10  39161333.573                         210.837          21.702  
C21  22026307.405   114696751.036         483.081          30.279  
C30  26740259.004                        2595.430          13.082  
C36  23387581.015   121785194.9271      -1899.946          25.267  
E04                                                                                                                                  27625176.788   108407013.110       -1689.281          22.177  
E05                                                                  24170598.143   127017342.265        1966.248          32.346    24170598.443    94850623.706        1468.319          26.612  
E09                                                                  23799805.537   125068827.652        -634.091          35.864    23799813.332    93395583.996        -473.446          28.068  
E24                                                                                                                                  24572844.074                        1862.569          17.201  
E31                                                                  23954833.014   125883434.559        -180.772          27.407    23954845.905                        -137.173          18.805  
G05  22385221.634   117635089.5021      -2686.417          25.015  
G13  20112283.356   105690821.551        -246.281          33.351  
G14  21555772.349                       -1061.787          21.836  
G15  20322939.722   106797751.419        1640.136          32.123  
G17  24165796.367                        2829.429          23.121  
G24                                                                  22614196.817    88742977.895        2534.700          30.335  
G30  23469268.464   123331836.997       -2463.936          29.670    23469274.160    92098478.1101      -1839.836          22.716  
R02  20542613.844                       -2580.863          25.187  
R03  19282905.123   103222928.737        1406.109          30.366  
R04  22294855.493                        4332.280          22.495  
R14  22543403.227                        4187.791          19.267  
R20  24035256.838                        -838.466          22.248  
R21  24220069.295   129606509.236        2435.302          26.987  
> 2022  9 17 18 20 18.0000005  0 21
C07  39923716.286   207893252.8651       -189.544          25.161  
C10  39161355.458                         209.430          22.535  
C21  22026273.828   114696580.385         482.870          30.167  
C36  23388005.521                       -1901.085          24.330  
E04                                                                                                                                  27625667.548   108408937.498       -1689.098          21.713  
E05                                                                  24170283.061   127015690.963        1966.386          32.392    24170284.560    94849390.529        1468.467          26.168  
E09                                                                  23799985.413   125069776.747        -634.011          35.817    23799994.707    93396292.832        -473.546          27.845  
E31                                                                  23954924.751   125883930.572        -180.929          27.523    23954939.441                        -139.755          19.443  
G05  22385791.539   117638090.971       -2686.385          25.315  
G13  20112388.883   105691383.015        -246.381          32.952  
G14  21556038.865                       -1058.485          21.959  
G15  20322682.799   106796426.547        1639.956          31.945  
G17  24165321.796                        2830.826          22.944  
G24                                                                  22613611.023    88740678.534        2534.651          30.586  
G30  23469796.398   123334615.720       -2463.639          29.316    23469805.692    92100553.251       -1839.851          22.511  
R02  20543162.764                       -2579.898          25.115  
R03  19282702.763   103221844.008        1405.691          30.620  
R04  22294126.098                        4329.669          22.949  
R14  22542638.456                        4185.651          18.651  
R20  24035434.015                        -835.900          22.770  
R21  24219676.567                        2435.011          26.547  
> 2022  9 17 18 20 19.0000008  0 21
C07  39923838.901   207893910.110        -188.916          25.716  
C10  39161409.420                         213.289          20.201  
C21  22026272.329   114696565.866         482.849          30.186  
C36  23388458.507                       -1899.623          24.361  
E04                                                                                                                                  27626187.388   108410979.188       -1688.755          22.472  
E05                                                                  24169999.158   127014196.940        1966.649          32.120    24170002.156                        1469.196          24.481  
E09                                                                  23800198.266   125070883.184        -633.811          36.051    23800204.861                        -472.854          27.893  
E31                                                                  23955046.766   125884583.870        -180.672          27.728    23955061.756                        -135.466          19.756  
G05  22386393.522                       -2685.776          24.243  
G13  20112518.393   105692101.960        -246.319          32.401  
G14  21556320.970                       -1057.448          21.716  
G15  20322459.754   106795259.200        1639.973          32.250  
G17  24164872.407                        2826.656          22.520  
G24  22613046.214                        3393.761          12.821    22613056.107    88738496.475        2534.993          30.478  
G30  23470357.610   123337551.598       -2463.251          28.566    23470361.807                       -1839.230          23.029  
R02  20543729.072                       -2579.467          24.884  
R03  19282533.080   103220919.932        1405.519          31.075  
R04  22293408.694                        4329.909          22.226  
R14  22541946.835                        4187.587          19.192  
R20  24035699.032                        -831.344          22.593  
R21  24219316.516   129602441.6311       2434.798          26.587  
> 2022  9 17 18 20 20.0000010  0 21
C07  39923940.231   207894410.599        -188.269          26.218  
C10  39161427.108                         213.178          20.502  
C21  22026238.752   114696394.816         483.269          29.743  
C36  23388886.011                       -1898.319          25.430  
E04                                                                                                                                  27626678.448   108412902.625       -1688.147          22.529  
E05                                                                  24169685.875   127012544.601        1967.423          32.161    24169685.875                        1469.137          25.698  
E09                                                                  23800376.342   125071831.468        -633.199          35.924    23800385.336    93397827.1001       -472.842          27.697  
E24                                                                  24571631.114                        2490.762          20.497  
E31                                                                  23955139.702   125885079.225        -180.271          27.223    23955155.891                        -131.848          20.076  
G05  22386969.124   117644250.6711      -2685.789          25.716  
G13  20112634.713   105692662.958        -245.915          32.580  
G15  20322207.628   106793933.961        1640.324          31.849  
G17  24164394.238                        2827.026          22.733  
G24                                                                  22612470.013    88736196.262        2535.503          30.436  
G30  23470885.544   123340329.079       -2462.397          29.633    23470892.739                       -1838.755          23.061  
R02  20544269.598   109628344.2001      -2580.272          25.407  
R03  19282324.125   103219835.029        1405.866          31.010  
R04  22292659.513                        4328.489          21.612  
R14  22541237.226                        4189.645          18.063  
R20  24035918.480                        -836.964          23.106  
R21  24218917.193                        2435.079          26.364  
> 2022  9 17 18 20 21.0000013  0 23
C07  39924062.846   207895066.308        -187.381          25.666  
C10  39161480.771                         214.403          20.919  
C21  22026237.253   114696379.498         483.648          29.760  
C22  23619227.949                       -2406.864          19.509  
C36  23389341.396   121794351.6591      -1897.562          24.987  
E04                                                                                                                                  27627196.190   108414942.858       -1687.298          21.617  
E05                                                                  24169401.671   127011049.021        1968.206          31.989    24169400.172                        1469.812          24.928  
E09                                                                  23800588.895   125072936.589        -632.495          36.084    23800594.891    93398652.413        -472.379          27.934  
E24                                                                  24571251.576   129122782.1551       2492.189          19.698  
E31                                                                  23955268.613   125885731.501        -179.650          26.943    23955277.007                        -133.758          20.691  
G05  22387564.212                       -2685.043          25.922  
G13  20112768.720   105693380.842        -245.258          32.289  
G14  21556872.588                       -1057.673          24.228  
G15  20321981.585   106792765.660        1640.926          31.402  
G17  24163946.948                        2835.267          22.900  
G24                                                                  22611912.099    88734013.128        2536.069          30.303  
G30  23471441.359   123343263.121       -2461.417          29.126    23471449.454                       -1838.481          22.219  
R02  20544855.692                       -2581.127          24.444  
R03  19282151.744   103218910.473        1405.999          31.005  
R04  22291960.097                        4328.822          21.674  
R14  22540550.102                        4185.690          15.434  
R20  24036170.605   128532231.6961       -834.121          23.138  
R21  24218557.741   129598373.2161       2435.425          26.400  
> 2022  9 17 18 20 22.0000016  0 22
C07  39924189.659                        -186.518          25.083  
C10  39161537.132                         211.967          21.761  
C21  22026234.855   114696363.984         483.843          29.883  
C22  23619784.663                       -2406.289          20.552  
C36  23389793.483                       -1897.104          24.553  
E04                                                                                                                                  27627716.930   108416982.961       -1687.168          20.597  
E05                                                                  24169116.869   127009553.142        1968.505          32.097    24169117.168                        1469.823          25.294  
E09                                                                  23800798.150   125074041.418        -632.203          36.319    23800805.046    93399477.429        -472.080          28.382  
E24                                                                  24570863.045                        2492.303          20.544  
E31                                                                  23955392.727   125886383.614        -179.487          26.937    23955403.519                        -136.595          21.509  
G05  22388166.495   117650565.7541      -2684.824          25.465  
G13  20112903.926   105694098.657        -245.189          32.399  
G14  21557162.787                       -1054.025          24.303  
G15  20321757.640   106791597.426        1640.860          31.361  
G17  24163503.555                        2832.065          23.479  
G24                                                                  22611355.984    88731829.736        2536.327          29.961  
G30  23472003.470   123346196.795       -2461.048          28.594    23472008.567                       -1837.239          22.695  
R02  20545416.904                       -2578.992          24.275  
R03  19281977.864   103217986.079        1405.838          31.309  
R04  22291226.805                        4329.617          20.898  
R20  24036414.636                        -834.491          22.280  
R21  24218197.691   129596418.984        2435.507          26.650  
> 2022  9 17 18 20 23.0000019  0 23
C07  39924313.773   207896375.6531       -185.888          26.046  
C10  39161580.602                         214.469          21.432  
C21  22026231.857   114696347.944         484.370          33.013  
C22  23620333.883                       -2399.999          19.738  
C36  23390244.671                       -1898.680          23.914  
E04                                                                                                                                  27628235.870                       -1684.846          19.312  
E05                                                                  24168833.565   127008056.310        1969.458          30.840    24168830.567                        1470.216          24.960  
E09                                                                  23801007.405   125075145.489        -631.445          35.510    23801014.301    93400301.866        -471.502          29.134  
E24                                                                  24570473.915                        2493.859          20.517    24570479.011                        1862.245          20.569  
E31                                                                  23955520.139                        -178.984          24.000  
G05  22388763.981   117653722.295       -2683.915          26.173  
G13  20113039.732   105694815.708        -244.425          31.565  
G14  21557455.384   113285216.1211      -1055.808          27.769  
G15  20321544.787   106790428.435        1641.618          31.643  
G17  24163055.964   126977700.7081       2832.169          25.397  
G24  22610785.179                        3395.998          18.292    22610801.968    88729645.565        2537.106          28.153  
G30  23472560.485   123349129.419       -2459.998          27.821    23472566.181    92111391.3711      -1837.080          26.031  
R02  20545994.004                       -2578.742          23.706  
R03  19281800.987   103217061.179        1406.344          31.552  
R04  22290528.588                        4332.867          23.608  
R14  22539061.333                        4190.362          15.813  
R20  24036676.955                        -833.232          22.685  
R21  24217843.036   129594464.482        2435.777          27.185  
> 2022  9 17 18 20 24.0000021  0 23
C07  39924410.006   207896873.883        -186.010          27.416  
C10  39161598.889                         216.072          21.000  
C21  22026201.578   114696176.387         483.776          34.177  
C22  23620851.924                       -2396.120          20.025  
C36  23390664.980                       -1894.503          20.699  
E04                                                                                                                                  27628721.834                       -1685.835          17.174  
E05                                                                  24168517.883   127006402.205        1969.189          30.218    24168513.087    94842454.3771       1470.409          22.113  
E09                                                                  23801189.080   125076092.241        -631.668          35.082    23801195.375    93401008.900        -471.744          28.797  
E24                                                                  24570068.595   129116564.5141       2492.376          18.179  
E31                                                                  23955619.670                        -181.173          21.330    23955613.974    94006885.5821       -133.801          33.000  
G05  22389334.486   117656721.840       -2684.461          26.276  
G13  20113148.557   105695375.745        -244.953          31.928  
G14  21557716.803   113286588.013       -1056.808          28.426  
G15  20321293.261   106789102.564        1640.954          33.030  
G17  24162569.701   126975183.940        2831.853          25.051  
G24  22610198.785                        3393.305          17.324    22610214.674    88727344.032        2536.823          27.628  
G30  23473086.920   123351904.609       -2460.106          27.466    23473094.115    92113463.805       -1837.144          27.633  
R02  20546545.922                       -2580.173          21.972  
R03  19281601.925   103215976.658        1405.484          32.248  
R04  22289769.514                        4330.887          22.052  
R14  22538366.414                        4189.531          22.231  
R20  24036869.422                        -830.977          22.710  
R21  24217426.624   129592350.088        2435.244          27.697  
> 2022  9 17 18 20 25.0000024  0 23
C07  39924536.219   207897528.664        -186.451          27.464  
C10  39161649.254                         208.837          21.001  
C21  22026200.079   114696161.831         482.886          34.546  
C22  23621390.352                       -2397.536          18.084  
C36  23391121.564                       -1893.130          18.473  
E04                                                                                                                                  27629238.676                       -1687.487          17.491  
E05                                                                  24168233.680   127004906.223        1968.608          29.312    24168229.483    94841337.158        1470.153          20.826  
E09                                                                  23801397.735   125077197.325        -632.458          35.238    23801404.630    93401834.093        -472.258          28.357  
E24                                                                  24569693.555                        2492.169          15.836  
E31                                                                  23955745.582                        -180.410          19.901    23955736.289    94007372.981        -134.464          34.832  
G05  22389937.069   117659879.594       -2685.128          27.127  
G13  20113282.264   105696094.252        -245.881          32.064  
G14  21558011.499   113288118.219       -1057.580          28.197  
G15  20321069.916   106787935.093        1640.097          33.733  
G17  24162119.113   126972824.786        2831.780          25.857  
G24  22609630.079                        3392.384          15.676    22609656.760    88725160.530        2536.437          27.416  
G30  23473644.234   123354837.890       -2460.655          26.916    23473654.727    92115654.128       -1837.388          26.736  
R02  20547147.905                       -2584.497          20.998  
R03  19281428.345   103215053.696        1404.406          32.529  
R04  22289073.995                        4329.380          21.267  
R14  22537698.776                        4180.422          23.577  
R20  24037118.849                        -835.944          22.406  
R21  24217068.073   129590397.278        2434.085          27.549  
> 2022  9 17 18 20 26.0000027  0 21
C07  39924663.631   207898183.967        -186.974          27.561  
C10  39161701.118                         210.107          21.212  
C21  22026195.582   114696148.115         482.046          34.640  
C22  23621946.767                       -2403.106          16.485  
C36  23391569.453                       -1895.279          18.063  
E05                                                                  24167949.177   127003410.761        1968.087          29.830    24167945.280                        1471.298          19.230  
E09                                                                  23801608.190   125078302.981        -633.029          35.064    23801615.385    93402659.765        -472.736          28.717  
E31                                                                  23955866.399                        -184.241          18.592    23955860.703    94007860.836        -134.920          34.606  
G05  22390541.750   117663038.042       -2685.821          27.296  
G13  20113420.469   105696813.407        -246.529          31.777  
G14  21558298.700   113289649.296       -1058.451          27.224  
G15  20320844.772   106786768.474        1639.245          33.473  
G17  24161672.422                        2830.385          25.238  
G24  22609082.358                        3396.973          17.931    22609100.046    88722977.501        2535.964          26.510  
G30  23474202.448   123357771.605       -2461.089          26.558    23474212.041    92117844.862       -1837.799          26.985  
R02  20547708.218                       -2580.088          22.551  
R03  19281262.859   103214131.805        1403.335          32.523  
R04  22288330.510                        4327.734          20.635  
R14  22537005.056   120134908.5221       4187.065          24.181  
R20  24037364.978                        -837.069          22.148  
R21  24216692.133   129588445.480        2433.073          28.234  
> 2022  9 17 18 20 27.0000029  0 21
C07  39924758.665                        -187.394          27.737  
C10  39161724.202                         211.891          21.047  
C21  22026162.305   114695978.983         481.351          34.679  
C22  23622485.793                       -2406.275          16.305  
C36  23392002.953                       -1897.406          19.084  
E05                                                                  24167634.095   127001758.207        1967.638          30.806    24167629.898                        1475.728          18.835  
E09                                                                  23801789.264   125079251.546        -633.482          35.208    23801796.159    93403368.117        -473.062          28.905  
E31                                                                  23955960.234                        -181.435          16.835    23955955.437    94008231.525        -135.399          33.862  
G05  22391114.354   117666039.417       -2686.292          27.449  
G13  20113528.694   105697375.760        -247.269          31.916  
G14  21558561.618   113291023.595       -1059.215          28.412  
G15  20320598.342   106785444.988        1638.570          33.067  
G17  24161192.455   126967951.9131       2830.361          25.046  
G24                                                                  22608516.350    88720677.058        2535.733          27.069  
G30  23474727.984   123360547.915       -2461.226          26.402    23474739.376    92119918.162       -1838.010          27.771  
R02  20548271.528                       -2580.791          23.131  
R03  19281061.399   103213050.305        1402.463          32.876  
R04  22287586.725                        4331.180          21.754  
R14  22536292.449                        4188.407          23.552  
R20  24037555.047                        -837.919          22.781  
R21  24216309.298   129586333.937        2432.393          28.589  
> 2022  9 17 18 20 28.0000032  0 23
C07  39924885.777   207899339.1811       -187.541          27.941  
C10  39161766.173                         206.369          20.479  
C21  22026164.104   114695966.755         480.557          34.695  
C26  24658615.296                        3257.448          14.121  
C30  26735646.697   139219587.5571       2596.118          24.163  
C36  23392457.439                       -1898.776          19.912  
E04                                                                                                                                  27630766.418                       -1691.629          17.218  
E05                                                                  24167350.491   127000263.659        1967.175          30.948    24167342.697                        1469.477          18.363  
E09                                                                  23802000.318   125080358.290        -634.118          35.365    23802008.412    93404194.575        -473.523          29.098  
E31                                                                                                                                  23956079.551    94008720.361        -135.901          33.792  
G05  22391718.736   117669199.044       -2687.000          28.344  
G13  20113666.898   105698096.303        -247.916          32.016  
G14  21558853.916   113292556.344       -1060.123          28.301  
G15  20320377.096   106784279.872        1637.742          33.418  
G17  24160747.263   126965594.767        2829.772          25.168  
G24                                                                  22607959.036    88718494.681        2535.312          27.741  
G30  23475292.493   123363482.238       -2461.697          26.806    23475297.590    92122109.363       -1838.266          27.494  
R02  20548824.945   109652505.5511      -2583.127          24.578  
R03  19280882.723   103212130.423        1401.326          32.921  
R04  22286872.319                        4330.881          22.211  
R14  22535593.633                        4186.865          23.766  
R20  24037822.162                        -840.044          22.857  
R21  24215939.354   129584383.863        2431.349          28.830  
> 2022  9 17 18 20 29.0000034  0 23
C07  39924980.211   207899839.464        -188.063          27.786  
C10  39161789.257                         213.132          19.855  
C21  22026127.829   114695799.296         479.679          34.678  
C26  24658055.284                        3261.403          13.355  
C30  26735210.499   139217304.180        2595.596          24.292  
C36  23392887.941                       -1899.211          18.428  
E04                                                                                                                                  27631263.774                       -1690.455          19.708  
E05                                                                  24167036.309   126998612.122        1966.621          30.754    24167030.613                        1469.567          18.142  
E09                                                                  23802180.194   125081308.170        -634.796          35.293    23802187.089    93404903.883        -474.018          29.416  
E31                                                                                                                                  23956175.185    94009092.143        -136.492          33.738  
G05  22392288.042   117672201.806       -2687.678          28.698  
G13  20113773.025   105698660.160        -248.774          32.055  
G14  21559111.738   113293932.361       -1060.933          28.105  
G15  20320122.572   106782958.112        1636.844          33.396  
G17  24160264.897                        2828.606          24.783  
G24                                                                  22607372.042    88716195.044        2534.928          27.939  
G30  23475812.034   123366259.511       -2462.189          26.650    23475825.824    92124183.266       -1838.613          27.862  
R02  20549362.472   109655409.467       -2583.966          25.541  
R03  19280682.461   103211051.114        1400.271          32.756  
R04  22286093.758                        4330.069          22.727  
R14  22534888.222                        4186.697          24.711  
R20  24038037.113                        -838.327          22.572  
R21  24215540.630   129582274.461        2430.252          28.667  
> 2022  9 17 18 20 30.0000037  0 22
C07  39925108.523   207900496.564        -188.770          28.272  
C10  39161827.031                         208.437          18.870  
C21  22026128.129   114695789.144         478.481          34.791  
C30  26734803.081   139215177.832        2594.678          23.849  
C36  23393346.623                       -1903.064          18.588  
E04                                                                                                                                  27631781.516                       -1686.920          20.198  
E05                                                                  24166751.506   126997119.086        1965.662          30.612  
E09                                                                  23802392.746   125082416.479        -635.683          35.470    23802398.442    93405731.529        -474.711          29.944  
E31                                                                                                                                  23956299.599    94009582.318        -137.240          33.862  
G05  22392887.926   117675363.068       -2688.636          28.316  
G13  20113910.030   105699382.662        -249.876          32.161  
G14  21559409.132   113295467.177       -1062.191          28.056  
G15  20319900.126   106781795.009        1635.728          32.753  
G17  24159819.705                        2828.125          24.458  
G24                                                                  22606815.627    88714013.736        2534.243          27.650  
G30  23476368.149   123369195.001       -2462.864          26.518    23476385.836    92126375.394       -1839.193          27.832  
R02  20549940.472   109658474.659       -2585.267          25.923  
R03  19280513.378   103210133.736        1398.822          32.574  
R04  22285388.646                        4329.252          23.317  
R14  22534171.718   120119763.3731       4184.588          25.044  
R20  24038317.119                        -837.238          23.029  
R21  24215184.776   129580326.717        2429.020          28.633  
> 2022  9 17 18 20 31.0000040  0 23
C07  39925236.234   207901153.708        -188.815          28.064  
C10  39161880.394                         209.599          19.384  
C21  22026124.531   114695779.412         478.061          34.925  
C22  23624658.689                       -2402.490          18.382  
C30  26734397.162   139213051.567        2594.594          24.221  
C36  23393795.113                       -1904.315          19.403  
E04                                                                                                                                  27632301.955                       -1682.727          19.715  
E05                                                                  24166466.703   126995626.187        1965.525          30.655  
E09                                                                  23802604.400   125083525.077        -635.972          35.809    23802609.197    93406559.326        -474.862          29.680  
E31                                                                                                                                  23956425.512    94010072.796        -137.543          33.724  
G05  22393490.809                       -2688.956          27.802  
G13  20114047.035   105700105.440        -250.152          32.421  
G14  21559700.530   113297002.469       -1062.666          28.280  
G15  20319680.078   106780632.309        1635.326          32.838  
G17  24159371.815                        2827.421          24.203  
G24                                                                  22606260.412    88711832.525        2534.146          27.212  
G30  23476934.157   123372130.497       -2462.870          26.673    23476943.750    92128567.507       -1839.178          28.051  
R02  20550490.891   109661540.194       -2585.610          25.580  
R03  19280344.295   103209216.974        1398.206          32.725  
R04  22284662.249                        4327.106          22.878  
R14  22533486.392   120116058.311        4184.481          25.506  
R20  24038526.674                        -847.485          21.769  
R21  24214811.835   129578379.599        2428.392          28.755  
> 2022  9 17 18 20 32.0000042  0 23
C07  39925329.769   207901655.307        -189.379          27.741  
C10  39161890.288                         208.146          19.472  
C21  22026094.252   114695614.571         477.060          34.676  
C22  23625179.129                       -2407.302          18.436  
C30  26733956.767   139210770.070        2593.717          25.045  
C36  23394219.319                       -1900.412          19.492  
E04                                                                                                                                  27632794.814                       -1686.931          19.315  
E05                                                                  24166153.120   126993976.338        1964.933          30.749  
E09                                                                  23802785.175   125084476.828        -636.667          35.672    23802789.971    93407270.117        -475.501          29.773  
E31                                                                                                                                  23956519.647    94010446.314        -138.228          33.865  
G05  22394062.813   117681529.4361      -2689.808          27.969  
G13  20114156.459   105700671.738        -251.214          32.171  
G14  21559964.347   113298381.300       -1063.746          28.192  
G15  20319427.353   106779313.150        1634.243          32.628  
G17  24158884.053                        2826.663          24.321  
G24  22605678.514                        3389.060          16.195    22605674.917    88709534.151        2533.664          27.633  
G30  23477458.793   123374909.156       -2463.574          26.453    23477471.685    92130642.467       -1839.670          28.284  
R02  20551051.803   109664446.969       -2586.825          25.944  
R03  19280136.539   103208140.932        1397.005          32.671  
R04  22283894.781                        4326.835          22.540  
R14  22532770.188   120112194.384        4183.539          25.641  
R20  24038752.418                        -846.886          22.249  
R21  24214422.104   129576273.194        2427.255          28.697  
> 2022  9 17 18 20 33.0000045  0 23
C07  39925454.483   207902313.390        -189.754          27.704  
C10  39161951.145                         206.308          19.509  
C21  22026090.355   114695606.662         476.239          34.893  
C22  23625737.942                       -2407.694          18.887  
C30  26733551.447                        2591.685          25.521  
C36  23394682.199                       -1894.555          19.156  
E04                                                                                                                                  27633317.352                       -1692.504          20.207  
E05                                                                  24165869.217   126992484.554        1964.410          30.528  
E09                                                                  23802996.528   125085586.770        -637.315          35.414    23803002.524    93408098.959        -475.907          29.505  
E31                                                                                                                                  23956646.459    94010937.889        -138.640          33.863  
G05  22394660.299   117684692.365       -2690.303          28.150  
G13  20114293.764   105701396.226        -251.862          32.110  
G14  21560251.548   113299918.458       -1064.532          28.214  
G15  20319206.406   106778152.311        1633.465          32.115  
G17  24158442.458   126953503.1591       2826.866          24.336  
G24  22605082.527                        3387.010          14.704    22605119.701    88707353.774        2533.312          27.825  
G30  23478020.904   123377845.667       -2463.886          26.616    23478031.997    92132835.293       -1839.891          28.346  
R02  20551632.501   109667514.579       -2587.685          26.707  
R03  19279970.154   103207226.382        1395.994          32.847  
R04  22283182.474                        4323.657          21.918  
R14  22532072.271   120108490.731        4183.072          25.988  
R20  24039012.338                        -844.459          22.662  
R21  24214062.353   129574328.127        2426.342          28.647  
> 2022  9 17 18 20 34.0000048  0 23
C07  39925583.394                        -190.812          27.926  
C10  39161991.018                         209.088          19.778  
C21  22026092.154   114695599.909         475.082          34.816  
C22  23626284.164                       -2412.549          18.770  
C30  26733143.130                        2593.019          25.723  
C36  23395125.292                       -1899.698          19.097  
E04                                                                                                                                  27633832.696                       -1692.733          20.042  
E05                                                                  24165585.014   126990993.733        1963.447          30.686  
E09                                                                  23803207.882   125086697.723        -638.328          35.752    23803213.578    93408928.496        -476.602          29.494  
E31                                                                                                                                  23956770.273    94011430.357        -139.533          33.811  
G05  22395266.480                       -2692.116          27.530  
G13  20114431.369   105702121.872        -253.019          32.048  
G14  21560550.442   113301456.849       -1065.765          28.303  
G15  20318986.958   106776992.585        1632.351          31.847  
G17  24157993.369   126951149.982        2825.803          24.514  
G24                                                                  22604565.985    88705174.125        2532.584          27.329  
G30  23478581.516   123380782.925       -2464.632          26.103    23478588.411    92135028.706       -1840.478          28.053  
R02  20552208.702                       -2587.807          26.045  
R03  19279803.470   103206313.318        1394.507          32.686  
R04  22282455.177                        4322.042          21.354  
R14  22531394.740   120104787.992        4182.158          26.321  
R20  24039236.283                        -844.873          23.192  
R21  24213691.210   129572384.337        2425.065          29.023  
> 2022  9 17 18 20 35.0000050  0 23
C07  39925680.227   207903475.6311       -191.187          27.487  
C10  39162009.005                         208.245          19.311  
C21  22026057.977   114695438.142         473.987          34.623  
C22  23626799.807                       -2408.636          19.293  
C30  26732708.431                        2591.241          25.098  
C36  23395547.999                       -1902.707          18.593  
E04                                                                                                                                  27634329.752                       -1695.878          20.685  
E05                                                                  24165273.229   126989346.074        1962.744          30.798  
E09                                                                  23803389.257   125087651.890        -639.082          35.718    23803393.753    93409641.075        -477.290          29.539  
E31                                                                                                                                  23956866.506    94011805.824        -140.177          34.016  
G05  22395838.783   117690863.6701      -2692.202          27.953  
G13  20114535.996   105702690.949        -253.993          31.843  
G14  21560812.460   113302838.792       -1066.858          28.207  
G15  20318734.833   106775676.413        1631.256          32.097  
G17  24157520.297                        2824.400          25.115  
G24                                                                  22603978.391    88702877.402        2532.013          27.409  
G30  23479113.648   123383563.353       -2465.344          25.889    23479118.145    92137104.976       -1840.980          28.139  
R02  20552743.232                       -2591.444          26.128  
R03  19279602.309   103205241.061        1393.220          33.005  
R04  22281709.593                        4324.317          20.976  
R14  22530676.137   120100926.323        4181.282          26.640  
R20  24039437.144                        -846.061          22.473  
R21  24213313.772   129570281.450        2423.737          29.108  
> 2022  9 17 18 20 36.0000053  0 24
C07  39925806.739   207904135.743        -191.782          27.614  
C10  39162070.163                         208.532          18.890  
C21  22026058.877   114695433.565         472.906          34.516  
C22  23627351.125                       -2409.344          19.571  
C30  26732290.221                        2592.240          23.924  
C36  23396018.673                       -1906.214          19.687  
E04                                                                                                                                  27634851.091                       -1695.648          20.898  
E05                                                                  24164989.326   126987856.824        1961.876          31.025  
E09                                                                  23803600.610   125088764.527        -640.011          35.679    23803605.107    93410471.933        -477.922          29.652  
E24                                                                  24565348.363   129091744.7471       2484.157          18.328  
E31                                                                                                                                  23956992.119    94012299.686        -140.927          33.711  
G05  22396440.167   117694029.431       -2693.134          28.002  
G13  20114677.798   105703418.634        -255.059          31.814  
G14  21561106.557   113304379.463       -1068.046          27.630  
G15  20318512.986   106774518.864        1630.175          31.714  
G17  24157073.906   126946288.3831       2824.207          24.902  
G24                                                                  22603423.476    88700698.859        2531.478          27.289  
G30  23479669.163   123386501.914       -2465.935          26.083    23479676.958    92139299.340       -1841.429          27.816  
R02  20553327.827   109676564.3421      -2591.030          25.650  
R03  19279436.824   103204330.553        1391.952          32.996  
R04  22281016.473                        4325.724          21.304  
R14  22529968.327                        4179.445          26.043  
R20  24039715.351                        -850.954          22.263  
R21  24212942.329   129568340.234        2422.491          29.189  
> 2022  9 17 18 20 37.0000056  0 24
C07  39925931.153   207904796.547        -192.475          27.760  
C10  39162119.029                         204.611          18.562  
C21  22026055.279   114695430.001         471.893          34.458  
C22  23627902.444                       -2408.751          19.688  
C30  26731886.400                        2592.463          24.131  
C36  23396470.461                       -1909.540          19.377  
E04                                                                                                                                  27635370.331                       -1691.016          21.415  
E05                                                                  24164704.823   126986368.220        1961.230          30.786  
E09                                                                  23803814.962   125089877.996        -640.843          35.721    23803817.360    93411303.364        -478.496          29.712  
E24                                                                  24564956.534   129089734.027        2483.346          18.820  
E31                                                                                                                                  23957117.133    94012794.295        -141.673          33.722  
G05  22397041.251   117697196.095       -2694.038          27.939  
G13  20114814.803   105704147.207        -255.947          31.815  
G14  21561397.955   113305921.188       -1069.099          27.811  
G15  20318294.437   106773362.325        1629.165          31.884  
G17  24156623.617   126943936.844        2824.164          24.656  
G24  22602862.864                        3396.178          17.730    22602867.061    88698520.835        2530.959          27.457  
G30  23480231.274                       -2467.299          25.784    23480236.071    92141494.218       -1841.943          28.119  
R02  20553889.938                       -2592.535          25.117  
R03  19279260.246   103203421.298        1390.699          32.921  
R04  22280294.873                        4322.868          21.337  
R14  22529271.310                        4175.464          25.514  
R20  24039947.990                        -852.453          21.991  
R21  24212588.874   129566400.103        2421.406          29.106  
> 2022  9 17 18 20 38.0000058  0 24
C07  39926032.183                        -193.023          27.730  
C10  39162138.216                         204.119          19.504  
C21  22026025.600   114695270.917         471.303          34.279  
C22  23628428.279                       -2410.672          20.146  
C30  26731448.403   139197719.5421       2589.849          24.997  
C36  23396900.063                       -1909.028          19.080  
E04                                                                                                                                  27635862.590                       -1684.526          22.029  
E05                                                                  24164391.840   126984722.329        1960.975          30.624  
E09                                                                  23803996.936   125090834.190        -641.110          35.795    23804000.833    93412017.467        -478.813          29.478  
E24                                                                  24564544.320   129087566.232        2482.879          18.783  
E31                                                                                                                                  23957215.165    94013171.564        -141.980          33.711  
G05  22397613.555                       -2694.732          27.581  
G13  20114927.226   105704718.767        -256.476          31.783  
G14  21561661.772   113307305.922       -1069.649          28.076  
G15  20318045.610   106772048.831        1628.578          31.991  
G17  24156143.950                        2823.056          25.246  
G24  22602279.767                        3393.577          18.212    22602284.564    88696225.387        2530.738          27.663  
G30  23480753.513   123392222.8511      -2466.637          25.867    23480766.703    92143571.533       -1842.025          27.749  
R02  20554433.462   109682549.1951      -2592.791          25.436  
R03  19279061.483   103202352.341        1389.919          32.912  
R04  22279540.595                        4320.148          20.517  
R14  22528553.007   120089665.5941       4179.195          25.943  
R20  24040162.042                        -843.082          21.681  
R21  24212197.345   129564300.343        2420.610          28.961  
> 2022  9 17 18 20 39.0000061  0 23
C07  39926155.098   207905962.5741       -192.829          27.941  
C10  39162189.480                         203.441          19.429  
C21  22026025.300   114695268.638         470.608          34.493  
C22  23628986.193                       -2412.487          20.083  
C30  26731042.185   139195598.085        2589.787          24.915  
C36  23397361.144                       -1906.096          19.183  
E04                                                                                                                                  27636380.932                       -1688.189          21.759  
E05                                                                  24164109.435   126983234.470        1960.485          30.899  
E09                                                                  23804207.690   125091948.435        -641.620          35.565    23804213.086    93412849.526        -479.124          29.578  
E31                                                                                                                                  23957341.078    94013666.876        -142.377          33.691  
G05  22398217.037   117703373.0881      -2694.893          28.047  
G13  20115063.331   105705448.518        -257.125          31.682  
G14  21561956.168   113308849.008       -1070.461          28.332  
G15  20317830.059   106770893.567        1627.890          31.717  
G17  24155699.957                        2822.740          25.225  
G24  22601717.357                        3390.176          18.267    22601726.950    88694047.884        2530.437          27.685  
G30  23481317.122                       -2467.379          25.468    23481325.517    92145766.681       -1842.213          27.932  
R02  20554999.770   109685622.728       -2593.608          25.924  
R03  19278888.503   103201444.877        1388.908          32.790  
R04  22278816.596                        4318.522          19.519  
R14  22527852.392   120085966.197        4178.816          25.877  
R20  24040453.740                        -847.289          21.119  
R21  24211823.803   129562361.863        2419.754          28.906  
> 2022  9 17 18 20 40.0000064  0 22
C07  39926281.011   207906624.404        -193.501          27.847  
C10  39162232.051                         203.887          18.571  
C21  22026024.401   114695267.380         469.588          34.508  
C22  23629540.809                       -2415.363          20.806  
C30  26730635.366                        2588.268          24.568  
C36  23397810.833                       -1906.828          19.577  
E05                                                                  24163826.731   126981747.260        1959.836          30.821  
E09                                                                  23804417.245   125093063.500        -642.439          35.714    23804424.140    93413682.214        -479.753          29.542  
E31                                                                                                                                  23957466.991    94014162.896        -143.085          33.755  
G05  22398818.121   117706541.456       -2695.742          28.116  
G13  20115200.936   105706179.180        -258.036          31.595  
G14  21562247.267   113310393.110       -1071.476          28.082  
G15  20317607.913   106769739.308        1626.885          31.771  
G17  24155256.564   126936729.5871       2822.027          25.169  
G24  22601175.632                        3388.052          17.827    22601174.133    88691870.924        2529.895          27.248  
G30  23481877.435                       -2468.254          25.467    23481885.829    92147962.295       -1842.680          27.781  
R02  20555599.654   109688697.210       -2594.557          26.345  
R03  19278722.418   103200538.496        1387.824          32.878  
R04  22278083.903                        4320.840          19.978  
R14  22527157.174   120082267.591        4178.025          25.711  
R20  24040683.081                        -858.467          22.766  
R21  24211465.251   129560424.490        2418.649          29.246  
> 2022  9 17 18 20 41.0000066  0 23
C07  39926380.542   207907130.208        -193.585          27.595  
C10  39162256.934                         207.103          19.018  
C21  22025994.721   114695110.567         469.032          34.548  
C22  23630063.348                       -2412.212          20.444  
C30  26730196.170   139191201.9771       2588.387          23.478  
C36  23398232.940                       -1907.057          19.865  
E04                                                                                                                                  27637395.129                       -1700.593          21.940  
E05                                                                  24163513.748   126980102.817        1959.527          30.770    24163511.649                        1465.980          17.363  
E09                                                                  23804598.919   125094021.368        -642.784          35.414    23804607.313    93414397.459        -479.955          29.650  
E31                                                                                                                                  23957563.224    94014541.633        -143.447          33.800  
G05  22399394.922   117709552.737       -2696.197          28.538  
G13  20115310.660   105706752.834        -258.570          31.616  
G14  21562511.384   113311780.282       -1072.088          28.237  
G15  20317352.190   106768428.129        1626.262          31.796  
G17  24154775.997   126934222.956        2821.714          26.008  
G24  22600601.829                        3386.064          18.002    22600587.739    88689576.554        2529.660          27.477  
G30  23482400.872   123400885.4791      -2467.631          25.448    23482413.463    92150040.384       -1842.798          27.794  
R02  20556126.090   109691612.335       -2595.175          26.294  
R03  19278518.260   103199472.553        1386.905          32.729  
R04  22277381.190                        4324.540          19.372  
R14  22526433.175   120078409.500        4177.704          25.524  
R20  24040894.135                        -859.576          22.317  
R21  24211077.620   129558327.461        2417.878          28.986  
> 2022  9 17 18 20 42.0000069  0 24
C07  39926507.054   207907792.768        -194.230          27.830  
C10  39162307.898                         207.832          18.697  
C21  22025994.122   114695110.886         468.010          34.339  
C22  23630616.465                       -2411.112          20.457  
C30  26729793.849                        2587.601          23.809  
C36  23398696.120                       -1908.044          19.634  
E04                                                                                                                                  27637916.169                       -1695.315          21.984  
E05                                                                  24163231.943   126978616.571        1958.871          30.931  
E09                                                                  23804812.371   125095137.611        -643.617          35.602    23804818.667    93415231.038        -480.643          29.769  
E31                                                                                                                                  23957690.636    94015038.644        -144.076          34.082  
G05  22399999.903   117712722.331       -2696.968          28.289  
G13  20115448.865   105707484.955        -259.495          31.627  
G14  21562801.583   113313326.077       -1073.169          28.176  
G15  20317137.538   106767275.441        1625.314          31.642  
G17  24154328.107                        2820.630          26.078  
G19  25656865.422                        3646.729          12.588  
G24  22600033.722                        3385.552          18.535    22600034.921    88687400.315        2529.174          27.281  
G30  23482966.581                       -2468.736          25.654    23482973.776    92152236.559       -1843.241          27.811  
R02  20556695.396   109694688.500       -2596.240          26.677  
R03  19278353.374   103198568.307        1385.690          32.910  
R04  22276674.879                        4328.910          19.083  
R14  22525729.262                        4176.838          25.250  
R20  24041156.154                        -857.533          22.548  
R21  24210706.477   129556391.910        2416.826          28.839  
> 2022  9 17 18 20 43.0000072  0 24
C07  39926635.366   207908455.371        -194.274          27.712  
C10  39162361.861                         203.667          19.247  
C21  22025993.222   114695111.652         467.564          34.224  
C22  23631168.383                       -2410.541          21.419  
C30  26729385.531   139186963.4991       2587.465          24.631  
C36  23399157.800                       -1908.691          20.238  
E04                                                                                                                                  27638440.506                       -1692.301          21.938  
E05                                                                  24162947.140   126977130.523        1958.675          30.897  
E09                                                                  23805025.224   125096254.034        -643.797          35.424    23805031.220    93416064.793        -480.820          29.683  
E24                                                                  24562605.262   129077365.9131       2480.087          19.490  
E31                                                                                                                                  23957815.949    94015535.941        -144.361          34.032  
G05  22400602.785   117715892.171       -2697.214          28.584  
G13  20115587.668   105708217.451        -259.869          31.848  
G14  21563100.776   113314872.317       -1073.614          27.989  
G15  20316919.289   106766123.218        1624.849          31.644  
G17  24153884.414   126929525.7501       2821.387          26.523  
G24  22599479.406                        3388.828          18.126    22599478.806    88685224.184        2529.066          27.599  
G30  23483528.392   123406767.4531      -2468.324          25.485    23483533.488    92154432.785       -1843.290          27.681  
R02  20557277.593   109697765.141       -2596.716          26.571  
R03  19278191.486   103197664.716        1385.035          32.675  
R04  22275939.488                        4318.556          18.561  
R14  22525034.943                        4174.689          24.749  
R20  24041400.785                        -855.944          22.406  
R21  24210346.126   129554457.078        2416.107          28.677  
> 2022  9 17 18 20 44.0000074  0 23
C07  39926736.096   207908962.405        -194.815          27.696  
C10  39162389.442                         202.369          18.191  
C21  22025965.941   114694957.325         466.546          34.207  
C22  23631693.619                       -2414.745          20.961  
C30  26728947.834   139184688.862        2586.857          25.011  
C36  23399581.107                       -1906.876          19.569  
E04                                                                                                                                  27638929.167   108460921.2691      -1693.214          22.241  
E05                                                                  24162634.756   126975487.586        1958.021          30.955  
E09                                                                  23805207.498   125097213.701        -644.583          35.546    23805212.894    93416781.394        -481.311          29.859  
E31                                                                                                                                  23957915.180    94015916.261        -145.030          34.186  
G05  22401178.986   117718905.330       -2698.075          28.747  
G13  20115699.191   105708793.306        -260.771          31.713  
G14  21563363.094   113316262.043       -1074.642          28.159  
G15  20316671.061   106764814.442        1623.860          31.364  
G17  24153406.245   126927020.768        2820.066          26.621  
G24  22598879.221                        3388.107          18.504    22598893.312    88682930.921        2528.553          27.689  
G30  23484058.125   123409551.457       -2468.920          25.171    23484064.121    92156511.699       -1843.624          27.639  
R02  20557828.611   109700682.854       -2597.762          26.935  
R03  19277993.023   103196601.844        1383.834          32.854  
R04  22275183.411                        4314.192          19.463  
R14  22524319.638                        4175.711          24.272  
R20  24041636.122                        -855.745          22.708  
R21  24209958.794   129552362.845        2415.083          28.625  
> 2022  9 17 18 20 45.0000077  0 23
C07  39926864.107   207909626.105        -195.370          27.893  
C10  39162434.111                         200.021          18.217  
C21  22025965.341   114694960.034         465.620          34.464  
C22  23632244.937                       -2418.762          21.723  
C30  26728542.215                        2587.459          24.624  
C36  23400034.693                       -1908.087          19.900  
E04                                                                                                                                  27639449.607   108462967.772       -1693.568          21.274  
E05                                                                  24162352.951   126974002.870        1957.342          30.832  
E09                                                                  23805420.950   125098331.717        -645.389          35.481    23805427.246    93417616.226        -481.897          29.888  
E31                                                                                                                                  23958040.494    94016414.824        -145.628          33.935  
G05  22401782.469   117722076.849       -2698.893          28.518  
G13  20115838.295   105709527.641        -261.710          31.651  
G14  21563659.889   113317810.338       -1075.669          27.938  
G15  20316450.714   106763664.209        1622.858          31.152  
G17  24152961.353                        2818.700          26.901  
G24  22598345.891                        3383.567          18.909    22598341.094    88680755.765        2528.091          27.380  
G30  23484613.640                       -2470.462          24.588    23484623.833    92158708.719       -1844.085          27.936  
R02  20558405.112   109703761.598       -2598.820          26.727  
R03  19277814.047   103195700.677        1382.610          32.913  
R04  22274467.207                        4318.282          18.160  
R14  22523611.228                        4175.936          24.139  
R20  24041890.346                        -862.112          22.146  
R21  24209598.744   129550430.321        2413.800          28.563  
> 2022  9 17 18 20 46.0000080  0 24
C07  39926989.420                        -196.014          27.506  
C10  39162476.382                         196.505          18.700  
C21  22025964.442   114694963.611         464.752          34.356  
C22  23632799.254                       -2417.452          21.963  
C30  26728143.192                        2582.446          24.374  
C36  23400491.577                       -1908.636          20.678  
E04                                                                                                                                  27639969.747   108465014.523       -1693.816          21.966  
E05                                                                  24162070.547   126972518.677        1956.819          30.888  
E09                                                                  23805630.805   125099450.238        -645.895          35.555    23805639.199    93418451.527        -482.365          29.531  
E24                                                                  24561430.376   129071190.1531       2477.985          18.110    24561431.575                        1854.826          17.780  
E31                                                                                                                                  23958167.606    94016913.945        -146.186          33.940  
G05  22402385.052   117725248.945       -2699.471          28.670  
G13  20115982.495   105710262.757        -262.490          31.399  
G14  21563953.686                       -1076.686          27.806  
G15  20316231.566   106762514.694        1622.141          31.536  
G17  24152516.761   126922328.1571       2818.943          26.929  
G24  22597783.780                        3381.219          18.010    22597786.178    88678581.004        2527.696          27.379  
G30  23485174.552   123415435.9981      -2469.752          25.124    23485184.145    92160906.042       -1844.389          27.974  
R02  20558989.108   109706841.299       -2599.776          26.974  
R03  19277648.262   103194800.506        1381.615          32.960  
R04  22273744.408                        4326.197          17.924  
R14  22522904.318                        4179.347          23.869  
R20  24042128.681                        -858.916          22.058  
R21  24209245.288   129548498.642        2412.954          28.365  
> 2022  9 17 18 20 47.0000082  0 23
C07  39927083.255                        -196.477          27.330  
C10  39162505.761                         194.755          19.173  
C21  22025937.161   114694811.892         463.938          34.537  
C22  23633325.089                       -2416.786          21.558  
C30  26727700.098                        2583.693          24.072  
C36  23400916.083                       -1914.268          19.686  
E04                                                                                                                                  27640464.105   108466943.926       -1694.112          21.628  
E05                                                                  24161758.163   126970877.505        1956.256          30.755  
E09                                                                  23805815.477   125100411.866        -646.544          35.478    23805823.271    93419169.598        -482.782          29.573  
E24                                                                  24561015.763   129069027.900        2477.336          18.754    24561016.962                        1851.110          17.866  
E31                                                                                                                                  23958266.537    94017295.871        -146.636          34.020  
G05  22402956.756   117728264.138       -2700.109          28.828  
G13  20116093.718   105710840.985        -263.144          31.481  
G14  21564215.404   113320751.9621      -1077.423          27.536  
G17  24152042.489   126919824.984        2818.257          27.197  
G24  22597201.883                        3380.761          17.809    22597201.883    88676289.006        2527.288          27.715  
G30  23485703.086   123418221.336       -2470.255          25.091    23485712.979    92162986.002       -1844.670          27.820  
R02  20559543.424   109709761.681       -2600.431          27.037  
R03  19277451.298   103193740.936        1380.532          32.988  
R04  22273013.214                        4320.297          16.731  
R14  22522185.415                        4171.249          23.238  
R20  24042338.835                        -858.978          21.556  
R21  24208853.160   129546407.498        2411.994          28.302  
> 2022  9 17 18 20 48.0000085  0 24
C07  39927210.367                        -196.928          27.400  
C10  39162553.129                         200.772          17.499  
C21  22025938.960   114694817.015         463.206          34.343  
C22  23633879.406                       -2414.308          20.123  
C30  26727291.481   139176064.6791       2584.655          25.425  
C36  23401376.264                       -1913.164          20.295  
E04                                                                                                                                  27640984.245   108468991.281       -1694.420          20.955  
E05                                                                  24161476.058   126969394.253        1955.878          30.950  
E09                                                                  23806029.529   125101531.575        -647.083          35.598    23806035.225    93420005.731        -483.198          29.427  
E24                                                                  24560631.429   129067023.762        2476.765          19.536    24560638.024                        1850.176          17.600  
E31                                                                                                                                  23958392.450    94017796.024        -147.218          33.917  
G05  22403564.435   117731437.443       -2700.679          28.961  
G13  20116232.822   105711577.500        -263.889          31.669  
G14  21564507.702   113322302.774       -1078.186          27.751  
G15  20315762.990   106760060.5921       1620.539          31.280  
G17  24151596.997                        2816.940          27.530  
G24  22596624.183                        3386.391          18.330    22596649.065    88674114.995        2526.946          27.299  
G30  23486265.197   123421164.636       -2470.673          24.599    23486272.692    92165183.817       -1844.880          27.646  
R02  20560117.527   109712842.835       -2601.229          26.594  
R03  19277281.915   103192842.799        1379.581          33.087  
R04  22272249.942                        4314.480          17.151  
R14  22521506.985                        4170.852          22.747  
R20  24042580.168                        -865.377          22.236  
R21  24208476.620   129544477.686        2411.088          28.345  
> 2022  9 17 18 20 49.0000087  0 24
C07  39927308.699   207911972.2381       -196.541          27.371  
C10  39162572.915                         206.188          17.684  
C21  22025909.580   114694666.492         462.743          34.379  
C22  23634404.043                       -2417.530          21.202  
C30  26726860.679   139173792.525        2584.374          25.341  
C36  23401792.676                       -1907.168          19.883  
E04                                                                                                                                  27641473.506   108470921.094       -1694.523          21.350  
E05                                                                  24161163.674   126967753.684        1955.653          30.736  
E09                                                                  23806210.603   125102493.960        -647.301          35.379    23806219.897    93420724.445        -483.424          29.483  
E24                                                                  24560221.013   129064862.336        2476.510          19.771    24560230.306                        1853.085          17.750  
E31                                                                                                                                  23958490.182    94018178.801        -147.487          33.965  
G05  22404135.540   117734453.570       -2701.043          28.941  
G13  20116340.148   105712156.859        -264.276          31.541  
G14  21564774.817   113323696.539       -1078.681          27.818  
G17  24151117.329   126914976.6991       2818.202          27.998  
G19  25652489.051                        3657.417          11.255  
G24                                                                  22596063.571    88671823.486        2526.798          27.335  
G30  23486794.930                       -2470.047          24.200    23486804.823    92167264.124       -1845.017          27.782  
R02  20560654.455   109715764.650       -2601.866          26.843  
R03  19277084.952   103191784.954        1378.808          33.118  
R04  22271541.233                        4306.486          17.100  
R14  22520763.200                        4174.890          23.243  
R20  24042835.591                        -866.150          21.568  
R21  24208090.787   129542388.150        2410.385          28.020  
> 2022  9 17 18 20 50.0000090  0 23
C07  39927436.411   207912636.216        -195.649          27.430  
C10  39162635.871                         210.240          16.932  
C21  22025910.479   114694671.669         463.153          34.359  
C22  23634964.654                       -2417.637          21.568  
C30  26726452.662   139171675.717        2585.138          25.406  
C36  23402246.562                       -1906.947          20.823  
E04                                                                                                                                  27641995.445   108472967.858       -1693.829          20.833  
E05                                                                  24160881.270   126966269.839        1956.471          30.554  
E09                                                                  23806423.756   125103613.268        -646.682          35.100    23806433.049    93421560.194        -482.814          29.558  
E24                                                                  24559841.775   129062857.786        2477.176          20.081    24559842.975                        1849.149          18.666  
E31                                                                                                                                  23958617.894    94018678.715        -146.979          34.018  
G05  22404743.819   117737626.526       -2700.330          29.224  
G13  20116480.151   105712893.190        -263.704          31.395  
G14  21565068.913   113325247.371       -1078.206          27.240  
G17  24150676.035   126912630.916        2818.408          27.675  
G24                                                                  22595509.554    88669648.985        2527.436          27.527  
G30  23487355.842   123426892.7431      -2469.775          24.485    23487363.637    92169461.327       -1844.268          28.037  
R02  20561217.166   109718845.925       -2601.349          26.377  
R03  19276915.269   103190887.234        1379.164          33.185  
R04  22270813.337                        4309.100          13.951  
R14  22520094.063                        4174.189          23.435  
R20  24043103.006                        -856.012          21.368  
R21  24207733.435   129540458.567        2410.859          28.236  
> 2022  9 17 18 20 51.0000093  0 23
C07  39927566.221   207913299.162        -194.617          27.271  
C10  39162674.245                         210.143          18.501  
C21  22025909.580   114694676.168         463.830          34.678  
C22  23635519.870                       -2416.036          21.770  
C30  26726040.447   139169557.417        2586.629          25.387  
C36  23402713.339                       -1908.623          20.958  
E04                                                                                                                                  27642516.484   108475013.709       -1692.916          20.484  
E05                                                                  24160598.865   126964785.041        1957.424          30.502  
E09                                                                  23806636.309   125104731.649        -645.755          35.192    23806644.103    93422395.438        -482.309          29.435  
E24                                                                  24559461.938   129060852.213        2478.199          19.075  
E31                                                                                                                                  23958745.306    94019178.079        -146.429          34.321  
G05  22405343.404   117740798.628       -2699.475          28.792  
G13  20116619.254   105713628.861        -263.045          31.182  
G14  21565363.310   113326797.665       -1077.668          27.578  
G17  24150229.044                        2819.326          27.767  
G24                                                                  22594955.838    88667473.762        2528.158          27.934  
G30  23487916.754   123429834.045       -2468.676          24.635    23487923.349    92171657.767       -1843.505          27.870  
R02  20561799.063   109721926.696       -2600.846          26.387  
R03  19276750.683   103189988.965        1379.713          33.002  
R04  22270068.053                        4322.409          14.319  
R14  22519319.999                        4177.919          23.148  
R20  24043338.943                        -854.342          21.404  
R21  24207370.686   129538528.517        2411.324          28.317  
> 2022  9 17 18 20 52.0000095  0 24
C07  39927663.654   207913805.249        -193.868          27.251  
C10  39162703.924                         200.078          17.413  
C21  22025880.500   114694524.202         464.186          34.540  
C22  23636035.513                       -2416.165          21.283  
C30  26725604.549                        2588.078          25.503  
C36  23403145.040                       -1907.513          20.527  
E04                                                                                                                                  27643007.544                       -1690.404          19.527  
E05                                                                  24160286.182   126963142.046        1958.079          30.450  
E09                                                                  23806819.182   125105691.852        -645.119          35.230    23806825.777    93423112.489        -481.761          29.623  
E24                                                                  24559050.623   129058688.840        2478.457          19.564  
E31                                                                                                                                  23958841.839    94019559.453        -146.084          34.034  
G05  22405913.609   117743812.697       -2698.985          28.841  
G13  20116728.379   105714206.525        -262.579          30.904  
G14  21565627.727   113328190.020       -1077.271          27.699  
G15  20314827.338   106755152.6341       1621.593          31.065  
G17  24149755.972   126907779.8591       2820.004          28.056  
G24                                                                  22594370.942    88665180.425        2528.627          27.653  
G30  23488442.590   123432616.965       -2467.836          23.957    23488452.783    92173735.927       -1842.869          27.859  
R02  20562347.983                       -2602.113          25.908  
R03  19276551.021   103188930.145        1379.782          33.056  
R04  22269322.469                        4338.555          14.612  
R14  22518645.166                        4174.578          22.874  
R20  24043544.600                        -858.935          21.716  
R21  24206979.157   129536437.766        2411.601          28.229  
> 2022  9 17 18 20 53.0000098  0 23
C07  39927785.669   207914466.692        -193.113          26.642  
C10  39162739.600                         193.485          16.022  
C21  22025883.798   114694528.112         464.420          34.587  
C22  23636589.230                       -2414.333          22.104  
C30  26725198.330   139165164.4391       2587.302          25.837  
C36  23403594.129                       -1905.122          21.127  
E04                                                                                                                                  27643527.384                       -1691.708          19.224  
E05                                                                  24160006.176   126961656.068        1958.604          30.339  
E09                                                                  23807032.634   125106809.221        -644.743          35.364    23807039.230    93423946.890        -481.466          29.381  
E24                                                                  24558671.985   129056682.317        2479.149          19.130  
E31                                                                                                                                  23958968.951    94020058.186        -145.798          34.022  
G05  22406516.192   117746983.804       -2698.481          28.492  
G13  20116869.881   105714941.392        -262.241          30.714  
G14  21565927.819   113329739.743       -1077.097          27.347  
G15  20314605.491   106754003.424        1621.836          30.698  
G17  24149307.183   126905432.089        2820.396          28.287  
G24  22593831.016                        3385.256          17.588    22593815.727    88663004.338        2529.022          27.675  
G30  23489001.403   123435556.813       -2467.222          24.467    23489011.895    92175931.241       -1842.380          27.782  
R02  20562935.276   109727927.0771      -2600.203          26.675  
R03  19276389.133   103188031.808        1379.781          32.803  
R14  22517980.526                        4173.441          23.817  
R20  24043793.128                        -861.728          21.467  
R21  24206631.997   129534507.406        2411.636          28.433  
> 2022  9 17 18 20 54.0000101  0 21
C07  39927917.278   207915127.816        -192.795          27.025  
C10  39162803.455                         205.467          17.330  
C21  22025882.899   114694532.089         464.353          34.512  
C22  23637142.647                       -2411.771          22.067  
C30  26724789.413   139163045.299        2587.469          26.159  
C36  23404054.310                       -1904.169          22.519  
E05                                                                  24159720.474   126960169.771        1958.923          30.540  
E09                                                                  23807246.986   125107926.343        -644.496          35.174    23807252.082    93424781.090        -481.265          29.758  
E31                                                                                                                                  23959097.562    94020556.890        -145.769          33.884  
G05  22407119.374   117750154.839       -2698.408          28.218  
G13  20117010.184   105715676.188        -262.171          31.031  
G14  21566222.515   113331289.528       -1077.159          27.403  
G15  20314392.339   106752854.227        1621.823          30.382  
G17  24148856.594   126903083.919        2820.796          28.427  
G24  22593251.218                        3387.351          18.019    22593260.511    88660827.924        2529.349          27.376  
G30  23489559.316   123438496.227       -2466.787          23.953    23489571.608    92178126.301       -1842.124          28.126  
R02  20563513.276   109731007.116       -2600.114          26.545  
R03  19276220.350   103187133.692        1379.560          32.818  
R14  22517294.302                        4173.794          23.661  
R20  24044036.260                        -863.925          22.122  
R21  24206273.446   129532577.149        2411.532          28.716  
> 2022  9 17 18 20 55.0000103  0 24
C07  39928012.312   207915633.526        -193.490          27.312  
C10  39162821.743                         207.989          17.286  
C21  22025855.018   114694380.924         463.385          34.633  
C22  23637672.980                       -2415.334          22.163  
C30  26724352.316   139160770.771        2586.748          26.427  
C36  23404479.716                       -1904.997          22.470  
E04                                                                                                                                  27644534.987                       -1681.631          17.691  
E05                                                                  24159406.891   126958526.712        1958.144          30.471  
E09                                                                  23807429.559   125108886.777        -645.350          35.284    23807434.656    93425498.276        -481.896          29.554  
E24                                                                  24557871.839                        2478.698          18.457  
E31                                                                                                                                  23959193.795    94020938.600        -146.421          34.188  
G05  22407697.674   117753169.162       -2699.239          28.432  
G13  20117119.308   105716254.478        -263.206          30.848  
G14  21566485.133   113332682.801       -1078.189          27.592  
G15  20314142.312   106751548.526        1620.785          30.529  
G17  24148382.922   126900578.584        2820.419          28.345  
G24  22592681.312                        3386.812          17.200    22592677.715    88658534.545        2528.668          27.439  
G30  23490092.048   123441278.745       -2467.434          23.539    23490101.041    92180204.141       -1842.550          27.516  
R02  20564056.200   109733928.399       -2601.333          26.634  
R03  19276013.793   103186076.365        1378.289          33.063  
R04  22267181.351                        4316.575          13.304  
R14  22516578.397                        4177.858          23.764  
R20  24044264.402                        -863.230          21.868  
R21  24205872.623   129530487.608        2410.391          28.878  
> 2022  9 17 18 20 56.0000106  0 21
C07  39928140.024   207916296.444        -194.589          27.305  
C10  39162860.416                         199.458          17.173  
C21  22025855.318   114694387.571         461.682          34.458  
C22  23638225.197                       -2417.992          22.250  
C30  26723949.095   139158653.699        2585.401          26.337  
C36  23404942.296                       -1909.915          22.006  
E05                                                                  24159122.388   126957042.471        1956.866          30.328  
E09                                                                  23807641.213   125110006.208        -646.805          35.313    23807646.909    93426334.158        -482.947          29.747  
E31                                                                                                                                  23959322.106    94021439.124        -147.588          34.120  
G05  22408302.955   117756342.461       -2700.673          28.551  
G13  20117258.412   105716991.835        -264.732          30.867  
G14  21566780.728   113334235.373       -1079.946          27.648  
G15  20313924.363   106750402.003        1619.149          30.358  
G17  24147938.630   126898232.628        2818.582          28.701  
G24  22592112.306                        3386.902          17.415    22592123.698    88656359.777        2527.704          27.260  
G30  23490656.557   123444219.991       -2468.620          23.593    23490661.354    92182400.559       -1843.483          27.295  
R02  20564633.001   109737011.315       -2602.991          27.125  
R03  19275848.008   103185181.380        1376.429          32.768  
R14  22515862.193                        4175.212          23.736  
R20  24044500.339                        -866.592          21.773  
R21  24205511.373   129528560.358        2408.525          28.895  
> 2022  9 17 18 20 57.0000109  0 23
C07  39928269.234   207916960.372        -195.599          27.430  
C10  39162912.880                         193.072          17.079  
C21  22025856.517   114694395.635         460.265          34.731  
C22  23638779.813                       -2417.391          23.031  
C30  26723539.878   139156537.260        2584.769          26.291  
C36  23405396.481                       -1909.027          21.654  
E04                                                                                                                                  27645586.059                       -1701.213          18.860  
E05                                                                  24158839.384   126955559.452        1955.646          30.097  
E09                                                                  23807853.766   125111126.800        -647.967          35.292    23807862.160    93427171.039        -483.946          29.421  
E24                                                                  24557113.364   129048505.1891       2475.668          18.895  
E31                                                                                                                                  23959448.319    94021940.587        -148.528          33.981  
G05  22408906.437   117759517.017       -2701.930          28.717  
G13  20117396.616   105717730.580        -266.118          30.657  
G14  21567076.024   113335789.336       -1081.337          27.650  
G15  20313708.512   106749256.928        1617.701          30.380  
G17  24147492.239   126895887.877        2817.377          28.384  
G24                                                                  22591568.483    88654185.860        2526.852          27.420  
G30  23491216.569                       -2473.287          22.858    23491219.867    92184597.700       -1844.205          27.252  
R02  20565211.600   109740095.789       -2604.550          27.040  
R03  19275680.124   103184288.115        1374.708          32.943  
R14  22515169.972   120018566.8671       4172.751          23.941  
R20  24044760.858                        -867.480          22.293  
R21  24205149.224   129526634.632        2407.001          28.862  
> 2022  9 17 18 20 58.0000111  0 23
C07  39928367.267   207917469.031        -196.439          27.583  
C10  39162938.062                         192.915          17.204  
C21  22025828.037   114694248.782         459.072          34.472  
C22  23639303.551                       -2416.767          22.749  
C30  26723104.879   139154266.107        2583.372          26.690  
C36  23405815.591                       -1910.186          21.957  
E04                                                                                                                                  27646075.620                       -1695.563          18.689  
E05                                                                  24158527.000   126953919.728        1954.808          29.927  
E09                                                                  23808039.337   125112090.833        -648.948          35.334    23808045.633    93427890.909        -484.580          29.440  
E24                                                                  24556702.049   129046345.753        2474.520          19.236  
E31                                                                                                                                  23959547.550    94022325.259        -149.382          34.459  
G05  22409479.340   117762535.081       -2702.980          28.514  
G13  20117509.638   105718312.907        -267.243          30.708  
G14  21567344.638   113337187.019       -1082.599          27.586  
G15  20313460.884   106747955.513        1616.499          30.539  
G17  24147016.169   126893386.487        2816.474          28.257  
G24                                                                  22590985.086    88651894.931        2526.218          27.828  
G30  23491743.904                       -2470.916          23.129    23491751.999    92186677.760       -1844.770          27.543  
R02  20565765.917   109743021.501       -2605.761          27.211  
R03  19275487.358   103183235.754        1373.324          33.015  
R14  22514458.565                        4171.438          23.999  
R20  24044979.707                        -866.236          21.689  
R21  24204760.393   129524549.965        2405.517          28.798  
> 2022  9 17 18 20 59.0000114  0 23
C07  39928490.481                        -196.780          27.232  
C10  39162998.920                         205.924          17.715  
C21  22025829.536   114694259.023         458.088          34.531  
C22  23639857.867                       -2419.304          23.920  
C30  26722698.661                        2581.979          26.357  
C36  23406275.173                       -1909.791          22.775  
E04                                                                                                                                  27646598.158                       -1693.171          19.344  
E05                                                                  24158245.495   126952438.299        1954.055          30.034    24158246.394                        1457.443          17.737  
E09                                                                  23808250.691   125113213.194        -649.736          35.299    23808258.785    93428729.053        -485.209          29.487  
E24                                                                  24556306.323   129044344.417        2473.962          18.385  
E31                                                                                                                                  23959676.161    94022828.238        -150.044          34.176  
G05  22410083.422   117765711.487       -2703.780          28.890  
G13  20117651.740   105719053.726        -268.193          30.813  
G14  21567641.133   113338743.348       -1083.703          27.612  
G15  20313244.134   106746812.620        1615.519          30.442  
G17  24146574.874   126891043.317        2815.796          28.077  
G24                                                                  22590431.070    88649722.197        2525.670          27.674  
G30  23492306.315                       -2471.599          23.482    23492311.711    92188875.950       -1845.255          27.760  
R02  20566349.013   109746108.134       -2606.709          27.296  
R03  19275318.874   103182345.095        1372.102          32.872  
R14  22513738.463                        4171.363          23.910  
R20  24045231.832                        -871.136          21.516  
R21  24204400.942   129522626.749        2404.492          28.853  
> 2022  9 17 18 21  0.0000116  0 23
C07  39928590.012   207918643.8911       -197.395          26.871  
C10  39163018.706                         206.741          18.120  
C21  22025802.254   114694113.950         457.292          34.579  
C22  23640384.302                       -2421.863          23.906  
C30  26722264.261   139149882.3641       2582.199          26.965  
C36  23406702.077                       -1912.634          22.351  
E04                                                                                                                                  27647090.118                       -1691.473          20.567  
E05                                                                  24157933.711   126950799.780        1953.603          29.835    24157935.809                        1449.861          18.654  
E09                                                                  23808436.562   125114178.577        -650.298          35.158    23808441.659    93429449.946        -485.603          29.709  
E24                                                                  24555902.502   129042186.276        2473.224          17.966  
E31                                                                                                                                  23959773.294    94023214.050        -150.522          34.366  
G05  22410659.323                       -2704.613          28.722  
G13  20117762.963   105719637.710        -268.900          31.070  
G14  21567902.252   113340142.847       -1084.415          27.330  
G15  20312998.903   106745512.996        1614.709          30.491  
G17  24146095.206   126888543.224        2815.177          28.091  
G24  22589860.265                        3391.590          16.064    22589847.374    88647432.157        2525.330          27.467  
G30  23492831.551                       -2471.570          23.222    23492839.945    92190956.769       -1845.529          27.588  
R02  20566898.532   109749035.619       -2607.535          27.218  
R03  19275125.208   103181294.941        1371.116          33.014  
R14  22513035.150                        4170.144          24.412  
R20  24045476.163                        -868.417          21.771  
R21  24204004.616   129520544.063        2403.536          29.262  
> 2022  9 17 18 21  1.0000119  0 23
C07  39928716.225   207919309.620        -197.399          27.036  
C10  39163067.273                         204.315          17.963  
C21  22025806.152   114694125.431         456.848          34.710  
C22  23640934.122                       -2419.127          23.874  
C30  26721856.244   139147768.748        2581.945          27.733  
C36  23407160.460                       -1913.541          21.904  
E04                                                                                                                                  27647614.455                       -1691.314          21.177  
E05                                                                  24157652.805   126949319.015        1953.391          29.894    24157654.304                        1455.793          18.374  
E09                                                                  23808650.015   125115301.811        -650.609          35.219    23808655.111    93430288.668        -485.788          29.733  
E24                                                                  24555522.665   129040185.907        2472.995          19.007  
E31                                                                                                                                  23959902.205    94023717.788        -150.803          34.238  
G05  22411261.906   117771908.2711      -2704.680          29.006  
G13  20117904.165   105720379.642        -269.306          30.996  
G14  21568198.147   113341700.467       -1084.994          27.680  
G15  20312783.652   106744371.320        1614.302          30.190  
G17  24145646.417   126886200.777        2815.072          28.224  
G24  22589272.372                        3389.146          15.549    22589294.557    88645259.857        2525.235          27.543  
G30  23493388.266   123458621.9951      -2471.451          23.638    23493401.756    92193155.232       -1845.529          27.418  
R02  20567479.530   109752123.603       -2608.058          27.630  
R03  19274957.325   103180406.006        1370.379          33.008  
R14  22512345.627                        4170.198          24.459  
R20  24045726.490                        -870.714          21.927  
R21  24203637.970   129518622.455        2402.883          28.930  
> 2022  9 17 18 21  2.0000122  0 22
C07  39928846.335   207919975.879        -197.930          26.456  
C10  39163121.535                         197.789          18.590  
C21  22025804.953   114694137.890         455.871          34.607  
C22  23641487.539                       -2419.250          23.824  
C30  26721453.623   139145655.764        2581.314          27.676  
C36  23407612.547                       -1914.594          21.977  
E04                                                                                                                                  27648137.593                       -1695.343          20.995  
E05                                                                  24157371.000   126947838.760        1952.881          30.306    24157370.400                        1460.842          17.484  
E09                                                                  23808863.467   125116425.653        -651.215          35.117    23808868.863    93431127.946        -486.343          29.637  
E31                                                                                                                                  23960032.015    94024222.143        -151.419          34.464  
G05  22411868.986   117775086.378       -2705.481          29.019  
G13  20118048.665   105721122.445        -270.177          31.172  
G14  21568497.040   113343259.030       -1085.937          27.584  
G15  20312562.106   106743230.605        1613.341          30.382  
G17  24145199.726   126883859.069        2814.334          27.968  
G24  22588756.130                        3379.535          14.468    22588740.840    88643088.033        2524.759          27.967  
G30  23493955.173   123461566.585       -2471.964          23.895    23493962.069    92195354.090       -1845.923          27.860  
R02  20568059.329                       -2609.801          27.896  
R03  19274794.238   103179518.161        1369.288          33.058  
R14  22511651.908                        4167.104          24.034  
R20  24045957.930                        -874.893          22.077  
R21  24203289.911   129516701.898        2401.832          29.260  
> 2022  9 17 18 21  3.0000124  0 23
C07  39928947.065   207920486.378        -198.279          26.967  
C10  39163137.424                         200.551          18.428  
C21  22025779.770   114693994.981         455.129          34.605  
C22  23642016.073                       -2420.693          23.649  
C30  26721016.825   139143386.646        2581.337          27.888  
C36  23408050.244                       -1912.989          21.185  
E04                                                                                                                                  27648629.552                       -1698.981          20.609  
E05                                                                  24157061.015   126946201.541        1952.303          30.297    24157057.717                        1463.119          18.036  
E09                                                                  23809046.640   125117392.550        -651.814          35.108    23809054.135    93431850.035        -486.798          29.813  
E24                                                                  24554728.215   129036029.6791       2471.605          18.852    24554732.712                        1848.930          17.579  
E31                                                                                                                                  23960129.747    94024609.346        -151.913          34.551  
G05  22412444.288   117778107.479       -2706.017          28.995  
G13  20118158.389   105721708.366        -270.837          31.219  
G14  21568765.055   113344660.877       -1086.763          27.778  
G15  20312319.274   106741933.070        1612.619          30.168  
G17  24144726.953   126881360.197        2813.956          27.955  
G24  22588175.132                        3372.743          14.869    22588157.444    88640798.973        2524.350          27.602  
G30  23494482.508   123464353.920       -2472.251          23.652    23494492.701    92197435.560       -1846.180          27.547  
R02  20568610.947   109758142.4251      -2609.886          28.141  
R03  19274597.274   103178470.908        1368.215          33.094  
R14  22510929.708   119995942.2651       4169.024          24.917  
R20  24046218.150                        -878.509          21.166  
R21  24202906.177   129514621.887        2400.861          29.052  
> 2022  9 17 18 21  4.0000127  0 24
C07  39929073.278   207921153.476        -198.769          26.878  
C10  39163195.284                         200.839          17.193  
C21  22025784.267   114694009.155         454.155          34.481  
C22  23642571.588   123113065.6071      -2422.752          23.417  
C30  26720609.407   139141274.830        2580.146          27.721  
C36  23408505.029                       -1916.388          22.195  
E04                                                                                                                                  27649153.289                       -1697.829          21.617  
E05                                                                  24156779.210   126944722.454        1951.713          30.032    24156776.811                        1460.356          18.246  
E09                                                                  23809259.792   125118517.773        -652.597          34.946    23809267.287    93432690.246        -487.276          30.057  
E24                                                                  24554352.575   129034031.441        2470.864          18.376  
E31                                                                                                                                  23960258.059    94025114.839        -152.558          34.733  
G05  22413053.766   117781286.885       -2706.780          28.627  
G13  20118300.790   105722452.752        -271.760          31.286  
G14  21569061.549   113346221.270       -1087.767          27.908  
G15  20312103.723   106740794.124        1611.572          30.491  
G17  24144282.061   126879019.668        2813.155          27.445  
G20  24880952.175                       -3380.712          13.259  
G24  22587612.721                        3374.077          14.991    22587604.027    88638627.971        2523.937          27.345  
G30  23495035.625   123467299.308       -2472.762          23.150    23495052.414    92199635.077       -1846.582          27.584  
R02  20569150.573   109760928.251       -2610.901          28.380  
R03  19274425.793   103177585.306        1367.046          33.043  
R14  22510247.080   119992253.547        4168.137          24.993  
R20  24046447.491                        -870.248          21.103  
R21  24202547.925   129512703.362        2399.800          29.013  
> 2022  9 17 18 21  5.0000130  0 23
C07  39929200.390   207921821.055        -199.250          27.199  
C10  39163260.639                         196.339          17.806  
C21  22025784.866   114694024.205         453.280          34.760  
C22  23643128.603                       -2425.150          23.769  
C30  26720204.987   139139163.531        2579.628          27.969  
C36  23408962.213                       -1911.647          21.349  
E04                                                                                                                                  27649674.029                       -1694.830          22.171  
E05                                                                  24156497.705   126943243.957        1951.123          29.940    24156496.206                        1461.158          18.680  
E09                                                                  23809474.444   125119643.550        -653.151          35.209    23809483.438    93433530.944        -487.763          29.854  
E24                                                                  24553965.244   129032033.796        2470.271          18.231  
E31                                                                                                                                  23960386.969    94025620.856        -153.083          34.489  
G05  22413651.252   117784467.000       -2707.489          28.635  
G13  20118441.693   105723197.938        -272.560          31.136  
G14  21569359.243   113347782.520       -1088.624          28.235  
G15  20311883.676   106739655.953        1610.797          30.318  
G17  24143843.765   126876679.737        2812.558          27.827  
G24                                                                  22587050.610    88636457.455        2523.451          27.532  
G30  23495601.334   123470245.108       -2473.174          23.468    23495614.225    92201834.814       -1846.802          27.353  
R02  20569749.858   109764019.997       -2611.821          28.037  
R03  19274263.305   103176700.775        1365.975          33.138  
R14  22509559.057                        4167.277          24.652  
R20  24046684.027                        -871.670          21.383  
R21  24202192.671   129510785.835        2398.802          29.165  
> 2022  9 17 18 21  6.0000132  0 23
C07  39929298.422                        -200.074          27.143  
C10  39163264.236                         197.172          16.787  
C21  22025758.784   114693883.997         452.427          34.523  
C22  23643650.541   123118693.5221      -2424.026          23.457  
C30  26719772.686   139136896.690        2579.061          28.209  
C36  23409392.715                       -1912.615          21.162  
E04                                                                                                                                  27650165.089   108505132.8201      -1696.950          22.235  
E05                                                                  24156185.321   126941608.530        1950.512          30.106    24156182.923                        1453.972          17.192  
E09                                                                  23809658.516   125120612.550        -653.916          35.005    23809666.011    93434254.481        -488.248          30.003  
E24                                                                  24553548.232   129029879.365        2469.514          19.217  
E31                                                                                                                                  23960485.901    94026009.806        -153.659          34.402  
G05  22414226.854   117787490.262       -2708.178          28.953  
G13  20118553.515   105723786.353        -273.330          31.184  
G14  21569631.755   113349187.136       -1089.532          27.906  
G15  20311640.844   106738361.118        1609.919          30.181  
G17  24143365.296   126874182.839        2811.981          27.899  
G24                                                                  22586469.313                        2522.992          27.423  
G30  23496131.367                       -2474.463          22.656    23496144.258    92203917.414       -1847.309          27.041  
R02  20570307.772   109766952.472       -2612.525          28.364  
R03  19274074.736   103175656.840        1364.898          33.179  
R14  22508842.553                        4166.717          25.210  
R20  24046926.259                        -878.745          21.958  
R21  24201807.737   129508708.930        2397.754          29.348  
> 2022  9 17 18 21  7.0000135  0 23
C07  39929429.431   207923001.3231       -200.042          27.152  
C10  39163306.507                         198.965          18.277  
C21  22025762.682   114693900.669         451.658          34.770  
C22  23644203.958                       -2420.680          23.485  
C30  26719365.868   139134786.572        2578.448          28.281  
C36  23409840.605                       -1916.257          22.178  
E04                                                                                                                                  27650691.225   108507182.764       -1697.008          22.897  
E05                                                                  24155903.816   126940131.049        1950.107          29.936    24155907.413                        1451.501          18.336  
E09                                                                  23809871.969   125121739.607        -654.431          35.046    23809880.663    93435096.125        -488.708          29.666  
E24                                                                  24553179.787   129027883.079        2468.912          17.981  
E31                                                                                                                                  23960616.011    94026516.910        -154.169          34.390  
G05  22414833.933   117790671.631       -2708.744          28.759  
G13  20118697.715   105724533.034        -274.056          31.225  
G14  21569926.451   113350750.147       -1090.385          28.281  
G15  20311422.895   106737224.621        1609.124          29.970  
G17  24142918.905   126871843.949        2811.516          27.829  
G24                                                                  22585914.996    88631999.9241       2522.699          27.588  
G30  23496696.476                       -2472.451          22.470    23496703.371    92206117.844       -1847.495          26.946  
R02  20570876.479                       -2613.901          27.763  
R03  19273911.049   103174774.408        1363.875          33.213  
R14  22508129.946                        4166.039          24.576  
R20  24047176.286                        -881.015          21.110  
R21  24201445.288   129506793.372        2396.833          29.303  
> 2022  9 17 18 21  8.0000137  0 23
C07  39929527.164   207923513.492        -199.949          26.831  
C10  39163334.088                         198.290          18.267  
C21  22025737.199   114693761.570         451.319          34.694  
C22  23644732.193                       -2426.369          23.898  
C30  26718932.668   139132520.291        2578.500          28.281  
C36  23410268.708                       -1912.187          20.351  
E04                                                                                                                                  27651180.486   108509115.122       -1697.068          22.977  
E05                                                                  24155593.830   126938496.080        1950.052          29.933    24155598.027                        1453.089          18.593  
E09                                                                  23810057.540   125122709.151        -654.460          35.109    23810065.035    93435820.189        -488.775          29.547  
E24                                                                  24552760.378   129025729.239        2468.924          18.252  
E31                                                                                                                                  23960715.242    94026906.529        -154.329          34.729  
G05  22415411.933   117793695.567       -2708.852          28.890  
G13  20118807.739   105725122.361        -274.243          31.119  
G14  21570196.264   113352155.967       -1090.736          28.722  
G15  20311177.065   106735930.873        1608.832          29.979  
G17  24142443.434   126869347.716        2811.318          27.767  
G24                                                                  22585332.799    88629712.531        2522.684          27.708  
G30  23497224.110                       -2477.523          22.444    23497234.603    92208200.605       -1847.471          26.877  
R02  20571442.187   109772979.7331      -2613.846          27.570  
R03  19273712.287   103173732.042        1363.329          33.078  
R14  22507391.557                        4166.558          24.091  
R20  24047399.032                        -876.282          21.868  
R21  24201056.757   129504717.870        2396.352          29.581  
> 2022  9 17 18 21  9.0000140  0 21
C07  39929653.076   207924181.753        -199.932          27.211  
C10  39163376.659                         201.338          18.524  
C21  22025738.399   114693779.053         450.846          34.901  
C22  23645286.209   123127216.5181      -2424.902          23.844  
C30  26718527.948   139130410.334        2578.287          28.171  
C36  23410728.290                       -1909.751          21.337  
E04                                                                                                                                  27651703.624   108511165.104       -1697.047          23.457  
E05                                                                  24155312.625   126937018.823        1949.884          29.923    24155313.225                        1450.473          18.877  
E09                                                                  23810271.292   125123836.533        -654.756          35.222    23810279.387    93436662.028        -488.904          29.627  
G05  22416014.516   117796877.405       -2709.212          28.581  
G13  20118949.841   105725869.672        -274.685          31.120  
G14  21570493.658   113353719.757       -1091.165          28.586  
G15  20310961.514   106734795.134        1608.365          29.935  
G17  24141996.144                        2811.385          27.361  
G24                                                                  22584781.481    88627542.867        2522.598          27.603  
G30  23497775.728                       -2475.118          22.917    23497796.114    92210400.930       -1847.390          26.392  
R02  20572026.183   109776074.064       -2614.406          27.484  
R03  19273546.801   103172850.812        1362.673          32.973  
R14  22506713.726                        4166.355          24.448  
R20  24047655.654                        -875.128          21.797  
R21  24200698.205   129502803.276        2395.869          29.303  
> 2022  9 17 18 21 10.0000143  0 24
C07  39929782.287   207924850.102        -200.019          26.623  
C10  39163441.713                         193.330          17.627  
C21  22025742.296   114693796.887         450.496          34.413  
C22  23645843.523                       -2424.945          23.503  
C30  26718121.130   139128300.406        2578.257          28.158  
C36  23411187.572                       -1916.496          20.758  
E04                                                                                                                                  27652227.961   108513215.093       -1697.054          23.848  
E05                                                                  24155029.021   126935541.613        1949.835          29.960    24155030.820                        1450.056          18.455  
E09                                                                  23810485.644   125124964.087        -654.929          35.096    23810493.738    93437504.044        -489.081          29.543  
E24                                                                  24552011.796   129021737.4831       2468.423          18.083    24552015.993                        1834.005          17.390  
G05  22416618.598   117800059.421       -2709.390          28.690  
G13  20119090.144   105726617.298        -275.000          31.041  
G14  21570788.354   113355284.027       -1091.643          28.355  
G15  20310744.464   106733659.736        1608.024          29.320  
G17  24141547.055   126864671.0191       2811.107          27.148  
G19  25639600.674                        3658.716          10.424  
G24                                                                  22584226.865    88625373.314        2522.488          27.581  
G30  23498340.837                       -2472.913          22.814    23498355.827    92212601.277       -1847.412          26.240  
R02  20572602.384                       -2615.134          27.644  
R03  19273384.014   103171970.163        1362.093          33.008  
R04  22256265.308                        4313.568          14.482  
R14  22506028.101                        4165.863          24.764  
R20  24047904.782                        -880.796          22.091  
R21  24200338.155   129500889.349        2395.203          29.481  
> 2022  9 17 18 21 11.0000145  0 24
C07  39929880.319   207925362.081        -199.760          26.894  
C10  39163461.500                         193.320          17.835  
C21  22025718.313   114693658.880         450.226          34.608  
C22  23646368.760   123132847.2551      -2425.163          23.599  
C30  26717687.930   139126034.426        2578.200          28.369  
C36  23411613.277                       -1917.447          21.363  
E04                                                                                                                                  27652721.719   108515147.254       -1696.872          24.397  
E05                                                                  24154718.736   126933906.863        1949.834          30.193    24154721.135                        1454.309          18.723  
E09                                                                  23810668.217   125125934.075        -654.903          35.000    23810678.410    93438228.400        -489.066          29.753  
G05  22417195.998   117803083.899       -2709.395          28.770  
G13  20119203.465   105727207.585        -275.203          31.203  
G14  21571057.867   113356691.011       -1091.900          28.795  
G15  20310496.236   106732367.084        1607.736          29.463  
G17  24141070.685   126862174.952        2811.151          27.030  
G18  25172176.265                       -1803.997          15.237  
G19  25638984.001                        3650.718          10.726  
G24                                                                  22583643.469    88623085.985        2522.619          27.464  
G30  23498872.369   123487451.6171      -2473.701          23.341    23498886.459                       -1847.225          26.159  
R02  20573154.601   109782103.6201      -2614.948          27.555  
R03  19273192.447   103170929.513        1361.612          32.683  
R04  22255509.531                        4314.782          14.902  
R14  22505299.006                        4168.356          24.590  
R20  24048111.339                        -879.434          21.695  
R21  24199954.120   129498815.347        2394.852          29.305  
> 2022  9 17 18 21 12.0000148  0 24
C07  39930007.731   207926030.775        -200.365          27.103  
C10  39163515.762                         197.730          17.952  
C21  22025719.512   114693677.923         449.287          34.564  
C22  23646924.875   123135741.379       -2425.794          23.937  
C30  26717280.212   139123925.179        2577.577          28.430  
C36  23412068.362                       -1911.277          21.047  
E04                                                                                                                                  27653239.161   108517197.430       -1697.240          23.853  
E05                                                                  24154438.430   126932430.276        1949.213          29.945    24154438.730                        1450.332          19.105  
E09                                                                  23810883.468   125127062.406        -655.706          34.960    23810894.261    93439070.976        -489.641          29.781  
G05  22417801.579   117806266.749       -2710.223          28.826  
G13  20119343.169   105727956.252        -276.041          30.875  
G14  21571356.161   113358256.533       -1092.896          29.159  
G15  20310278.587   106731232.989        1606.721          29.291  
G17  24140627.891   126859837.087        2810.491          26.703  
G18  25172638.545                       -1801.916          13.890  
G19  25638370.326                        3654.706          11.032  
G24                                                                  22583091.851    88620916.800        2522.120          27.510  
G30  23499437.478                       -2473.035          22.581    23499447.371    92216884.5321      -1847.740          26.314  
R02  20573731.702                       -2616.661          27.125  
R03  19273026.961   103170050.499        1360.458          32.589  
R04  22254807.417                        4313.907          15.070  
R14  22504631.368                        4166.973          23.694  
R20  24048374.257                        -882.419          21.732  
R21  24199595.868   129496902.810        2393.812          29.371  
> 2022  9 17 18 21 13.0000151  0 23
C07  39930136.042   207926699.475        -200.370          27.043  
C10  39163569.425                         201.425          18.374  
C21  22025724.908   114693697.470         448.782          34.733  
C22  23647482.788                       -2426.354          23.779  
C30  26716875.792   139121816.075        2577.433          28.509  
C36  23412530.642                       -1913.744          20.593  
E04                                                                                                                                  27653763.498   108519247.704       -1697.339          23.954  
E05                                                                  24154156.625   126930953.850        1949.052          29.917    24154158.124                        1458.355          18.389  
E09                                                                  23811098.420   125128190.975        -655.942          34.995    23811107.713    93439913.730        -489.820          29.427  
G05  22418412.856   117809449.861       -2710.487          28.787  
G13  20119486.170   105728705.306        -276.428          30.735  
G14  21571654.155   113359822.567       -1093.407          29.192  
G15  20310065.434   106730099.199        1606.416          29.037  
G17  24140186.597   126857498.965        2810.748          26.053  
G19  25637767.743                        3646.015          11.909  
G24                                                                  22582537.535    88618747.776        2521.959          27.719  
G30  23500002.887                       -2479.006          22.331    23500009.182    92219085.134       -1847.667          26.486  
R02  20574305.804   109788295.8621      -2616.415          27.128  
R03  19272859.977   103169172.233        1359.710          32.466  
R04  22254096.310                        4314.222          15.562  
R14  22503927.455                        4165.752          23.532  
R20  24048638.074                        -881.953          21.861  
R21  24199232.820   129494990.986        2393.099          29.197  
> 2022  9 17 18 21 14.0000153  0 23
C07  39930236.473   207927212.453        -200.758          26.659  
C10  39163587.712                         197.685          18.087  
C21  22025697.327   114693561.647         448.043          34.625  
C22  23648008.924                       -2423.520          23.515  
C30  26716442.592   139119551.455        2576.839          28.564  
C36  23412969.239                       -1920.840          20.014  
E04                                                                                                                                  27654257.856   108521180.785       -1697.791          23.851  
E05                                                                  24153846.340   126929320.399        1948.535          29.700  
E09                                                                  23811284.591   125129162.556        -656.498          34.982    23811294.184    93440639.278        -490.258          29.574  
G05  22418985.160   117812476.068       -2711.123          28.645  
G13  20119601.290   105729297.615        -277.225          30.851  
G14  21571923.068   113361231.915       -1094.264          29.076  
G15  20309819.005   106728808.780        1605.503          29.470  
G17  24139709.627   126855004.405        2809.644          25.648  
G19  25637135.780                        3657.898          11.970  
G24                                                                  22581955.338    88616461.462        2521.604          27.584  
G30  23500526.024   123496135.2081      -2474.653          23.180    23500540.115    92221168.374       -1847.950          26.003  
R02  20574861.919                       -2618.207          27.310  
R03  19272668.110   103168134.458        1358.738          32.157  
R04  22253383.103                        4313.127          16.057  
R14  22503197.461                        4165.706          23.105  
R20  24048880.606                        -883.629          21.808  
R21  24198839.792   129492919.632        2392.204          28.571  
> 2022  9 17 18 21 15.0000156  0 24
C07  39930368.681   207927881.966        -201.184          27.010  
C10  39163632.981                         191.028          18.222  
C21  22025704.522   114693582.893         447.083          34.611  
C22  23648565.938   123144270.1401      -2427.233          23.762  
C30  26716034.874   139117443.548        2576.237          28.652  
C36  23413427.621                       -1924.002          18.706  
E04                                                                                                                                  27654777.696   108523231.602       -1697.883          23.243  
E05                                                                  24153565.734   126927845.116        1947.909          29.748  
E09                                                                  23811497.443   125130292.355        -657.173          34.878    23811508.236    93441482.964        -490.751          29.453  
E24                                                                                                                                  24550057.149                        1840.084          17.061  
G05  22419591.939   117815660.496       -2711.802          28.607  
G13  20119738.895   105730048.226        -277.985          30.501  
G14  21572221.062   113362799.672       -1095.131          28.992  
G15  20309604.653   106727676.780        1604.626          29.180  
G17  24139263.236                        2808.429          25.268  
G19  25636508.315                        3654.823          11.941  
G24                                                                  22581403.420    88614293.222        2521.175          27.274  
G30  23501092.932                       -2471.776          22.767    23501099.527                       -1849.241          25.792  
R02  20575439.020   109794331.4741      -2618.347          27.068  
R03  19272502.024   103167258.353        1357.550          32.339  
R04  22252698.377                        4309.144          16.162  
R14  22502484.854                        4161.967          22.620  
R20  24049127.036                        -886.152          21.607  
R21  24198490.534   129491009.776        2391.131          28.859  
> 2022  9 17 18 21 16.0000158  0 23
C07  39930464.914   207928395.750        -201.564          26.942  
C10  39163672.853                         194.834          18.362  
C21  22025673.344   114693448.776         446.337          34.637  
C22  23649091.175                       -2428.542          23.381  
C30  26715601.674   139115179.945        2575.823          28.816  
C36  23413852.727                       -1916.017          19.143  
E04                                                                                                                                  27655272.953   108525165.178       -1698.285          23.762  
E05                                                                  24153253.351   126926212.617        1947.583          29.612    24153260.546                        1454.407          17.195  
E09                                                                  23811683.914   125131265.201        -657.762          35.033    23811693.807    93442209.434        -491.179          29.315  
E24                                                                  24549633.542   129009299.3961       2465.307          19.563  
G05  22420169.340   117818688.032       -2712.452          28.465  
G13  20119853.415   105730641.997        -278.687          31.030  
G14  21572490.276   113364210.717       -1095.961          28.847  
G15  20309360.322   106726387.972        1603.892          29.276  
G17  24138791.362   126850174.8241       2808.651          25.493  
G24  22580831.116                        3378.900          16.378    22580821.523    88612007.686        2520.826          27.823  
G30  23501611.873                       -2475.211          23.068    23501631.059    92225453.5651      -1848.510          25.900  
R02  20575971.751   109797270.542       -2619.118          26.712  
R03  19272307.759   103166222.645        1356.670          32.240  
R04  22251949.496                        4311.577          16.709  
R14  22501793.532                        4162.669          22.602  
R20  24049337.790                        -885.061          21.603  
R21  24198097.506   129488940.356        2390.270          28.969  
> 2022  9 17 18 21 17.0000161  0 23
C07  39930594.125   207929066.001        -201.922          26.474  
C10  39163718.422                         197.697          17.606  
C21  22025678.140   114693471.526         445.579          34.375  
C22  23649647.889                       -2429.128          23.794  
C30  26715196.954   139113072.993        2575.281          28.809  
C36  23414312.609                       -1912.761          19.552  
E04                                                                                                                                  27655793.093   108527216.728       -1698.615          23.502  
E05                                                                  24152972.145   126924738.269        1946.973          29.496    24152973.045                        1455.525          18.588  
E09                                                                  23811900.364   125132396.152        -658.325          34.786    23811907.859    93443053.968        -491.600          29.236  
E24                                                                  24549259.401   129007307.101        2464.921          19.026  
G05  22420770.124   117821873.575       -2712.916          28.341  
G13  20119997.316   105731394.019        -279.397          30.713  
G14  21572784.972   113365780.139       -1096.796          28.850  
G15  20309141.774   106725257.449        1603.148          29.028  
G17  24138348.569   126847839.309        2808.141          25.193  
G24  22580293.888                        3371.938          16.593    22580269.005    88609840.178        2520.443          27.424  
G30  23502176.382                       -2476.362          23.464    23502191.371    92227655.323       -1848.823          25.872  
R02  20576570.437   109800370.353       -2619.887          26.958  
R03  19272145.271   103165348.546        1355.543          32.258  
R04  22251188.623                        4312.238          18.288  
R14  22501098.913                        4161.641          22.661  
R20  24049596.211                        -885.508          20.900  
R21  24197737.455   129487032.350        2389.281          28.926  
> 2022  9 17 18 21 18.0000164  0 23
C07  39930720.038   207929736.659        -202.329          26.689  
C10  39163772.085                         201.337          17.775  
C21  22025684.136   114693495.163         444.692          34.139  
C22  23650199.208   123152804.2431      -2428.938          23.966  
C30  26714791.635   139110966.569        2574.753          28.102  
C36  23414765.595                       -1913.439          18.894  
E04                                                                                                                                  27656315.931   108529268.377       -1698.714          22.951  
E05                                                                  24152692.439   126923264.398        1946.498          29.646    24152692.139                        1458.497          18.678  
E09                                                                  23812116.515   125133527.593        -658.815          34.689    23812123.410    93443898.905        -492.002          29.573  
E24                                                                  24548881.063   129005315.580        2464.147          20.176  
G05  22421378.703   117825059.864       -2713.663          28.164  
G13  20120145.713   105732146.759        -280.114          30.459  
G14  21573083.265   113367350.386       -1097.622          28.882  
G15  20308928.022   106724127.784        1602.291          29.284  
G17  24137901.279   126845504.541        2807.393          25.115  
G24  22579717.987                        3370.476          15.952    22579717.087    88607673.001        2520.112          27.075  
G30  23502740.891   123507771.0001      -2476.283          23.432    23502754.082    92229857.487       -1849.229          25.084  
R02  20577132.548   109803470.905       -2620.627          27.118  
R03  19271985.482   103164475.403        1354.587          31.992  
R04  22250501.199                        4315.749          18.993  
R14  22500426.479                        4155.689          22.162  
R20  24049847.737                        -888.592          21.845  
R21  24197386.698   129485125.281        2388.344          28.957  
> 2022  9 17 18 21 19.0000166  0 22
C07  39930819.869   207930251.431        -202.552          26.852  
C10  39163788.573                         196.899          17.478  
C21  22025658.354   114693363.245         444.138          34.262  
C22  23650720.847                       -2426.998          23.407  
C30  26714356.936   139108704.335        2574.454          27.826  
C36  23415185.005                       -1917.573          19.921  
E04                                                                                                                                  27656808.190   108531202.658       -1698.991          22.817  
E05                                                                  24152384.252   126921633.282        1946.200          29.772    24152386.051                        1453.189          17.944  
E09                                                                  23812303.585   125134502.025        -659.348          34.975    23812308.982    93444626.520        -492.324          29.383  
G05  22421952.205   117828089.016       -2714.069          28.278  
G13  20120256.636   105732742.552        -280.708          30.602  
G14  21573356.076   113368763.754       -1098.283          28.942  
G15  20308684.590   106722841.148        1601.720          29.101  
G17  24137423.709                        2806.650          25.409  
G24  22579157.075                        3369.574          16.586    22579134.890    88605388.487        2519.804          27.042  
G30  23503271.823                       -2476.297          23.286    23503284.115    92231942.011       -1849.234          24.880  
R02  20577688.063   109806412.323       -2621.467          26.803  
R03  19271781.623   103163442.587        1353.778          32.123  
R04  22249764.608                        4312.982          19.361  
R14  22499697.084                        4162.546          20.863  
R20  24050069.883                        -890.043          21.784  
R21  24197008.060   129483058.529        2387.602          28.897  
> 2022  9 17 18 21 20.0000169  0 22
C07  39930949.379   207930922.357        -202.596          26.936  
C10  39163839.538                         191.949          17.690  
C21  22025662.551   114693387.998         443.576          34.119  
C22  23651282.658                       -2429.091          24.035  
C30  26713954.014   139106598.514        2574.151          28.272  
C36  23415652.081                       -1917.898          20.117  
E04                                                                                                                                  27657330.728   108533254.563       -1698.970          23.306  
E05                                                                  24152102.148   126920159.928        1945.979          29.577    24152106.644                        1454.560          18.022  
E09                                                                  23812517.337   125135634.216        -659.565          34.802    23812524.832    93445472.020        -492.565          29.725  
G05  22422563.482   117831276.064       -2714.421          28.633  
G13  20120399.637   105733496.300        -281.122          30.617  
G14  21573655.869   113370335.284       -1098.904          29.328  
G15  20308472.937   106721712.594        1601.180          29.179  
G17  24136980.016   126840677.6211       2806.955          24.924  
G24  22578595.564                        3376.212          16.441    22578581.174    88603221.725        2519.696          27.610  
G30  23503844.727                       -2479.283          22.925    23503846.526    92234144.306       -1849.360          24.724  
R02  20578266.962   109809514.155       -2621.908          26.981  
R03  19271620.335   103162571.119        1352.912          32.004  
R04  22249011.230                        4312.434          18.451  
R14  22498993.471                        4161.680          20.771  
R20  24050340.596                        -887.897          21.898  
R21  24196656.104   129481152.954        2386.850          29.321  
> 2022  9 17 18 21 21.0000172  0 23
C07  39931075.891   207931592.775        -202.088          26.569  
C10  39163896.798                         194.640          18.368  
C21  22025667.048   114693412.653         443.675          33.823  
C22  23651843.869   123161341.4121      -2429.336          24.287  
C30  26713551.393   139104492.258        2574.585          28.114  
C36  23416114.661                       -1917.880          19.432  
E04                                                                                                                                  27657853.566   108535306.251       -1698.753          22.786  
E05                                                                  24151821.542   126918686.242        1946.312          29.526  
E09                                                                  23812732.588   125136766.135        -659.293          34.994    23812739.483    93446317.289        -492.334          29.494  
E24                                                                                                                                  24547721.166                        1841.505          17.074  
G05  22423168.463   117834462.870       -2714.180          28.239  
G13  20120543.538   105734249.957        -281.031          30.906  
G14  21573954.462   113371906.645       -1098.735          29.263  
G15  20308259.784   106720584.024        1601.196          29.104  
G17  24136535.424   126838342.906        2807.340          24.577  
G24  22578038.249                        3377.614          14.166    22578031.654    88601054.697        2519.963          27.287  
G30  23504402.341                       -2475.761          23.527    23504405.339    92236346.290       -1849.049          24.720  
R02  20578862.950   109812616.057       -2621.977          27.053  
R03  19271459.946   103161699.702        1352.860          31.884  
R04  22248270.743                        4312.705          19.034  
R14  22498298.552                        4165.388          21.468  
R20  24050602.314                        -884.731          21.588  
R21  24196292.455   129479247.263        2386.966          29.003  
> 2022  9 17 18 21 22.0000174  0 23
C07  39931176.622   207932107.130        -202.136          26.925  
C10  39163927.077                         197.540          18.045  
C21  22025641.266   114693281.620         443.252          34.217  
C22  23652363.709                       -2429.878          24.882  
C30  26713113.097   139102230.115        2574.363          27.916  
C36  23416546.362                       -1918.716          19.976  
E04                                                                                                                                  27658346.725   108537240.156       -1698.615          22.614  
E05                                                                  24151512.456   126917055.102        1946.224          29.030  
E09                                                                  23812919.359   125137740.721        -659.502          34.904    23812925.355    93447045.034        -492.456          29.488  
E24                                                                  24547311.950                        2463.393          20.538    24547315.547                        1832.752          17.548  
G05  22423744.365   117837492.307       -2714.354          27.958  
G13  20120656.559   105734846.383        -281.342          30.842  
G14  21574221.877   113373320.962       -1099.233          29.187  
G15  20308011.856   106719298.282        1600.826          29.198  
G17  24136059.953   126835850.909        2807.081          24.998  
G24                                                                  22577447.059    88598770.039        2519.948          27.229  
G30  23504929.076   123519251.5871      -2476.158          23.487    23504936.871    92238430.569       -1848.989          24.856  
R02  20579411.570   109815558.339       -2622.332          27.245  
R03  19271270.177   103160668.411        1352.254          31.850  
R04  22247526.658                        4310.648          19.660  
R14  22497618.023                        4162.076          20.451  
R20  24050832.255                        -890.778          21.935  
R21  24195909.321   129477181.904        2386.210          29.180  
> 2022  9 17 18 21 23.0000177  0 23
C07  39931304.033   207932777.200        -201.741          26.696  
C10  39163970.248                         201.176          18.130  
C21  22025646.362   114693306.709         443.241          34.067  
C22  23652924.621   123166980.8141      -2429.312          24.701  
C30  26712708.077   139100123.763        2574.680          27.400  
C36  23416996.950                       -1920.089          19.878  
E04                                                                                                                                  27658869.263   108539291.449       -1698.358          22.784  
E05                                                                  24151233.349   126915581.200        1946.528          29.318    24151233.649                        1454.858          19.233  
E09                                                                  23813134.610   125138872.635        -659.289          35.004    23813140.606    93447890.299        -492.330          29.477  
E24                                                                  24546930.614   128995045.4211       2463.689          19.983  
G05  22424355.042   117840679.138       -2714.205          27.908  
G13  20120799.261   105735600.308        -281.299          30.665  
G14  21574522.269   113374892.857       -1099.269          29.110  
G15  20307797.205   106718169.981        1600.927          29.293  
G17  24135622.856                        2807.608          24.443  
G24                                                                  22576896.640    88596602.933        2520.041          27.419  
G30  23505483.093                       -2474.738          22.719    23505498.082                       -1849.040          24.679  
R02  20579996.165   109818660.618       -2622.354          27.417  
R03  19271112.486   103159797.843        1352.012          31.737  
R04  22246851.525                        4301.494          19.516  
R14  22496915.010                        4156.784          20.622  
R20  24051090.077                        -892.092          21.763  
R21  24195549.869   129475276.998        2386.180          28.884  
> 2022  9 17 18 21 24.0000179  0 23
C07  39931401.466   207933291.028        -201.609          26.986  
C21  22025620.280   114693176.017         442.911          34.228  
C22  23653451.356   123169722.486       -2429.453          25.297  
C30  26712274.277   139097861.355        2574.628          27.501  
C36  23417430.150                       -1920.838          18.364  
E04                                                                                                                                  27659361.223   108541225.053       -1698.314          22.100  
E05                                                                  24150922.164   126913949.773        1946.511          29.505    24150919.466                        1455.708          20.155  
E09                                                                  23813320.181   125139847.059        -659.340          34.942    23813327.077    93448617.948        -492.359          29.863  
E24                                                                  24546520.198   128992896.898        2463.607          20.072  
G05  22424928.545                       -2714.715          27.958  
G13  20120911.982   105736196.928        -281.536          30.631  
G14  21574788.785   113376307.637       -1099.696          29.202  
G15  20307551.375   106716884.580        1600.486          29.377  
G17  24135152.182   126831024.4261       2807.230          24.449  
G18  25177655.572                       -1811.302          12.713  
G24                                                                  22576313.843    88594318.086        2520.137          27.276  
G30  23506017.623   123524990.2911      -2475.455          23.155    23506031.713    92242716.1131      -1848.634          24.663  
R02  20580564.871                       -2623.203          26.932  
R03  19270919.420   103158767.270        1351.535          31.799  
R04  22246087.054                        4307.056          19.409  
R14  22496133.151                        4162.180          20.837  
R20  24051334.108                        -890.781          21.592  
R21  24195164.936   129473212.114        2385.734          29.030  
> 2022  9 17 18 21 25.0000182  0 23
C07  39931531.876   207933961.479        -202.121          26.770  
C10  39164056.288                         196.067          19.169  
C21  22025623.278   114693202.386         441.960          34.337  
C22  23654007.471   123172620.854       -2430.038          25.472  
C30  26711871.056   139095755.627        2574.057          27.913  
C36  23417893.929                       -1916.322          18.923  
E04                                                                                                                                  27659883.761   108543276.754       -1698.766          22.654  
E05                                                                  24150641.859   126912476.587        1945.812          29.632    24150641.259                        1453.468          19.419  
E09                                                                  23813536.332   125140979.764        -660.079          34.774    23813542.627    93449463.822        -492.939          29.546  
E24                                                                  24546147.256                        2462.573          21.457  
G05  22425532.927   117846896.3231      -2715.110          27.913  
G13  20121057.981   105736951.978        -282.424          30.622  
G14  21575091.275   113377880.847       -1100.584          28.930  
G15  20307339.122   106715757.635        1599.570          29.407  
G17  24134701.594                        2805.645          24.601  
G24                                                                  22575760.426    88592151.378        2519.643          27.370  
G30  23506582.731   123527938.913       -2475.996          23.672    23506590.226    92244917.978       -1848.930          24.783  
R02  20581142.871   109824706.8701      -2623.654          27.111  
R03  19270748.838   103157898.464        1350.249          31.723  
R04  22245381.643                        4314.660          19.766  
R14  22495471.509                        4163.122          20.363  
R20  24051573.642                        -893.071          21.980  
R21  24194795.592   129471308.791        2384.599          28.777  
> 2022  9 17 18 21 26.0000185  0 23
C07  39931662.885   207934632.552        -202.744          26.825  
C10  39164103.955                         193.836          18.827  
C21  22025634.371   114693229.783         440.932          33.951  
C22  23654566.285   123175520.140       -2430.956          25.490  
C30  26711469.934   139093650.691        2573.266          27.719  
C36  23418354.411                       -1917.158          17.788  
E04                                                                                                                                  27660408.398   108545328.716       -1699.027          22.189  
E05                                                                  24150358.255   126911004.070        1945.143          29.488    24150364.251                        1447.788          18.524  
E09                                                                  23813751.883   125142113.270        -660.880          34.837    23813757.279    93450310.298        -493.541          29.374  
E24                                                                  24545774.014                        2461.547          21.475  
G05  22426140.606                       -2716.383          27.528  
G13  20121200.683   105737707.916        -283.312          30.365  
G14  21575389.868   113379455.117       -1101.644          29.039  
G15  20307121.772   106714631.692        1598.569          29.123  
G17  24134258.501                        2805.130          24.162  
G24                                                                  22575210.007    88589985.239        2519.074          27.201  
G30  23507143.044                       -2474.110          22.803    23507153.236                       -1849.900          24.228  
R02  20581722.670                       -2625.451          26.920  
R03  19270584.852   103157030.819        1349.089          31.472  
R04  22244674.432                        4314.534          20.449  
R14  22494801.773                        4163.469          21.687  
R20  24051849.751                        -894.696          22.543  
R21  24194447.832   129469406.638        2383.427          28.935  
> 2022  9 17 18 21 27.0000187  0 23
C07  39931762.116   207935148.006        -203.234          26.489  
C10  39164132.136                         194.555          18.678  
C21  22025606.490   114693101.941         440.062          34.064  
C22  23655089.422   123178263.952       -2431.592          25.146  
C30  26711034.036   139091390.282        2572.628          27.439  
C36  23418767.824                       -1924.329          16.825  
E04                                                                                                                                  27660901.257   108547263.549       -1699.544          22.725  
E05                                                                  24150048.869   126909374.631        1944.523          29.461    24150052.766                        1448.301          18.289  
E09                                                                  23813936.855   125143089.940        -661.587          34.728    23813942.850    93451039.607        -494.019          29.607  
E24                                                                  24545360.600                        2460.950          21.808    24545359.401                        1837.439          18.265  
G05  22426719.805   117853116.6571      -2716.662          27.651  
G13  20121317.302   105738307.200        -284.200          30.566  
G14  21575660.581   113380872.817       -1102.616          29.111  
G15  20306876.242   106713349.085        1597.691          29.262  
G17  24133779.432                        2805.337          23.346  
G24                                                                  22574629.309                        2518.787          27.166  
G30  23507680.571   123533680.4291      -2477.088          23.812    23507682.670    92249205.3541      -1849.704          24.419  
R02  20582274.288   109830757.0981      -2625.542          26.738  
R03  19270394.783   103156003.931        1347.851          31.335  
R04  22243921.953                        4308.377          20.773  
R14  22494069.979                        4161.120          21.878  
R20  24052080.591                        -896.843          22.108  
R21  24194064.698   129467345.130        2382.358          29.009  
> 2022  9 17 18 21 28.0000190  0 23
C07  39931888.029   207935819.675        -203.339          26.748  
C10  39164173.207                         189.324          17.937  
C21  22025612.786   114693130.747         439.524          34.128  
C22  23655651.233   123181164.145       -2431.864          25.810  
C30  26710628.417   139089286.290        2572.322          27.501  
C36  23419228.905                       -1924.184          17.642  
E04                                                                                                                                  27661424.994   108549316.197       -1699.712          21.811  
E05                                                                  24149769.163   126907902.906        1944.351          29.577    24149772.161                        1453.510          18.456  
E09                                                                  23814152.106   125144224.457        -661.891          34.878    23814159.001    93451886.805        -494.263          29.294  
E24                                                                  24544985.260   128984782.8051       2460.993          22.017    24544979.864                        1830.415          17.274  
G05  22427325.386   117856306.271       -2716.988          27.751  
G13  20121460.303   105739064.406        -284.580          30.570  
G14  21575960.373   113382448.616       -1103.173          29.099  
G15  20306663.090   106712224.559        1597.151          29.367  
G17  24133343.234                        2805.216          23.280  
G24                                                                  22574075.892    88585536.3321       2518.447          27.058  
G30  23508240.883   123536630.193       -2477.139          23.836    23508245.680    92251408.205       -1849.916          24.405  
R02  20582851.688   109833863.320       -2626.297          25.946  
R03  19270234.394   103155138.176        1347.199          31.404  
R04  22243212.045                        4306.847          21.129  
R14  22493382.255                        4156.049          21.496  
R20  24052332.417                        -895.735          21.695  
R21  24193709.743   129465444.685        2381.720          28.794  
> 2022  9 17 18 21 29.0000192  0 23
C07  39931985.462   207936335.235        -203.341          26.679  
C10  39164198.390                         188.628          18.293  
C21  22025587.303   114693003.907         439.060          33.998  
C22  23656180.667   123183908.482       -2432.117          25.431  
C30  26710192.818   139087026.284        2572.226          27.038  
C36  23419657.309                       -1923.967          17.064  
E04                                                                                                                                  27661916.953   108551250.943       -1699.456          21.782  
E05                                                                  24149459.477   126906273.811        1944.179          29.480    24149460.077                        1456.708          19.226  
E09                                                                  23814340.075   125145201.703        -662.162          34.805    23814344.872    93452616.501        -494.406          29.740  
E24                                                                  24544579.042                        2460.774          22.242  
G05  22427904.585   117859338.580       -2717.225          27.961  
G13  20121569.727   105739664.506        -285.017          30.476  
G14  21576226.289   113383867.349       -1103.649          29.169  
G15  20306420.558   106710942.979        1596.664          29.184  
G17  24132864.466   126819044.6741       2804.735          23.011  
G24                                                                  22573493.695    88583253.181        2518.442          27.222  
G30  23508767.319   123539422.474       -2477.196          23.797    23508776.313    92253493.263       -1849.768          24.158  
R02  20583401.208   109836810.035       -2626.765          26.077  
R03  19270047.024   103154112.614        1346.524          31.184  
R04  22242485.048                        4305.597          21.272  
R14  22492653.160                        4159.958          22.091  
R20  24052559.060                        -896.536          21.441  
R21  24193319.713   129463384.445        2381.090          29.158  
> 2022  9 17 18 21 30.0000195  0 23
C07  39932115.272   207937006.785        -203.220          26.804  
C10  39164244.258                         193.511          19.009  
C21  22025590.301   114693033.448         438.788          34.105  
C22  23656732.585   123186808.955       -2432.143          25.529  
C30  26709790.797   139084922.285        2572.329          26.944  
C36  23420117.790                       -1916.695          17.227  
E04                                                                                                                                  27662439.492   108553303.433       -1699.556          22.524  
E05                                                                  24149179.171   126904802.208        1944.229          29.622    24149179.171                        1452.007          18.504  
E09                                                                  23814554.427   125146336.431        -662.102          35.001    23814560.423    93453463.937        -494.501          29.430  
E24                                                                  24544198.605                        2460.613          21.881  
G05  22428511.664   117862528.541       -2717.334          27.738  
G13  20121718.424   105740422.314        -285.181          30.359  
G14  21576529.679   113385443.883       -1103.907          29.241  
G15  20306206.506   106709819.187        1596.418          29.083  
G17  24132421.372                        2807.562          22.764  
G24                                                                  22572940.878    88581087.771        2518.345          27.021  
G30  23509326.432                       -2476.913          23.596    23509335.426                       -1850.020          24.007  
R02  20583989.700   109839916.940       -2626.980          25.709  
R03  19269887.534   103153248.082        1345.975          31.133  
R04  22241774.540                        4307.621          21.326  
R14  22491957.342                        4160.442          22.524  
R20  24052784.504                        -896.799          21.087  
R21  24192969.855   129461485.056        2380.664          29.289  
> 2022  9 17 18 21 31.0000198  0 23
C07  39932248.080   207937677.696        -202.582          26.427  
C10  39164309.013                         196.279          19.607  
C21  22025599.595   114693062.845         438.932          34.033  
C22  23657287.800   123189709.083       -2431.799          25.819  
C30  26709386.976   139082817.877        2572.738          27.181  
C36  23420580.669                       -1919.500          15.493  
E04                                                                                                                                  27662963.529   108555355.438       -1699.069          22.523  
E05                                                                  24148897.666   126903330.168        1944.665          29.234    24148900.964                        1454.511          18.508  
E09                                                                  23814771.777   125147470.868        -661.811          34.816    23814777.473    93454311.031        -494.159          29.345  
E24                                                                  24543821.766   128978660.9471       2460.977          22.258  
G05  22429116.346   117865718.181       -2717.015          27.545  
G13  20121861.725   105741179.928        -284.989          30.615  
G14  21576831.870   113387020.307       -1103.798          29.195  
G15  20305996.051   106708695.129        1596.685          28.893  
G17  24131975.281                        2810.818          22.673  
G24                                                                  22572390.159                        2518.782          27.005  
G30  23509891.241                       -2476.350          23.852    23509899.335    92257898.3231      -1849.318          24.047  
R02  20584583.589                       -2625.660          25.458  
R03  19269725.047   103152383.508        1346.018          31.114  
R04  22241038.549                        4307.934          22.657  
R14  22491297.799                        4157.332          23.246  
R20  24053016.843                        -895.799          21.302  
R21  24192618.799   129459585.519        2380.813          29.237  
> 2022  9 17 18 21 32.0000200  0 22
C07  39932347.011   207938192.751        -202.835          26.483  
C10  39164322.504                         196.388          18.563  
C21  22025577.110   114692936.709         438.356          34.072  
C22  23657819.033   123192453.402       -2432.099          25.803  
C30  26708952.577   139080557.822        2572.275          27.346  
C36  23421024.362                       -1921.476          15.712  
E04                                                                                                                                  27663457.287   108557289.809       -1699.081          22.750  
E05                                                                  24148587.081   126901700.916        1944.337          29.547    24148591.278                        1452.372          17.839  
E09                                                                  23814955.849   125148448.146        -662.194          34.927    23814963.344    93455040.794        -494.474          29.535  
G05  22429693.147   117868750.679       -2717.414          27.522  
G13  20121978.044   105741780.533        -285.520          30.421  
G14  21577102.583   113388439.878       -1104.487          29.137  
G15  20305750.521   106707414.240        1595.973          29.102  
G17  24131503.408                        2805.359          22.319  
G24                                                                  22571808.862    88576638.6611       2518.555          27.353  
G30  23510416.777                       -2473.274          23.627    23510430.867                       -1850.575          24.104  
R02  20585132.809   109845971.2731      -2627.570          24.935  
R03  19269528.983   103151359.285        1345.186          31.017  
R04  22240322.045                        4305.722          23.163  
R14  22490569.003                        4157.553          24.067  
R20  24053244.685                        -897.746          21.920  
R21  24192232.966   129457526.384        2379.985          29.526  
> 2022  9 17 18 21 33.0000203  0 23
C07  39932473.824   207938864.125        -203.045          26.257  
C10  39164380.663                         192.069          18.896  
C21  22025582.207   114692967.378         437.660          34.168  
C22  23658373.049   123195354.184       -2432.453          25.788  
C30  26708548.457   139078454.097        2572.054          27.060  
C36  23421482.145                       -1917.992          13.729  
E04                                                                                                                                  27663976.827   108559342.163       -1699.419          22.848  
E05                                                                  24148306.475   126900229.557        1943.985          29.374    24148309.173                        1452.054          18.264  
E09                                                                  23815170.800   125149583.326        -662.554          34.769    23815177.995    93455888.549        -494.820          29.400  
E24                                                                  24543030.314                        2459.318          22.051  
G05  22430301.126   117871941.150       -2717.845          27.544  
G13  20122123.144   105742539.225        -286.066          30.608  
G14  21577403.874   113390017.676       -1105.172          29.264  
G15  20305535.870   106706291.496        1595.370          28.857  
G17  24131060.315                        2801.460          21.734  
G24                                                                  22571255.145    88574473.339        2518.257          27.349  
G30  23510982.785                       -2476.892          23.936    23510990.880                       -1849.873          23.355  
R02  20585711.409                       -2629.412          25.068  
R03  19269375.789   103150496.390        1344.338          31.499  
R04  22239586.954                        4307.149          22.515  
R14  22489879.780                        4156.860          23.768  
R20  24053518.696                        -897.629          21.622  
R21  24191896.898   129455628.485        2379.174          29.330  
> 2022  9 17 18 21 34.0000206  0 23
C07  39932601.235   207939535.830        -203.375          26.467  
C10  39164441.222                         192.232          18.359  
C21  22025587.603   114692998.802         436.906          34.292  
C22  23658931.562   123198255.703       -2433.189          25.746  
C30  26708142.538                        2571.291          26.986  
C36  23421927.637                       -1922.176          14.546  
E04                                                                                                                                  27664503.263   108561394.732       -1699.633          23.611  
E05                                                                  24148028.268   126898758.633        1943.550          29.328    24148028.867                        1453.609          18.200  
E09                                                                  23815386.051   125150719.131        -663.179          34.906    23815394.745    93456736.694        -495.210          29.807  
E24                                                                  24542653.475                        2459.400          21.695  
G05  22430909.405   117875132.246       -2718.470          27.789  
G13  20122266.745   105743298.633        -286.782          30.641  
G14  21577704.566   113391596.199       -1105.896          29.235  
G15  20305323.317   106705169.553        1594.569          28.818  
G17  24130625.316                        2803.601          21.007  
G24                                                                  22570705.026    88572308.354        2517.920          27.528  
G30  23511547.894   123554012.4591      -2477.315          23.758    23511552.991    92264388.4731      -1849.941          23.523  
R02  20586293.605                       -2629.417          24.951  
R03  19269215.100   103149634.623        1343.211          31.349  
R04  22238870.450                        4309.868          22.705  
R14  22489184.561                        4158.501          24.184  
R20  24053792.406                        -897.223          21.783  
R21  24191535.349   129453731.436        2378.324          29.214  
> 2022  9 17 18 21 35.0000208  0 23
C07  39932702.565                        -204.364          26.745  
C10  39164458.310                         194.486          18.934  
C21  22025563.320   114692874.973         436.048          34.363  
C22  23659458.298   123201001.637       -2433.715          26.179  
C30  26707708.138                        2570.578          26.363  
C36  23422350.044                       -1926.764          16.508  
E04                                                                                                                                  27664994.023   108563330.031       -1700.010          23.746  
E05                                                                  24147717.983   126897130.741        1942.976          29.172    24147722.480                        1451.103          18.598  
E09                                                                  23815574.321   125151697.981        -663.766          34.755    23815581.216    93457467.695        -495.710          29.626  
E24                                                                  24542244.857                        2458.827          22.539  
G05  22431488.004   117878166.488       -2719.158          27.301  
G13  20122382.764   105743901.323        -287.606          30.665  
G14  21577972.281   113393018.192       -1106.910          29.355  
G15  20305077.787   106703890.883        1593.754          28.669  
G17  24130147.147                        2803.025          20.795  
G24                                                                  22570123.429    88570026.111        2517.532          27.406  
G30  23512075.529   123556805.162       -2477.619          24.127    23512085.722    92266473.914       -1850.151          23.987  
R02  20586854.517                       -2627.447          25.153  
R03  19269023.832   103148613.392        1342.194          31.468  
R04  22238154.246                        4303.300          23.025  
R14  22488477.351                        4156.744          24.406  
R20  24054025.345                        -899.685          21.590  
R21  24191160.008   129451675.109        2377.177          29.546  
> 2022  9 17 18 21 36.0000211  0 23
C07  39932832.076   207940724.4491       -204.185          26.447  
C10  39164502.679                         196.399          18.849  
C21  22025571.414   114692908.032         435.270          34.160  
C22  23660015.312   123203904.199       -2434.233          26.061  
C30  26707308.515   139071990.7281       2570.414          26.342  
C36  23422806.329                       -1932.051          15.128  
E04                                                                                                                                  27665518.360   108565383.156       -1700.190          23.504  
E05                                                                  24147440.075   126895660.873        1942.494          29.315    24147445.172                        1450.333          18.059  
E09                                                                  23815787.473   125152835.010        -664.403          34.667    23815796.767    93458316.757        -496.127          29.229  
E24                                                                  24541868.018                        2458.034          22.560  
G05  22432098.681   117881358.892       -2719.778          27.619  
G13  20122529.363   105744662.208        -288.259          30.826  
G14  21578275.371   113394598.448       -1107.630          29.354  
G15  20304862.836   106702770.654        1592.855          28.676  
G17  24129705.253                        2805.724          21.154  
G24                                                                  22569571.811    88567861.892        2517.154          26.984  
G30  23512637.640   123559755.745       -2477.957          24.168    23512647.233                       -1850.314          23.657  
R02  20587421.125                       -2629.899          24.330  
R03  19268858.347   103147753.665        1341.171          31.489  
R04  22237417.656                        4305.802          22.799  
R14  22487792.325   119872493.6231       4156.929          25.343  
R20  24054255.286                        -899.368          22.317  
R21  24190804.455   129449780.058        2376.326          29.466  
> 2022  9 17 18 21 37.0000213  0 23
C07  39932929.808   207941241.116        -204.447          26.244  
C10  39164522.165                         196.357          18.750  
C21  22025548.030   114692785.665         434.587          34.263  
C22  23660547.744   123206651.185       -2434.766          25.877  
C30  26706872.317   139069732.847        2570.100          26.430  
C36  23423257.816                       -1921.220          14.248  
E04                                                                                                                                  27666011.219   108567318.849       -1700.403          23.285  
E05                                                                  24147132.188   126894033.821        1942.136          29.209    24147131.589                        1454.617          18.313  
E09                                                                  23815976.942   125153814.874        -664.780          34.668    23815985.336    93459048.462        -496.416          29.377  
E24                                                                  24541460.600                        2457.814          22.539  
G05  22432676.381   117884394.222       -2720.245          27.798  
G13  20122639.986   105745266.161        -288.869          31.012  
G14  21578540.088                       -1108.912          28.778  
G15  20304622.702   106701493.426        1592.311          28.389  
G17  24129227.683                        2803.505          20.090  
G24                                                                  22568991.113    88565580.316        2516.867          27.361  
G30  23513170.071                       -2478.326          23.994    23513177.266    92270763.2901      -1850.701          24.172  
R02  20587971.844                       -2632.153          24.683  
R03  19268671.576   103146734.293        1340.335          31.251  
R04  22236675.970                        4306.991          23.383  
R14  22487062.331                        4156.936          25.665  
R20  24054519.403                        -898.512          20.690  
R21  24190404.831   129447725.429        2375.478          29.042  
> 2022  9 17 18 21 38.0000216  0 23
C07  39933060.218   207941914.093        -204.648          26.476  
C10  39164575.529                         194.963          17.597  
C21  22025551.928   114692820.058         433.936          34.167  
C22  23661102.360   123209554.628       -2435.114          26.308  
C30  26706469.696   139067631.496        2569.680          26.114  
C36  23423678.425                       -1921.255          11.623  
E04                                                                                                                                  27666534.057   108569372.501       -1700.717          23.382  
E05                                                                  24146852.482   126892564.735        1941.712          29.405    24146851.582                        1453.880          19.050  
E09                                                                  23816193.392   125154952.718        -665.218          34.406    23816200.887    93459898.183        -496.786          29.546  
E24                                                                  24541083.461   128964284.2051       2457.381          22.592  
G05  22433280.163   117887587.494       -2720.646          27.487  
G13  20122786.885   105746028.289        -289.502          30.969  
G14  21578843.478   113397603.5581      -1109.032          28.882  
G15  20304411.349   106700374.400        1591.652          28.252  
G17  24128777.695                        2809.931          18.036  
G24                                                                  22568438.595    88563416.579        2516.672          27.268  
G30  23513734.580   123565500.2851      -2478.535          24.222    23513740.276    92272967.090       -1850.865          24.034  
R02  20588564.833                       -2632.103          24.739  
R03  19268506.690   103145876.276        1339.460          30.988  
R04  22235964.862                        4304.535          22.724  
R14  22486381.802                        4156.499          25.649  
R20  24054765.532                        -901.305          22.257  
R21  24190050.177   129445832.000        2374.704          29.216  
> 2022  9 17 18 21 39.0000219  0 23
C07  39933187.330   207942587.266        -204.844          26.385  
C10  39164633.388                         193.826          18.509  
C21  22025558.223   114692855.015         433.372          34.297  
C22  23661657.875                       -2435.558          26.009  
C30  26706066.175   139065529.941        2569.885          25.482  
E04                                                                                                                                  27667058.994   108571426.169       -1700.733          23.914  
E05                                                                  24146575.174   126891095.809        1941.551          29.523    24146573.375                        1448.732          19.807  
E09                                                                  23816409.843   125156090.941        -665.597          34.665    23816416.738    93460748.128        -497.010          29.295  
E24                                                                  24540707.222                        2456.898          23.123  
G05  22433885.144   117890781.136       -2721.016          27.147  
G13  20122933.183   105746790.814        -289.900          30.830  
G14  21579142.071   113399185.822       -1109.639          28.722  
G15  20304190.701   106699255.950        1591.076          27.546  
G17  24128330.105                        2804.355          19.845  
G19  25621739.939                        3648.877          12.771  
G24                                                                  22567886.977    88561253.091        2516.423          27.135  
G30  23514301.488                       -2478.915          24.312    23514301.488    92275170.939       -1850.914          24.399  
R02  20589147.330   109867424.9081      -2632.776          24.670  
R03  19268349.299   103145019.053        1338.666          30.969  
R04  22235253.155                        4306.238          23.059  
R14  22485693.778   119861304.0301       4155.665          25.669  
R20  24055030.549                        -905.563          21.604  
R21  24189702.118   129443939.262        2374.013          28.798  
> 2022  9 17 18 21 40.0000221  0 22
C07  39933289.259   207943104.545        -205.059          26.297  
C10  39164663.668                         195.496          19.219  
C21  22025534.540   114692734.607         432.628          34.177  
C22  23662187.009   123215206.7021      -2436.014          26.192  
C30  26705635.074   139063273.254        2568.906          25.539  
E04                                                                                                                                  27667553.052   108573362.381       -1700.923          24.193  
E05                                                                  24146263.090   126889469.828        1941.065          29.169    24146264.889                        1449.229          19.462  
E09                                                                  23816597.812   125157072.192        -666.167          34.743    23816602.909    93461480.832        -497.414          29.319  
E24                                                                  24540298.605                        2455.973          22.829  
G05  22434463.744   117893817.948       -2721.728          27.260  
G13  20123046.505   105747396.538        -290.639          30.867  
G14  21579416.381                       -1111.104          28.805  
G15  20303947.570   106697980.682        1590.352          27.758  
G17  24127861.229                        2799.585          18.975  
G24                                                                  22567307.178    88558972.339        2516.042          27.042  
G30  23514823.127   123571245.5661      -2478.979          24.107    23514833.619                       -1850.860          24.628  
R02  20589705.543                       -2633.747          24.798  
R03  19268161.929   103144002.354        1337.662          30.851  
R04  22234491.082                        4304.268          23.171  
R14  22484978.773   119857468.585        4155.058          25.951  
R20  24055250.896                        -909.180          20.859  
R21  24189311.188   129441887.103        2373.009          28.862  
> 2022  9 17 18 21 41.0000224  0 23
C07  39933419.369   207943778.406        -205.532          26.507  
C10  39164723.926                         196.391          19.700  
C21  22025542.934   114692771.067         431.869          34.326  
C22  23662746.721   123218111.551       -2436.520          26.631  
C30  26705233.052   139061173.182        2568.401          25.800  
E04                                                                                                                                  27668077.089   108575416.502       -1701.186          24.064  
E05                                                                  24145982.184   126888001.819        1940.635          29.407    24145983.384                        1449.504          17.745  
E09                                                                  23816813.063   125158211.395        -666.577          34.806    23816819.959    93462331.565        -497.798          29.458  
E24                                                                  24539918.768                        2455.580          22.765  
G05  22435074.721                       -2722.626          27.433  
G13  20123190.105   105748160.498        -291.334          30.730  
G14  21579717.073   113402195.1331      -1111.186          28.626  
G15  20303733.218   106696863.717        1589.592          27.401  
G17  24127418.136                        2800.233          19.472  
G19  25620512.588                        3650.537          12.244  
G24                                                                  22566755.860    88556809.467        2515.807          27.347  
G30  23515385.238   123574197.425       -2479.233          24.758    23515393.932                       -1850.839          24.407  
R02  20590288.940                       -2634.330          25.410  
R03  19267989.848   103143147.072        1336.726          30.928  
R04  22233768.582                        4301.267          22.984  
R14  22484288.651   119853793.388        4154.615          26.195  
R20  24055527.605                        -908.830          21.398  
R21  24188957.133   129439996.122        2372.257          28.826  
> 2022  9 17 18 21 42.0000227  0 22
C07  39933547.680   207944452.634        -205.899          26.244  
C10  39164761.700                         191.199          19.672  
C21  22025549.529   114692808.378         431.018          34.014  
C22  23663300.438   123221016.969       -2437.088          26.458  
C30  26704824.735   139059073.514        2567.998          25.933  
E04                                                                                                                                  27668598.728   108577471.024       -1701.587          24.062  
E05                                                                  24145705.176   126886534.433        1940.012          29.545    24145702.778                        1451.404          19.103  
E09                                                                  23817031.013   125159351.303        -667.281          34.436    23817038.208    93463182.826        -498.327          29.376  
E24                                                                  24539538.931                        2454.315          23.072  
G05  22435682.100                       -2723.492          27.696  
G13  20123336.404   105748925.256        -292.132          30.730  
G14  21580015.666   113403779.880       -1112.121          28.991  
G15  20303526.361   106695747.575        1588.767          26.893  
G17  24126979.240                        2798.547          18.731  
G24                                                                  22566203.642    88554647.012        2515.391          27.472  
G30  23515945.550   123577149.866       -2479.815          24.394    23515956.642    92281666.4031      -1851.851          24.302  
R02  20590882.229                       -2638.978          25.516  
R03  19267833.357   103142293.032        1335.484          30.655  
R04  22233064.070                        4300.385          22.937  
R14  22483592.533   119850118.867        4153.940          26.258  
R20  24055772.235                        -908.057          21.134  
R21  24188603.978   129438106.262        2371.135          28.939  
> 2022  9 17 18 21 43.0000229  0 22
C07  39933649.010   207944970.812        -205.958          26.442  
C10  39164788.681                         186.175          19.406  
C21  22025524.946   114692690.067         430.531          34.347  
C22  23663831.970   123223766.656       -2437.468          26.729  
C30  26704396.031   139056818.096        2567.637          25.483  
E04                                                                                                                                  27669093.685   108579407.797       -1701.483          23.665  
E05                                                                  24145396.090   126884909.595        1939.922          29.476    24145397.589                        1447.743          18.706  
E09                                                                  23817217.483   125160333.939        -667.553          34.450    23817224.079    93463916.581        -498.465          29.454  
E24                                                                  24539131.813                        2455.186          23.053  
G05  22436257.402                       -2723.375          27.244  
G13  20123454.522   105749532.795        -292.455          30.616  
G14  21580292.075   113405207.519       -1112.555          28.933  
G15  20303279.632   106694474.461        1588.199          26.605  
G17  24126512.763                        2799.487          17.724  
G24                                                                  22565624.143    88552367.047        2515.254          27.288  
G30  23516476.482   123579944.579       -2479.629          24.556    23516488.474    92283753.450       -1851.756          23.924  
R02  20591421.855   109879848.2061      -2635.492          25.377  
R03  19267643.588   103141279.080        1334.915          30.659  
R04  22232329.579                        4304.633          23.491  
R14  22482880.226   119846284.686        4153.794          26.497  
R20  24055996.180                        -906.997          22.032  
R21  24188220.843   129436056.526        2370.586          28.909  
> 2022  9 17 18 21 44.0000232  0 23
C07  39933780.019   207945645.368        -206.227          26.249  
C10  39164847.740                         185.748          19.169  
C21  22025534.540   114692728.551         429.845          34.450  
C22  23664393.181   123226672.799       -2437.813          27.175  
C30  26703989.513                        2567.507          25.013  
E04                                                                                                                                  27669617.123   108581462.555       -1701.822          23.816  
E05                                                                  24145115.784   126883442.759        1939.462          29.272    24145119.681                        1442.703          18.535  
E09                                                                  23817433.634   125161474.572        -668.007          34.434    23817441.428    93464768.303        -498.787          29.355  
E24                                                                  24538756.173                        2454.117          23.767  
E25                                                                                                                                  28697437.577                        2649.842          21.616  
G05  22436868.679   117906442.6751      -2723.603          27.234  
G13  20123600.521   105750298.565        -293.144          30.398  
G14  21580588.569   113406793.456       -1113.311          28.551  
G15  20303068.278   106693359.478        1587.609          26.646  
G17  24126037.292                        2806.485          16.708  
G24                                                                  22565071.026    88550205.066        2514.916          27.439  
G30  23517040.991   123582897.222       -2480.017          24.277    23517049.086    92285958.254       -1851.869          23.815  
R02  20592008.849                       -2635.203          24.742  
R03  19267482.899   103140426.528        1333.995          30.552  
R04  22231595.986                        4305.130          23.674  
R14  22482174.514   119842610.830        4153.274          26.365  
R20  24056277.086                        -905.537          21.725  
R21  24187869.786   129434168.118        2369.683          28.908  
> 2022  9 17 18 21 45.0000234  0 23
C07  39933875.653   207946163.979        -206.391          26.270  
C10  39164862.130                         188.802          19.598  
C21  22025512.355   114692611.534         429.236          34.234  
C22  23664923.814   123229423.239       -2438.221          26.678  
C30  26703556.612                        2566.826          24.915  
E04                                                                                                                                  27670114.478   108583399.764       -1701.919          23.978  
E05                                                                  24144805.199   126881818.630        1939.212          29.413    24144807.598                        1445.021          19.305  
E09                                                                  23817621.304   125162457.993        -668.337          34.580    23817627.600    93465502.751        -499.158          29.277  
E24                                                                  24538349.954   128949932.2751       2453.978          23.575  
E25                                                                                                                                  28696818.206                        2651.722          21.507  
G05  22437446.979   117909481.827       -2724.068          27.090  
G13  20123718.040   105750907.304        -293.655          30.249  
G14  21580861.980   113408222.531       -1113.991          28.729  
G15  20302831.142   106692087.525        1587.037          26.613  
G17  24125572.614                        2801.347          16.894  
G24                                                                  22564491.827    88547925.619        2514.737          27.265  
G30  23517575.521   123585692.403       -2480.097          24.290    23517583.016                       -1852.282          23.667  
R02  20592549.075                       -2637.276          24.960  
R03  19267301.225   103139414.252        1333.238          30.597  
R04  22230861.195                        4300.916          22.983  
R14  22481464.606   119838777.516        4152.927          25.645  
R20  24056494.136                        -909.005          21.759  
R21  24187486.651   129432119.972        2368.996          29.272  
> 2022  9 17 18 21 46.0000237  0 23
C07  39934003.665   207946838.965        -206.657          26.143  
C10  39164918.491                         190.189          19.123  
C21  22025522.248   114692651.276         428.588          34.585  
C22  23665476.032   123232330.180       -2438.611          26.869  
C30  26703158.788                        2566.220          25.006  
E04                                                                                                                                  27670634.918   108585454.784       -1702.085          23.924  
E05                                                                  24144527.891   126880352.421        1938.835          29.560    24144527.891                        1455.884          19.403  
E09                                                                  23817838.953   125163599.477        -668.858          34.542    23817845.249    93466355.092        -499.407          29.238  
E24                                                                  24537970.716   128947951.416        2453.485          23.658  
E25                                                                                                                                  28696230.613                        2651.056          20.976  
G05  22438052.260   117912678.946       -2724.493          26.763  
G13  20123858.343   105751674.153        -294.223          30.597  
G14  21581164.771   113409809.801       -1114.644          29.254  
G15  20302616.191   106690973.880        1586.271          26.381  
G17  24125116.629                        2797.079          17.242  
G24                                                                  22563940.209    88545764.132        2514.422          27.336  
G30  23518140.930                       -2480.479          24.487    23518142.729                       -1852.431          23.599  
R02  20593133.670                       -2639.457          25.050  
R03  19267144.134   103138563.402        1332.294          30.492  
R04  22230135.098                        4298.664          23.162  
R14  22480784.976   119835104.462        4152.473          25.707  
R20  24056747.460                        -913.201          21.737  
R21  24187145.488   129430233.106        2368.141          29.538  
> 2022  9 17 18 21 47.0000240  0 23
C07  39934132.875   207947514.370        -207.075          26.499  
C10  39164978.150                         196.396          20.024  
C21  22025529.443   114692691.805         427.800          34.311  
C22  23666036.044   123235237.702       -2439.192          26.594  
C30  26702759.764   139048268.9091       2566.069          24.750  
E04                                                                                                                                  27671157.157   108587510.140       -1702.421          24.122  
E05                                                                  24144249.384   126878886.741        1938.307          29.750    24144250.283                        1456.806          18.911  
E09                                                                  23818055.703   125164741.495        -669.392          34.383    23818063.498    93467207.969        -499.942          28.980  
E24                                                                  24537595.676   128945971.082        2452.960          23.830  
E25                                                                                                                                  28695650.515                        2649.437          21.292  
G05  22438661.438   117915876.746       -2725.175          26.755  
G13  20124004.941   105752441.744        -294.966          30.481  
G14  21581469.060   113411397.902       -1115.475          29.086  
G15  20302403.339                        1584.989          26.758  
G17  24124685.228                        2798.037          17.480  
G24                                                                  22563390.989    88543602.920        2514.148          27.326  
G30  23518705.139   123591598.9001      -2480.755          24.550    23518707.538    92292456.3171      -1852.529          24.091  
R02  20593727.559                       -2638.371          24.764  
R03  19266987.042   103137713.530        1331.315          30.329  
R04  22229453.070                        4299.564          22.860  
R14  22480083.762                        4151.722          25.847  
R20  24057013.076                        -913.375          21.545  
R21  24186781.240   129428347.182        2367.199          29.463  
> 2022  9 17 18 21 48.0000242  0 23
C07  39934235.404   207948033.571        -206.981          26.429  
C10  39164989.842                         196.079          18.121  
C21  22025506.659   114692576.653         427.372          34.654  
C22  23666568.176   123237989.367       -2439.445          27.078  
C30  26702317.270                        2566.124          24.531  
E04                                                                                                                                  27671653.013   108589447.849       -1702.419          24.195  
E05                                                                  24143939.998   126877263.542        1938.283          29.411    24143941.797                        1448.027          19.531  
E09                                                                  23818242.774   125165726.155        -669.575          34.461    23818251.168    93467943.243        -499.984          29.074  
E24                                                                  24537185.560                        2451.953          23.454  
E25                                                                                                                                  28695033.542                        2650.148          20.355  
G05  22439241.237   117918917.169       -2725.338          26.900  
G13  20124123.959   105753052.179        -295.350          30.030  
G14  21581737.974   113412828.854       -1115.868          28.746  
G15  20302158.408   106688591.4171       1585.143          26.683  
G17  24124221.749                        2796.965          17.345  
G24                                                                  22562809.392    88541324.245        2513.965          27.287  
G30  23519234.873                       -2481.211          23.946    23519236.671    92294544.137       -1852.529          24.047  
R02  20594284.873                       -2635.004          24.274  
R03  19266798.773   103136703.826        1330.667          30.470  
R04  22228706.287                        4304.628          23.493  
R14  22479376.252   119827599.8651       4151.683          25.210  
R20  24057249.313                        -908.346          21.809  
R21  24186410.097   129426301.371        2366.661          29.801  
> 2022  9 17 18 21 49.0000245  0 23
C07  39934365.514   207948709.095        -207.195          26.264  
C10  39165048.601                         185.934          17.787  
C21  22025513.854   114692618.251         426.731          34.668  
C22  23667121.892   123240897.473       -2439.777          26.875  
C30  26701921.245   139043917.8151       2565.553          23.962  
E04                                                                                                                                  27672176.451   108591503.249       -1702.465          23.875  
E05                                                                  24143662.690   126875798.270        1937.898          29.684  
E09                                                                  23818461.322   125166868.737        -669.956          34.392    23818467.918    93468796.499        -500.320          29.058  
E24                                                                  24536807.522   128941853.8431       2452.272          24.492  
E25                                                                                                                                  28694444.150                        2650.806          21.047  
G05  22439851.314                       -2725.676          26.870  
G13  20124266.960   105753820.618        -295.813          30.381  
G14  21582040.464   113414418.088       -1116.608          28.802  
G15  20301948.853   106687479.073        1584.970          26.795  
G17  24123757.670                        2795.306          18.454  
G24                                                                  22562258.673    88539163.412        2513.768          27.298  
G30  23519790.688                       -2480.670          24.334    23519800.581                       -1853.258          24.291  
R02  20594852.380                       -2640.035          24.357  
R03  19266643.480   103135855.545        1329.725          30.301  
R04  22227970.896                        4300.634          23.329  
R14  22478688.528                        4151.156          24.533  
R20  24057510.132                        -912.658          21.976  
R21  24186061.138   129424416.801        2365.845          29.910  
> 2022  9 17 18 21 50.0000247  0 23
C07  39934463.546   207949228.940        -207.625          26.085  
C10  39165067.788                         187.621          18.214  
C21  22025494.967   114692504.518         425.953          34.544  
C22  23667649.527   123243650.002       -2440.310          27.096  
C30  26701483.548                        2563.723          24.538  
E04                                                                                                                                  27672667.811   108593441.268       -1702.729          23.676  
E05                                                                  24143353.604   126874175.934        1937.420          29.402    24143356.302                        1439.826          18.327  
E09                                                                  23818646.594   125167854.417        -670.597          34.534    23818656.187    93469532.510        -500.721          29.304  
E24                                                                  24536400.104                        2451.212          24.153    24536405.500                        1838.157          17.329  
E25                                                                                                                                  28693833.772                        2651.118          20.672  
G05  22440428.714   117925157.0851      -2726.445          26.467  
G13  20124385.678   105754432.268        -296.566          29.972  
G14  21582312.676   113415850.567       -1117.395          28.744  
G15  20301710.218   106686210.442        1583.715          26.373  
G17  24123291.193                        2793.112          17.680  
G24                                                                  22561678.875    88536885.208        2513.494          26.858  
G30  23520325.817   123600144.8901      -2481.446          24.521    23520334.511                       -1853.438          23.750  
R02  20595399.202                       -2641.637          23.864  
R03  19266449.515   103134847.797        1328.710          30.405  
R04  22227254.092                        4301.123          22.774  
R14  22477964.529                        4149.131          24.437  
R20  24057741.872                        -917.842          21.877  
R21  24185665.712   129422372.616        2365.035          30.125  
> 2022  9 17 18 21 51.0000250  0 23
C07  39934596.354   207949904.998        -207.728          26.865  
C10  39165133.143                         187.072          19.288  
C21  22025503.361   114692547.415         425.432          34.666  
C22  23668207.141   123246559.034       -2440.702          27.266  
C30  26701078.528                        2565.488          24.111  
E04                                                                                                                                  27673193.946   108595497.262       -1703.059          23.456  
E05                                                                  24143075.696   126872711.375        1937.185          29.436    24143075.696                        1449.714          18.305  
E09                                                                  23818865.143   125168997.938        -670.895          34.556    23818872.338    93470386.442        -500.997          28.896  
E24                                                                  24536023.265   128937738.4391       2451.404          24.256  
E25                                                                                                                                  28693244.680                        2649.277          21.128  
G05  22441034.595   117928356.490       -2726.779          26.283  
G13  20124528.079   105755201.877        -296.983          29.901  
G14  21582618.764   113417441.113       -1117.919          28.519  
G15  20301500.664   106685099.860        1583.208          26.564  
G17  24122865.788                        2791.551          18.022  
G24                                                                  22561126.957    88534724.911        2513.231          27.516  
G30  23520891.825                       -2481.822          23.493    23520894.524    92301043.9391      -1853.007          24.070  
R02  20596011.678                       -2645.109          23.483  
R03  19266293.023   103134001.300        1327.941          30.218  
R04  22226533.091                        4301.991          22.818  
R14  22477280.702   119816425.8131       4150.481          24.751  
R20  24057974.811                        -915.654          21.727  
R21  24185308.359   129420489.732        2364.159          30.136  
> 2022  9 17 18 21 52.0000253  0 23
C07  39934726.164   207950581.056        -207.729          26.690  
C10  39165176.013                         191.076          18.625  
C21  22025509.957   114692590.866         424.878          34.621  
C22  23668765.055   123249468.240       -2440.876          27.104  
C30  26700673.808                        2564.888          24.352  
E04                                                                                                                                  27673715.286   108597553.090       -1702.894          23.415  
E05                                                                  24142795.690   126871247.048        1936.953          29.435    24142791.493                        1451.796          18.026  
E09                                                                  23819080.993   125170141.710        -671.146          34.492    23819090.887    93471240.556        -501.179          29.052  
E24                                                                  24535651.222   128935760.007        2451.058          24.800  
E25                                                                                                                                  28692663.682                        2648.039          20.855  
G05  22441644.373                       -2727.544          26.795  
G13  20124677.076   105755971.983        -297.481          29.964  
G14  21582922.154   113419032.263       -1118.524          29.146  
G15  20301285.712   106683989.822        1582.664          26.812  
G17  24122430.789                        2799.721          17.881  
G24                                                                  22560578.037    88532564.730        2513.116          27.651  
G30  23521454.236                       -2481.757          23.167    23521455.735                       -1853.776          24.003  
R02  20596594.774                       -2642.006          23.816  
R03  19266137.730   103133155.457        1327.286          29.869  
R04  22225788.407                        4299.231          23.263  
R14  22476587.282                        4149.800          24.866  
R20  24058250.320                        -917.977          21.791  
R21  24184957.602   129418607.343        2363.664          30.318  
> 2022  9 17 18 21 53.0000255  0 23
C07  39934825.396   207951101.325        -208.049          26.701  
C10  39165201.195                         195.636          18.917  
C21  22025490.170   114692478.793         424.292          34.632  
C22  23669296.887   123252221.732       -2441.273          27.504  
C26  24612452.654                        3232.376          18.234  
C30  26700241.208                        2562.641          24.494  
E04                                                                                                                                  27674211.742   108599491.482       -1703.101          23.313  
E05                                                                  24142485.705   126869625.476        1936.656          29.611    24142486.005                        1444.730          19.390  
E09                                                                  23819268.963   125171128.374        -671.579          34.557    23819277.957    93471977.337        -501.491          28.935  
E24                                                                  24535247.701   128933624.512        2450.579          24.798  
E25                                                                                                                                  28692048.508                        2652.048          21.523  
G05  22442224.171   117934598.6511      -2727.439          26.693  
G13  20124790.697   105756585.064        -297.997          29.992  
G14  21583191.368   113420466.438       -1119.091          29.175  
G15  20301039.283   106682722.788        1582.118          26.805  
G24                                                                  22559996.739                        2512.623          27.123  
G30  23521980.672                       -2484.634          22.982    23521987.567                       -1853.290          23.822  
R02  20597150.589                       -2641.620          23.891  
R03  19265951.259   103132150.006        1326.414          29.975  
R04  22225050.618                        4298.405          23.573  
R14  22475856.089                        4149.609          24.087  
R20  24058482.059                        -913.203          22.097  
R21  24184578.365   129416565.342        2362.851          30.067  
> 2022  9 17 18 21 54.0000258  0 23
C07  39934956.705   207951777.609        -207.954          26.135  
C10  39165249.762                         191.999          17.949  
C21  22025497.665   114692523.266         423.857          34.820  
C22  23669853.601   123255131.611       -2441.549          27.392  
C26  24611916.025                        3227.593          19.399  
C30  26699843.983                        2565.853          24.231  
E04                                                                                                                                  27674733.081   108601547.575       -1703.158          23.831  
E05                                                                  24142208.996   126868161.584        1936.517          29.528    24142212.294                        1442.469          18.975  
E09                                                                  23819489.311   125172272.742        -671.742          34.437    23819496.805    93472831.913        -501.641          28.814  
E24                                                                  24534872.961                        2449.919          24.847  
E25                                                                                                                                  28691460.915                        2651.674          21.465  
G05  22442831.551   117937799.088       -2727.811          26.185  
G13  20124940.893   105757356.117        -298.427          29.838  
G14  21583497.456   113422058.699       -1119.635          29.184  
G15  20300824.931   106681613.837        1581.577          26.359  
G24                                                                  22559446.320    88528127.3461       2512.773          27.044  
G30  23522542.483   123611804.1901      -2481.698          23.101    23522550.877                       -1853.535          23.574  
R02  20597715.998                       -2643.776          23.210  
R03  19265783.376   103131305.546        1325.903          29.813  
R04  22224326.919                        4304.520          23.263  
R14  22475165.667                        4148.603          24.173  
R20  24058739.581                        -911.548          22.689  
R21  24184226.408   129414684.335        2362.281          29.963  
> 2022  9 17 18 21 55.0000260  0 23
C07  39935052.938   207952297.864        -208.036          25.808  
C10  39165272.546                         190.246          19.761  
C21  22025478.778   114692412.085         423.400          34.890  
C22  23670382.435   123257885.604       -2441.774          27.669  
C26  24611359.310                        3227.878          18.555  
C30  26699411.982   139030872.5541       2563.902          24.562  
E04                                                                                                                                  27675226.839   108603485.866       -1703.001          23.657  
E05                                                                  24141902.609   126866540.270        1936.398          29.635    24141902.908                        1438.358          19.421  
E09                                                                  23819674.582   125173259.867        -672.042          34.394    23819683.276    93473569.101        -501.898          29.248  
E24                                                                  24534461.046   128929511.6931       2450.203          24.975  
E25                                                                                                                                  28690846.640                        2649.081          20.425  
G05  22443403.855                       -2728.386          26.009  
G13  20125059.012   105757969.916        -298.714          29.646  
G14  21583768.168   113423493.864       -1120.081          29.083  
G15  20300588.095   106680347.727        1581.194          26.434  
G24                                                                  22558867.421    88525849.946        2512.689          27.264  
G30  23523067.719                       -2480.551          22.968    23523084.507                       -1852.888          23.234  
R02  20598271.513                       -2642.907          22.836  
R03  19265595.406   103130301.408        1325.101          29.194  
R04  22223602.620                        4303.692          22.821  
R14  22474448.263                        4149.446          23.831  
R20  24058999.201                        -916.720          21.771  
R21  24183845.972   129412643.527        2361.658          30.244  
> 2022  9 17 18 21 56.0000263  0 23
C07  39935183.048   207952974.512        -208.319          25.904  
C10  39165333.704                         189.526          19.522  
C21  22025483.875   114692457.763         422.651          34.795  
C22  23670943.647   123260796.116       -2442.183          27.873  
C26  24610833.774                        3227.607          19.080  
C30  26699009.960                        2561.749          24.921  
E04                                                                                                                                  27675750.577   108605542.250       -1703.449          23.315  
E05                                                                  24141618.405   126865076.971        1935.925          29.666    24141624.101                        1443.826          19.104  
E09                                                                  23819893.731   125174404.965        -672.472          34.399    23819902.425    93474424.161        -502.126          28.943  
E24                                                                  24534084.807   128927534.875        2449.444          25.230  
E25                                                                                                                                  28690263.244                        2647.314          20.941  
G05  22444020.228   117944043.3421      -2728.532          25.811  
G13  20125204.111   105758741.987        -299.445          29.715  
G14  21584070.059   113425087.350       -1120.860          29.147  
G15  20300383.937   106679239.910        1580.443          26.110  
G24                                                                  22558315.803    88523690.611        2512.270          27.415  
G30  23523636.126                       -2481.722          22.608    23523645.119                       -1853.470          23.959  
R02  20598868.400                       -2644.566          23.026  
R03  19265445.210   103129458.724        1324.128          29.015  
R04  22222887.015                        4298.928          22.762  
R14  22473778.527                        4149.658          24.023  
R20  24059263.019                        -916.805          21.857  
R21  24183494.015   129410764.066        2360.736          30.308  
> 2022  9 17 18 21 57.0000266  0 24
C07  39935310.460                        -208.283          25.922  
C10  39165380.471                         194.935          19.000  
C21  22025493.468   114692504.180         421.913          34.700  
C22  23671501.261   123263707.265       -2442.819          27.912  
C26  24610310.337                        3226.608          19.720  
C30  26698610.337                        2562.029          24.918  
E04                                                                                                                                  27676274.914   108607598.814       -1703.629          22.555  
E05                                                                  24141343.196   126863614.155        1935.442          29.556    24141344.095                        1445.317          19.283  
E09                                                                  23820111.680   125175550.721        -673.130          34.472    23820119.474    93475279.745        -502.649          28.838  
E24                                                                  24533712.764                        2448.294          25.340    24533710.066                        1834.099          17.525  
E25                                                                                                                                  28689675.051                        2649.339          21.535  
G05  22444628.807                       -2729.733          25.877  
G13  20125350.410   105759514.712        -300.099          29.606  
G14  21584379.445   113426681.619       -1121.643          29.353  
G15  20300170.484   106678132.827        1579.710          26.514  
G17  24120159.561                        2803.773          19.085  
G24                                                                  22557764.784    88521531.547        2511.999          27.157  
G30  23524202.434                       -2480.618          22.510    23524207.230    92314046.3141      -1853.837          23.891  
R02  20599452.995                       -2646.246          22.391  
R03  19265280.024   103128617.007        1323.161          29.010  
R04  22222201.390                        4296.317          23.480  
R14  22473072.516                        4147.878          23.481  
R20  24059501.354                        -917.943          21.604  
R21  24183141.759   129408885.424        2359.917          30.155  
> 2022  9 17 18 21 58.0000268  0 24
C07  39935412.090   207954172.6711       -208.812          26.033  
C10  39165407.153                         198.058          18.682  
C21  22025475.481   114692395.143         421.256          34.645  
C22  23672028.895   123266462.666       -2443.181          27.614  
C26  24609743.129                        3227.005          18.868  
C30  26698173.239   139024432.2331       2562.706          24.581  
E04                                                                                                                                  27676766.873   108609537.873       -1703.769          22.835  
E05                                                                  24141034.410   126861994.063        1935.177          29.215    24141032.911                        1443.325          17.932  
E09                                                                  23820300.249   125176539.276        -673.472          34.774    23820308.044    93476017.945        -502.910          29.029  
E24                                                                  24533306.845   128923424.9791       2448.602          25.507  
E25                                                                                                                                  28689061.976                        2651.457          21.176  
G05  22445201.410                       -2729.691          25.641  
G13  20125473.924   105760130.452        -300.656          29.611  
G14  21584650.158   113428119.029       -1122.326          29.481  
G15  20299931.250   106676868.795        1579.116          27.040  
G17  24119694.283                        2799.444          19.178  
G24  22557192.780                        3368.345          18.914    22557185.286    88519255.017        2511.820          27.557  
G30  23524732.766                       -2481.192          22.929    23524741.760                       -1853.580          23.107  
R02  20599983.928                       -2642.171          21.673  
R03  19265095.052   103127615.650        1322.320          28.390  
R04  22221439.917                        4297.912          22.744  
R14  22472367.404   119790258.1211       4147.984          24.501  
R20  24059717.204                        -923.481          21.389  
R21  24182761.622   129406847.232        2359.043          30.360  
> 2022  9 17 18 21 59.0000271  0 24
C07  39935543.099                        -208.658          26.179  
C10  39165467.711                         196.419          18.030  
C21  22025482.076   114692442.781         420.692          34.698  
C22  23672589.208   123269374.499       -2443.504          27.092  
C26  24609216.694                        3225.819          19.364  
C30  26697771.517                        2561.864          24.622  
E04                                                                                                                                  27677293.908   108611594.731       -1703.923          22.037  
E05                                                                  24140756.202   126860531.807        1934.882          29.296    24140753.504                        1445.453          17.595  
E09                                                                  23820519.697   125177685.641        -673.738          34.581    23820525.393    93476873.987        -503.107          28.959  
E24                                                                  24532931.205   128921449.410        2448.195          26.053  
E25                                                                                                                                  28688472.584                        2649.613          21.170  
G05  22445814.486                       -2729.886          25.849  
G13  20125617.225   105760904.241        -301.164          29.467  
G14  21584953.847   113429714.536       -1122.881          29.357  
G15  20299719.896                        1578.541          26.992  
G17  24119238.299                        2794.057          18.889  
G24  22556645.359                        3366.516          17.892    22556636.366    88517096.456        2511.496          27.404  
G30  23525290.081                       -2483.041          22.477    23525302.072    92318342.3591      -1854.038          22.755  
R02  20600601.201                       -2642.332          21.640  
R03  19264936.462   103126775.571        1321.523          28.462  
R04  22220740.501                        4299.420          23.215  
R14  22471672.185                        4147.026          23.998  
R20  24059990.016                        -920.332          22.498  
R21  24182409.366   129404970.162        2358.345          30.346  
> 2022  9 17 18 22  0.0000273  0 24
C07  39935642.330   207955371.2791       -209.116          26.151  
C10  39165482.701                         191.125          19.569  
C21  22025458.992   114692334.808         420.193          34.678  
C22  23673117.442   123272130.439       -2443.721          26.973  
C26  24608653.684                        3227.728          20.821  
C30  26697339.217   139020088.1021       2562.244          25.069  
E04                                                                                                                                  27677785.268   108613533.917       -1703.896          22.640  
E05                                                                  24140448.615   126858912.233        1934.658          29.273  
E09                                                                  23820704.969   125178674.802        -674.077          34.549    23820713.663    93477612.695        -503.418          28.966  
E24                                                                  24532526.186   128919316.554        2447.939          25.949    24532522.588                        1827.770          17.235  
E25                                                                                                                                  28687862.506                        2650.983          21.001  
G05  22446397.283   117956537.5601      -2730.189          26.232  
G13  20125737.142   105761520.863        -301.538          29.445  
G14  21585231.455   113431153.044       -1123.424          29.347  
G15  20299480.062   106674500.4351       1578.010          26.784  
G17  24118763.727                        2788.669          19.753  
G24  22556065.561                        3369.628          17.688    22556054.768    88514820.266        2511.480          27.352  
G30  23525824.910                       -2484.214          22.718    23525835.403                       -1854.658          23.088  
R02  20601134.831                       -2652.439          21.312  
R03  19264743.096   103125775.699        1320.834          28.029  
R04  22219975.131                        4298.986          22.665  
R14  22470945.788                        4143.933          24.066  
R20  24060216.958                        -920.666          21.287  
R21  24182035.525   129402933.224        2357.788          30.327  
> 2022  9 17 18 22  1.0000276  0 23
C07  39935771.541   207956048.953        -209.344          25.595  
C21  22025468.885   114692383.467         419.670          34.667  
C22  23673675.056   123275042.972       -2444.204          27.559  
C26  24608122.751                        3227.582          20.854  
C30  26696937.795   139017994.594        2561.837          24.842  
E04                                                                                                                                  27678309.905   108615591.005       -1704.153          22.731  
E05                                                                  24140170.108   126857450.422        1934.436          29.646    24140170.708                        1445.198          19.164  
E09                                                                  23820924.417   125179821.860        -674.432          34.694    23820932.212    93478469.250        -503.620          29.115  
E24                                                                  24532152.944                        2446.596          26.159  
E25                                                                                                                                  28687275.812                        2650.379          21.251  
G05  22447006.461                       -2730.736          26.240  
G13  20125884.340   105762295.566        -302.076          29.446  
G14  21585533.046   113432749.701       -1124.031          29.171  
G15  20299269.908   106673395.103        1577.959          26.886  
G17  24118346.416                        2787.410          18.346  
G24  22555506.148                        3362.480          18.475    22555506.148    88512661.931        2511.270          27.543  
G30  23526381.025                       -2480.127          22.715    23526398.413    92322638.7241      -1854.096          22.577  
R02  20601747.307                       -2649.277          21.039  
R03  19264577.011   103124937.060        1320.083          27.942  
R04  22219275.116                        4297.245          22.294  
R14  22470285.945                        4145.045          23.740  
R20  24060514.053                        -924.221          22.034  
R21  24181691.363   129401057.466        2357.032          30.490  
