     3.03           OBSERVATION DATA    M: Mixed            RINEX VERSION / TYPE
Geo++ RINEX Logger  Geo++               20220918 080926 UTC PGM / RUN BY / DATE
************************************************************COMMENT
This file was generated by the Geo++ RINEX Logger App       COMMENT
for Android devices (Version 2.1.6). If you encounter       COMMENT
any issues, please send an email to android@geopp.de        COMMENT
Filtering Mode: MORE                                        COMMENT
************************************************************COMMENT
Geo++                                                       MARKER NAME
GEODETIC                                                    MARKER TYPE
Geo++               Geo++                                   OBSERVER / AGENCY
unknown             Xiaomi              MI 8                REC # / TYPE / VERS
unknown             MI 8                                    ANT # / TYPE
  4410320.6167   193654.5883  4588682.0312                  APPROX POSITION XYZ
        0.0000        0.0000        0.0000                  ANTENNA: DELTA H/E/N
G    8 C1C L1C D1C S1C C5Q L5Q D5Q S5Q                      SYS / # / OBS TYPES
R    4 C1C L1C D1C S1C                                      SYS / # / OBS TYPES
E   12 C1B L1B D1B S1B C1C L1C D1C S1C C5Q L5Q D5Q S5Q      SYS / # / OBS TYPES
C    4 C2I L2I D2I S2I                                      SYS / # / OBS TYPES
J    8 C1C L1C D1C S1C C5Q L5Q D5Q S5Q                      SYS / # / OBS TYPES
  2022     9    18     8     9   44.1890002     GPS         TIME OF FIRST OBS
 24 R01  1 R02 -4 R03  5 R04  6 R05  1 R06 -4 R07  5 R08  6 GLONASS SLOT / FRQ #
    R09 -2 R10 -5 R11  0 R12 -1 R13 -2 R14 -7 R15  0 R16 -1 GLONASS SLOT / FRQ #
    R17  4 R18 -3 R19  3 R20  2 R21  4 R22 -3 R23  3 R24  2 GLONASS SLOT / FRQ #
G L1C                                                       SYS / PHASE SHIFT
G L5Q -0.25000                                              SYS / PHASE SHIFT
R L1C                                                       SYS / PHASE SHIFT
E L1B                                                       SYS / PHASE SHIFT
E L1C +0.50000                                              SYS / PHASE SHIFT
E L5Q -0.25000                                              SYS / PHASE SHIFT
C L2I                                                       SYS / PHASE SHIFT
J L1C                                                       SYS / PHASE SHIFT
J L5Q -0.25000                                              SYS / PHASE SHIFT
 C1C    0.000 C1P    0.000 C2C    0.000 C2P    0.000        GLONASS COD/PHS/BIS
                                                            END OF HEADER
> 2022  9 18  8  9 44.1890002  0  0
> 2022  9 18  8  9 45.1890004  0  0
> 2022  9 18  8  9 46.1890006  0  0
> 2022  9 18  8  9 47.1890008  0  0
> 2022  9 18  8  9 48.1219758  0  0
> 2022  9 18  8  9 49.1523458  0  0
> 2022  9 18  8  9 50.1416789  0  5
G01  20468807.340   107564308.8521       1635.182          33.978  
G08  21412834.303   112525204.5311      -2220.005          29.966  
G10  24472000.187   128601229.5161      -3099.997          32.561  
G21  20793603.088   109271121.9141        -39.680          28.346  
G27  24038413.053   126322713.6801      -3470.649          27.712  
> 2022  9 18  8  9 51.1416790  0 11
C28  21927854.063                        -901.229          16.692  
G01  20468519.239   107562826.430        1639.957          33.433  
G03  22103246.741                        3151.444          21.988  
G08  21413284.891   112527577.359       -2215.290          30.242    21413290.288                       -1653.134          23.753  
G10  24472620.158   128604481.930       -3094.877          32.650  
G14  23205424.119                         266.094          24.500  
G17  24585825.687                        3506.324          25.909  
G21  20793638.164   109271314.125         -34.668          28.948  
G22  22402654.565                        1466.057          24.021  
G27  24039105.574   126326336.945       -3465.725          27.335  
G32  22665489.508                        -234.330          25.061  
> 2022  9 18  8  9 52.1416792  0 13
C27  22300850.742                        1900.316          29.768  
C28  21928100.492                        -896.303          17.396  
C33  22425516.738                        -644.314          30.041  
G01  20468268.313   107561497.836        1643.682          33.721    20468271.610    80321894.8521       1227.441          34.217  
G03  22102720.005                        3161.412          22.187  
G08  21413765.159   112530104.086       -2211.639          30.573    21413769.356                       -1649.982          24.509  
G10  24473270.108   128607887.938       -3090.918          32.923  
G14  23205427.117                         269.698          23.268  
G17  24585220.706   129196192.0471       3509.514          25.506  
G21  20793701.420   109271660.102         -30.896          28.547  
G22  22402435.117                        1469.252          22.035  
G27  24039826.275                       -3460.675          26.477    24039819.979                       -2584.763          22.054  
G32  22665594.435   119108500.0161       -233.256          25.625  
> 2022  9 18  8  9 52.9996793  0 13
C27  22300567.738                        1906.782          30.769  
C28  21928283.965                        -894.870          17.870  
C33  22425656.441                        -651.159          29.440  
G01  20468028.479                        1646.016          33.409    20468033.875                        1228.195          34.388  
G03  22102237.040                        3158.791          22.673  
G08  21414156.088                       -2210.750          30.160    21414159.086                       -1652.057          24.672  
G10  24473799.541                       -3086.767          32.839  
G14  23205415.725                         271.956          23.596  
G17  24584675.084                        3512.616          25.406  
G21  20793740.093                         -30.093          28.886  
G22  22402215.069                        1468.707          18.945  
G27  24040416.566                       -3458.465          26.521    24040414.467                       -2582.703          21.746  
G32  22665662.788                        -228.330          24.787  
> 2022  9 18  8  9 53.9996795  0 13
C27  22300264.048   116123316.0471       1902.420          30.735  
C28  21928541.786                        -892.373          17.300  
C33  22425840.214   116777214.4611       -640.398          29.373  
G01  20467775.454   107558909.9061       1648.074          33.538    20467779.651    80319962.3281       1230.737          35.237  
G03  22101690.818                        3161.728          23.077    22101687.520                        2361.191          24.219  
G08  21414639.653   112534679.5551      -2207.322          29.768    21414638.754    84035654.2661      -1648.354          24.444  
G10  24474452.189   128614096.0001      -3085.979          33.189    24474451.890    96043006.8911      -2304.882          25.591  
G14  23205419.622   121945340.3981        272.692          23.768  
G17  24584068.004   129190137.0861       3514.224          25.223  
G21  20793807.547   109272183.3201        -26.248          29.185  
G22  22402003.116                        1473.127          19.201  
G27  24041135.768   126337011.4611      -3456.921          26.258    24041132.470    94342567.9061      -2581.506          20.239  
G32  22665755.124                        -231.062          22.348  
> 2022  9 18  8  9 54.9996796  0 13
C27  22299929.780                        1903.925          31.350  
C33  22425992.508   116778010.156        -639.582          29.004  
E15                                                                  23530776.582                        -635.877          35.539  
G01  20467491.251   107557418.156        1649.283          33.978    20467495.748    80318848.336        1231.628          34.833  
G03  22101123.311                        3162.056          23.168    22101117.315                        2360.713          24.336  
G08  21415089.642   112537043.313       -2206.222          30.056    21415090.841                       -1647.182          24.240  
G10  24475064.066   128617338.016       -3084.474          33.004    24475071.261                       -2303.271          25.894  
G14  23205406.731   121945223.781         274.149          23.897  
G17  24583424.649   129186778.453        3516.176          25.257  
G21  20793842.622   109272365.906         -25.047          29.104  
G22  22401770.177                        1478.470          17.897  
G27  24041815.997   126340623.898       -3454.898          26.338    24041820.794                       -2579.512          20.577  
G32  22665839.966                        -226.301          20.760  
> 2022  9 18  8  9 55.9996798  0 15
C27  22299623.992   116119975.9381       1904.591          31.467  
C28  21928991.775                        -892.239          16.902  
C33  22426176.881   116778961.477        -639.099          28.299  
E03                                                                  24878768.487                        1069.902          30.347  
E15                                                                  23530960.355   123656009.0081       -627.144          35.466  
G01  20467239.125   107556083.320        1649.928          32.681    20467240.324    80317851.570        1232.055          33.617  
G03  22100580.387                        3162.508          21.994    22100572.592                        2362.466          24.174  
G08  21415569.310   112539564.094       -2205.690          29.772    21415567.811                       -1646.607          23.672  
G10  24475714.615   128620736.500       -3083.398          34.256    24475715.815                       -2302.557          25.936  
G14  23205417.824                         274.092          23.947  
G17  24582814.272   129183576.945        3516.591          24.108  
G21  20793900.782   109272705.203         -24.204          28.686  
G22  22401514.754                        1477.764          19.285  
G27  24042538.797                       -3454.071          25.022    24042539.396                       -2579.177          22.377  
G32  22665952.388   119110328.9531       -227.887          23.564  
> 2022  9 18  8  9 56.9996799  0 14
C27  22299286.725   116118227.109        1904.947          30.459  
C33  22426326.177   116779756.445        -638.858          28.300  
E03                                                                  24878588.911   130737888.3981       1080.853          30.635  
E15                                                                  23531112.350   123656793.398        -626.839          34.854    23531098.859                        -471.068          26.341  
G01  20466954.023   107554590.516        1650.349          31.394    20466956.121    80316736.852        1232.379          33.974  
G03  22100012.580                        3162.042          20.175    22099999.689    86725154.9531       2362.003          23.520  
G08  21416016.001   112541926.992       -2205.355          29.069    21416017.200                       -1647.215          24.020  
G10  24476329.789   128623976.906       -3082.860          34.280    24476331.588                       -2302.060          26.575  
G14  23205396.538                         274.458          22.270  
G17  24582176.313                        3521.024          22.112  
G21  20793936.158   109272886.570         -23.825          29.602  
G22  22401273.121                        1475.777          20.407  
G27  24043228.020                       -3453.716          24.260    24043224.422    94350777.7731      -2579.347          20.992  
G32  22666019.541   119110714.398        -227.898          25.908  
> 2022  9 18  8  9 57.9996801  0 16
C27  22298982.735   116116634.156        1905.166          30.018  
C33  22426510.250   116780707.656        -638.995          28.453  
E03                                                                  24878450.107   130737122.430        1081.050          30.978  
E05                                                                  26865514.391                       -1561.949          28.618  
E15                                                                  23531290.726   123657735.016        -626.536          34.546    23531295.823                        -470.255          30.398  
E21                                                                  26482666.831                       -1174.632          24.874  
G01  20466699.499   107553255.195        1650.394          31.054    20466703.696    80315739.648        1232.481          33.669  
G03  22099481.347                        3162.641          18.302    22099460.362                        2361.915          23.553  
G08  21416497.767   112544447.445       -2205.375          28.607    21416497.467    84042948.3831      -1646.791          24.295  
G10  24476976.742   128627374.375       -3082.392          34.289    24476978.840    96052922.4381      -2301.787          27.063  
G14  23205404.333                         272.297          22.254  
G17  24581570.733                        3517.535          21.723  
G21  20794000.613   109273225.258         -23.605          29.641  
G22  22401054.273                        1474.071          22.368  
G27  24043943.324                       -3453.823          23.495    24043941.526    94353591.805       -2578.743          20.730  
G32  22666129.265   119111257.516        -228.038          25.616    22666131.064                        -173.351          19.285  
> 2022  9 18  8  9 58.9996802  0 17
C27  22298648.467   116114884.313        1905.960          29.665  
C33  22426663.744   116781502.039        -638.267          28.261  
E03                                                                  24878270.232   130736198.219        1081.756          30.873  
E05                                                                  26865845.962                       -1561.949          28.838  
E15                                                                  23531440.323   123658518.180        -625.622          34.523    23531444.820                        -466.305          30.996  
E21                                                                  26482925.852   139168682.2501      -1170.039          25.556  
E34                                                                  27308278.172                       -2079.022          25.530  
G01  20466416.495   107551761.531        1651.212          31.030    20466418.293    80314624.258        1233.039          33.715  
G03  22098892.255                        3162.759          17.534    22098886.259                        2363.349          23.437  
G08  21416944.758                       -2203.502          28.827    21416947.156    84044712.430       -1646.398          25.212  
G10  24477594.314   128630613.305       -3081.386          34.227    24477595.213    96055341.102       -2301.019          26.793  
G14  23205381.848                         276.055          22.932  
G17  24580935.173                        3519.308          21.408  
G21  20794035.689                         -21.618          29.366  
G22  22400800.948                        1476.637          23.219  
G27  24044634.046                       -3451.632          24.056    24044627.451    94356287.898       -2578.448          20.364  
G32  22666192.821   119111642.523        -227.460          26.211    22666207.511                        -175.099          19.365  
> 2022  9 18  8  9 59.9996804  0 18
C27  22298340.580   116113288.398        1908.128          29.664  
C33  22426843.919   116782450.508        -636.262          28.213  
E03                                                                  24878126.631   130735429.445        1083.848          31.006    24878125.732                         810.796          23.304  
E05                                                                  26866203.614   141182836.6021      -1555.967          28.780  
E14                                                                  17414363.487                        1097.561          29.092  
E15                                                                  23531617.500   123659456.555        -623.293          34.599    23531622.896    92343072.1641       -465.450          31.223  
E21                                                                  26483204.359   139170165.570       -1168.244          25.368  
E34                                                                  27308735.656   143508356.2891      -2069.689          24.816  
G01  20466164.069   107550423.250        1653.364          30.876    20466164.069    80313624.891        1234.647          33.878  
G03  22098358.625                        3168.369          18.633    22098343.935                        2364.535          23.367  
G08  21417425.325   112549327.7891      -2202.573          28.996    21417425.325    84046592.500       -1644.786          25.147  
G10  24478235.870   128634007.289       -3078.904          34.418    24478243.365    96057875.617       -2299.230          26.592  
G14  23205394.440                         278.279          22.267  
G17  24580330.491                        3522.645          20.167  
G21  20794099.844   109273741.0701        -20.475          29.205  
G22  22400576.404                        1477.830          23.001  
G27  24045351.450   126359149.6881      -3450.180          25.239    24045342.756                       -2576.210          19.868  
G32  22666296.849   119112183.289        -225.687          26.042    22666307.942                        -171.087          20.191  
> 2022  9 18  8 10  0.9996805  0 18
C27  22298002.114   116111535.391        1909.120          29.315  
C33  22426995.614   116783242.258        -635.631          28.320  
E03                                                                  24877948.854   130734502.367        1084.623          31.149    24877951.852                         810.078          23.806  
E05                                                                  26866531.587                       -1554.282          28.434    26866530.988                       -1160.168          21.928  
E14                                                                  17414169.521                        1097.561          28.504  
E15                                                                  23531765.897   123660236.281        -622.184          34.348    23531770.994    92343654.414        -464.592          31.338  
E21                                                                  26483459.183   139171490.414       -1167.293          25.415  
E34                                                                  27309158.063   143510583.039       -2069.206          24.744  
G01  20465877.768   107548926.469        1654.323          30.841    20465878.367    80312507.188        1235.363          33.698  
G03  22097786.321                        3172.542          16.844    22097770.732    86716406.6561       2365.047          23.400  
G08  21417877.112   112551686.539       -2201.207          28.286    21417874.114    84048354.383       -1644.229          25.293  
G10  24478853.742   128637242.539       -3077.702          34.480    24478856.440    96060291.516       -2298.242          26.564  
G14  23205367.159                         277.596          22.528  
G17  24579683.839                        3527.705          20.225  
G21  20794135.220   109273918.023         -19.401          29.502  
G22  22400335.970                        1478.442          23.861  
G27  24046033.777   126362755.719       -3448.485          25.120    24046029.880                       -2575.844          21.112  
G32  22666368.500   119112565.227        -224.395          25.799    22666378.393                        -166.869          20.285  
> 2022  9 18  8 10  1.9996807  0 18
C27  22297697.525   116109939.297        1908.323          29.430  
C28  21930374.718                        -886.669          16.662  
C33  22427177.888   116784191.039        -636.551          28.274  
E03                                                                  24877801.356   130733733.891        1083.563          31.571    24877804.354                         808.317          24.491  
E05                                                                  26866885.342   141186420.0631      -1555.940          29.030    26866885.942                       -1161.505          22.409  
E14                                                                  17414023.522                        1104.015          28.986  
E15                                                                  23531944.574   123661174.313        -622.940          34.562    23531949.370    92344354.914        -465.206          31.411  
E21                                                                  26483738.589   139172973.828       -1168.332          25.503  
E34                                                                  27309610.750   143512967.969       -2069.840          25.129  
G01  20465621.445   107547588.211        1653.344          30.791    20465624.443    80311507.859        1234.614          33.686  
G03  22097234.703                        3168.618          17.023    22097230.506    86714277.570        2364.372          23.295  
G08  21418356.181   112554204.406       -2202.779          28.195    21418353.482    84050234.461       -1644.788          25.343  
G10  24479502.493   128640635.977       -3078.353          34.521    24479503.992    96062825.563       -2298.764          26.827  
G14  23205375.253                         273.128          22.889  
G21  20794195.478   109274253.367         -20.263          29.615  
G22  22400112.325                        1476.305          23.579  
G27  24046748.482                       -3451.286          25.000    24046746.084    94364604.1411      -2575.981          20.253  
G32  22666469.829   119113106.461        -226.141          26.115    22666480.322                        -166.001          20.274  
> 2022  9 18  8 10  2.9996808  0 19
C27  22297362.057   116108188.648        1906.752          29.376  
C28  21930601.061                        -892.562          18.036  
C33  22427329.583                        -638.888          27.587  
E03                                                                  24877624.779   130732809.445        1081.990          31.559    24877628.676                         807.812          23.973  
E05                                                                  26867211.816   141188135.031       -1557.432          29.487    26867211.217   105432694.5161      -1162.863          21.516  
E14                                                                  17413842.748    91510436.3201       1104.584          29.002  
E15                                                                  23532092.671   123661956.133        -624.288          34.476    23532099.566    92344938.719        -466.167          31.188  
E21                                                                  26483992.513   139174301.406       -1170.036          25.600  
E34                                                                  27310036.155   143515196.586       -2071.082          25.101  
G01  20465336.942   107546093.891        1651.860          30.955    20465339.640    80310391.953        1233.552          34.067  
G03  22096685.183                        3166.121          18.642    22096656.703    86712032.102        2363.109          23.539  
G08  21418803.771   112556566.344       -2204.394          28.525    21418802.572    84051998.141       -1646.039          25.618  
G10  24480114.369   128643873.086       -3079.572          34.536    24480117.967    96065242.891       -2299.684          26.495  
G14  23205353.368                         273.793          21.838  
G17  24578427.409                        3519.713          21.185  
G21  20794229.654   109274432.656         -21.747          29.161  
G22  22399863.497   117712101.2891       1475.545          24.201  
G27  24047435.007   126370129.7031      -3450.992          25.755    24047431.709                       -2583.127          19.769  
G32  22666541.180   119113491.930        -227.936          26.274    22666554.671                        -168.137          19.506  
