     3.03           OBSERVATION DATA    M: Mixed            RINEX VERSION / TYPE
Geo++ RINEX Logger  Geo++               20220917 072811 UTC PGM / RUN BY / DATE
************************************************************COMMENT
This file was generated by the Geo++ RINEX Logger App       COMMENT
for Android devices (Version 2.1.6). If you encounter       COMMENT
any issues, please send an email to android@geopp.de        COMMENT
Filtering Mode: MORE                                        COMMENT
************************************************************COMMENT
Geo++                                                       MARKER NAME
GEODETIC                                                    MARKER TYPE
Geo++               Geo++                                   OBSERVER / AGENCY
unknown             Xiaomi              MI 8                REC # / TYPE / VERS
unknown             MI 8                                    ANT # / TYPE
  4410312.7251   193652.6421  4588668.7813                  APPROX POSITION XYZ
        0.0000        0.0000        0.0000                  ANTENNA: DELTA H/E/N
G    8 C1C L1C D1C S1C C5Q L5Q D5Q S5Q                      SYS / # / OBS TYPES
R    4 C1C L1C D1C S1C                                      SYS / # / OBS TYPES
E   12 C1B L1B D1B S1B C1C L1C D1C S1C C5Q L5Q D5Q S5Q      SYS / # / OBS TYPES
C    4 C2I L2I D2I S2I                                      SYS / # / OBS TYPES
J    8 C1C L1C D1C S1C C5Q L5Q D5Q S5Q                      SYS / # / OBS TYPES
  2022     9    17     7    28   29.9999989     GPS         TIME OF FIRST OBS
 24 R01  1 R02 -4 R03  5 R04  6 R05  1 R06 -4 R07  5 R08  6 GLONASS SLOT / FRQ #
    R09 -2 R10 -5 R11  0 R12 -1 R13 -2 R14 -7 R15  0 R16 -1 GLONASS SLOT / FRQ #
    R17  4 R18 -3 R19  3 R20  2 R21  4 R22 -3 R23  3 R24  2 GLONASS SLOT / FRQ #
G L1C                                                       SYS / PHASE SHIFT
G L5Q -0.25000                                              SYS / PHASE SHIFT
R L1C                                                       SYS / PHASE SHIFT
E L1B                                                       SYS / PHASE SHIFT
E L1C +0.50000                                              SYS / PHASE SHIFT
E L5Q -0.25000                                              SYS / PHASE SHIFT
C L2I                                                       SYS / PHASE SHIFT
J L1C                                                       SYS / PHASE SHIFT
J L5Q -0.25000                                              SYS / PHASE SHIFT
 C1C    0.000 C1P    0.000 C2C    0.000 C2P    0.000        GLONASS COD/PHS/BIS
                                                            END OF HEADER
> 2022  9 17  7 28 29.9999989  0 26
C06  40102488.525   208824181.2611       1793.944          28.804  
C09  41108045.792   214060439.4471       2110.578          31.556  
C27  21716735.117   113084737.699        -368.095          32.942  
C28  24818240.989   129235082.640       -2345.735          36.251  
C30  22651981.160                        2359.364          23.422  
C32  23892036.987                        3310.604          11.961  
C33  25092952.211   130665586.591       -2284.477          34.333  
E07                                                                  25560686.005   134322315.607        1365.092          34.615    25560690.502   100305652.131        1019.578          36.795  
E08                                                                  27414086.923   144061998.758       -1210.073          29.755    27414091.120                        -903.596          24.421  
E13                                                                  27896054.263   146594755.0511      -1996.488          29.600    27896063.257   109470143.3161      -1490.810          30.366  
E24                                                                  27237254.641   143132739.0581       1560.936          23.958  
E26                                                                                                                                  24447149.491                        -567.283          19.699  
E33                                                                  24006123.606   126153031.306        1386.787          21.594  
G01  21444034.304   112689160.8301       2660.754          30.849    21444035.503    84151000.5361       1986.930          25.600  
G08  20494287.600   107698208.1651       -702.562          30.608    20494287.300                        -523.820          25.808  
G10  22850384.708   120079563.198       -2492.346          35.121    22850391.303                       -1863.567          22.053  
G14  23678528.396                        2093.957          22.997  
G21  20850896.125                         829.280          14.707  
G22  23383689.409   122882116.577        2787.338          31.998  
G27  22264662.195   117001566.959       -2717.322          30.989    22264663.394    87371321.069       -2029.131          35.809  
G32  22869512.066   120180096.925        1566.686          36.183    22869515.964    89744892.023        1169.892          29.680  
R04  22018937.307                       -2842.308          24.205  
R05  19840462.434   106058641.573         928.227          36.432  
R12  23028891.930                        1432.952          24.967  
R20  19866156.146                        -603.033          21.246  
R21  21110611.728   112967257.788        3003.587          35.268  
> 2022  9 17  7 28 30.9999992  0 25
C06  40102237.299   208822851.271        1798.320          29.865  
C09  41107729.511   214058792.878        2114.898          30.582  
C27  21716897.305   113085570.037        -364.008          33.647  
C28  24818782.714   129237892.514       -2341.545          34.987  
C30  22651603.721                        2363.391          22.048  
C32  23891458.388                        3317.619          13.864  
C33  25093477.147   130668335.266       -2280.346          33.780  
E07                                                                  25560515.124   134321419.011        1369.222          34.691    25560520.220   100304982.766        1022.299          36.703  
E08                                                                  27414407.700   144063677.274       -1205.891          27.926    27414408.900                        -899.435          22.775  
E13                                                                  27896524.338   146597219.676       -1991.999          30.282    27896535.131   109471983.781       -1487.529          29.919  
E24                                                                  27237048.084   143131646.774        1564.910          22.024  
E26                                                                                                                                  24447378.832                        -561.660          24.094  
E33                                                                  24005952.725   126152112.641        1391.291          22.034  
G01  21443617.293   112686968.449        2665.007          28.228    21443617.293                        1988.882          23.345  
G08  20494512.444   107699379.410        -698.618          32.559    20494510.046    80424859.4271       -521.699          27.419  
G10  22850949.817   120082524.148       -2488.325          36.755    22850958.810                       -1855.725          24.197  
G14  23678229.803                        2099.693          19.996  
G21  20850829.571                         836.137          18.263  
G22  23383243.018   122879797.782        2791.422          33.552  
G27  22265271.074   117004752.685       -2713.101          32.768    22265269.874    87373700.169       -2026.166          36.674  
G32  22869303.710   120178999.025        1570.526          35.188    22869308.507    89744072.135        1172.823          30.236  
R04  22019527.598                       -2835.032          21.281  
R05  19840383.288   106058190.382         931.959          36.148  
R12  23028708.757                        1435.134          26.251  
R20  19866388.785                        -604.860          19.376  
> 2022  9 17  7 28 31.9999994  0 24
C06  40101950.697   208821359.965        1803.525          29.738  
C09  41107382.951                        2122.880          30.303  
C27  21717026.515   113086241.142        -358.886          33.985  
C28  24819289.963   129240540.834       -2336.101          35.162  
C33  25093975.402   130670922.788       -2275.303          34.526  
E07                                                                  25560313.663   134320359.922        1374.173          35.562    25560319.659   100304191.865        1026.191          36.882  
E08                                                                  27414694.302   144065193.302       -1200.944          27.550    27414698.799                        -895.009          22.676  
E13                                                                  27896965.932   146599521.199       -1986.440          29.182    27896971.029   109473702.506       -1483.435          29.512  
E24                                                                  27236798.657   143130392.491        1569.367          21.368  
E26                                                                  24447586.588                        -767.305          20.874    24447579.093                        -557.535          22.288  
E33                                                                  24005744.969   126151031.101        1396.624          21.037  
G01  21443173.000   112684613.356        2670.177          26.674    21443170.002    84147605.5651       1993.335          22.124  
G08  20494705.511   107700388.108        -693.615          33.140    20494703.412    80425612.745        -518.028          26.320  
G10  22851483.447   120085322.237       -2483.004          36.793    22851488.544    89674147.2251      -1854.358          24.962  
G14  23677894.035                        2106.777          19.842  
G21  20850738.434                         845.925          18.633  
G22  23382773.243   122877316.357        2796.509          33.675  
G27  22265845.776   117007775.703       -2707.933          31.918    22265845.176    87375957.482       -2022.022          35.352  
G32  22869065.675   120177738.660        1575.449          34.639    22869067.774    89743130.931        1176.494          30.569  
R04  22020140.674                       -2830.519          21.440  
R05  19840260.374   106057574.332         936.562          36.268  
R12  23028490.508                        1443.208          25.770  
R20  19866538.981                        -596.487          19.220  
R21  21109647.295   112962038.4001       3013.477          30.564  
> 2022  9 17  7 28 32.9999996  0 26
C05  40181660.116                         330.411          24.874  
C06  40101663.796   208819863.281        1808.904          29.313  
C09  41107037.890   214055171.4151       2125.685          31.024  
C27  21717156.026   113086907.015        -353.653          33.883  
C28  24819796.313   129243184.030       -2330.976          35.281  
C30  22650817.965                        2377.123          24.402  
C33  25094468.561   130673505.047       -2270.039          33.634  
E07                                                                  25560107.706   134319295.705        1379.301          35.523    25560116.999   100303397.180        1029.976          36.031  
E08                                                                  27414982.403                       -1195.422          26.732    27414988.698                        -892.180          22.611  
E13                                                                  27897397.334   146601817.268       -1980.985          28.599    27897406.927                       -1478.363          28.437  
E24                                                                  27236567.816                        1569.593          20.325  
E26                                                                  24447784.751                        -758.332          19.595    24447776.956                        -552.909          19.531  
E33                                                                  24005547.705                        1402.255          22.243  
G01  21442721.813   112682253.080        2675.360          29.616    21442720.014                        1998.728          24.739  
G08  20494897.678   107701391.917        -688.724          32.549    20494893.181    80426362.309        -514.274          25.319  
G10  22852013.780   120088115.044       -2477.723          34.054    22852018.277                       -1848.648          24.697  
G14  23677551.972                        2115.265          21.074  
G21  20850619.417                         852.053          19.760  
G22  23382301.969   122874829.673        2801.768          31.992  
G27  22266420.478   117010793.686       -2702.900          30.786    22266419.578    87378211.103       -2018.331          35.796  
G32  22868821.944   120176473.349        1580.395          36.906    22868828.539    89742186.036        1180.185          30.491  
R04  22020745.655                       -2824.838          24.343  
R05  19840153.048   106056953.550         941.294          37.204  
R12  23028301.039                        1451.931          25.634  
R20  19866746.138                        -589.924          19.455  
R21  21109143.644   112959340.343        3018.908          33.928  
> 2022  9 17  7 28 33.9999998  0 26
C05  40181641.229                         338.858          22.213  
C06  40101376.595   208818365.082        1810.419          29.285  
C09  41106686.833   214053356.416        2127.219          32.067  
C27  21717280.739   113087571.602        -352.368          33.634  
C28  24820305.060   129245825.575       -2329.325          36.667  
C30  22650414.444                        2375.113          24.873  
C33  25094966.216   130676085.993       -2268.726          34.736  
E07                                                                  25559904.147   134318230.206        1380.583          36.010    25559913.740   100302601.456        1031.013          36.035  
E08                                                                  27415269.304   144068213.7651      -1194.483          27.922    27415273.201   107583421.8391       -892.044          25.518  
E13                                                                  27897838.628   146604111.622       -1979.271          29.876    27897844.924   109477130.3181      -1478.024          28.984  
E24                                                                  27236327.683                        1576.262          23.411  
E26                                                                                                                                  24447978.717    95939154.2431       -553.831          20.106  
E33                                                                  24005336.351   126148856.4791       1403.332          20.817  
G01  21442267.627   112679891.247        2676.917          30.127    21442270.025    84144080.3431       1998.995          25.764  
G08  20495085.048   107702394.443        -687.442          32.445    20495085.348    80427111.029        -513.430          23.855  
G10  22852543.813   120090906.449       -2476.320          36.344    22852556.704    89678317.0101      -1849.065          21.362  
G14  23677200.615                        2112.637          22.373  
G21  20850524.682                         854.493          17.708  
G22  23381825.599   122872341.499        2803.258          30.185  
G27  22266991.283   117013810.152       -2701.381          29.789    22266993.381    87380463.625       -2017.232          36.035  
G32  22868581.510   120175206.757        1581.676          34.451    22868585.108    89741240.272        1181.054          29.556  
R04  22021355.433                       -2826.443          22.879  
R05  19840031.032   106056331.959         942.104          37.278  
R12  23028068.400   123011872.7671       1447.933          27.701  
R20  19866883.143                        -580.432          18.111  
R21  21108633.097   112956640.781        3020.411          34.451  
> 2022  9 17  7 28 35.0000001  0 26
C05  40181674.506                         341.723          22.784  
C06  40101119.972   208817022.110        1811.302          28.806  
C09  41106368.153   214051696.621        2128.125          31.170  
C27  21717439.030   113088391.752        -351.820          34.108  
C28  24820844.687   129248622.492       -2328.588          37.008  
C30  22650051.695                        2375.660          25.360  
C33  25095491.153   130678822.404       -2268.082          34.285  
E07                                                                  25559730.267   134317321.784        1381.048          33.775    25559740.460   100301923.129        1031.262          36.071  
E08                                                                  27415589.782   144069880.219       -1193.828          27.885    27415590.382                        -889.577          24.032  
E13                                                                  27898300.908   146606562.582       -1978.333          29.309    27898309.602   109478960.669       -1477.416          29.227  
E24                                                                  27236117.828   143126767.0391       1576.659          23.949  
E26                                                                                                                                  24448215.553                        -554.027          21.070  
E33                                                                  24005162.472   126147924.819        1404.286          23.546  
G01  21441849.417   112677686.412        2677.461          30.081    21441853.014    84142433.714        1999.564          26.722  
G08  20495307.194   107703554.073        -687.004          31.362    20495305.096                        -512.488          23.737  
G10  22853107.123   120093854.797       -2475.722          35.439    22853111.620                       -1846.129          22.580  
G14  23676887.932                        2111.387          21.371  
G21  20850450.334                         851.084          15.604  
G22  23381380.407   122870010.233        2803.892          30.420  
G27  22267597.763   117016983.314       -2700.537          27.741    22267595.964    87382833.320       -2016.761          36.224  
G32  22868372.255   120174097.383        1582.000          35.343    22868374.953    89740411.832        1181.376          29.130  
R04  22021975.104                       -2825.349          19.642  
R05  19839949.489   106055870.654         942.073          36.841  
R12  23027866.939                        1447.297          26.568  
R20  19867080.706                        -579.548          19.287  
R21  21108155.828   112954100.762        3021.295          35.398  
> 2022  9 17  7 28 36.0000003  0 22
C06  40100831.272   208815522.091        1812.239          29.068  
C09  41106017.996   214049879.702        2129.138          31.108  
C27  21717567.941   113089055.038        -351.066          35.103  
C28  24821350.137   129251262.308       -2327.596          35.897  
C30  22649655.670                        2376.920          25.198  
C33  25095985.511   130681401.882       -2267.259          34.674  
E07                                                                  25559528.507   134316255.203        1381.665          34.391    25559537.800   100301126.617        1031.803          36.813  
E08                                                                  27415872.187   144071388.577       -1193.274          29.232    27415875.484                        -889.750          21.675  
E13                                                                  27898738.305   146608854.929       -1977.263          30.059    27898748.199   109480672.416       -1476.456          30.367  
E33                                                                  24004952.317                        1404.669          22.834  
G01  21441402.126   112675323.039        2678.457          30.069    21441403.625                        1997.720          23.893  
G08  20495493.965   107704555.697        -686.540          31.480    20495495.764    80428724.9831       -512.820          27.804  
G10  22853638.056   120096644.638       -2474.757          36.017    22853643.152                       -1849.159          23.998  
G14  23676541.072                        2113.136          22.859  
G22  23380907.934   122867520.673        2804.644          30.988  
G27  22268170.966   117019998.276       -2699.877          30.148    22268170.067    87385084.737       -2016.127          35.504  
G32  22868131.222   120172829.823        1582.644          37.414    22868133.321    89739465.301        1181.820          29.199  
R04  22022553.404                       -2825.498          18.221  
R05  19839824.775   106055248.729         942.437          36.098  
R12  23027671.175   123009776.9491       1448.217          28.804  
R20  19867251.588                        -582.674          18.401  
R21  21107652.476   112951399.554        3022.058          34.984  
> 2022  9 17  7 28 37.0000005  0 24
C06  40100543.771   208814022.483        1811.827          29.314  
C09  41105671.136   214048063.159        2128.762          31.518  
C27  21717692.654   113089718.814        -351.557          34.746  
C28  24821858.885   129253902.564       -2328.037          35.918  
C30  22649259.344                        2377.256          22.936  
C33  25096483.466   130683981.894       -2267.792          34.495  
E07                                                                  25559326.746   134315189.239        1381.048          33.547    25559336.340   100300330.665        1031.241          37.470  
E08                                                                  27416160.287   144072897.504       -1193.843          28.919    27416163.285   107586919.6031       -891.648          22.582  
E13                                                                  27899173.604   146611147.576       -1977.563          29.935    27899183.497   109482384.407       -1476.701          30.028  
E24                                                                  27235633.064                        1577.717          19.435  
E33                                                                  24004741.263                        1403.451          22.980  
G01  21440950.039   112672960.275        2677.848          30.474    21440949.739                        2000.740          20.510  
G08  20495685.232   107705558.077        -687.296          30.981    20495686.132    80429473.515        -513.242          28.330  
G10  22854168.089   120099435.059       -2475.337          36.257    22854178.881    89684685.8521      -1848.349          24.011  
G14  23676208.602                        2111.403          25.185  
G21  20850255.768   109568785.4271        850.072          25.940  
G22  23380436.960   122865031.680        2804.076          31.189  
G27  22268742.670   117023013.793       -2700.433          30.329    22268742.970    87387336.571       -2016.544          35.432  
G32  22867894.686   120171563.164        1581.743          37.567    22867891.388    89738519.418        1181.174          28.200  
R04  22023171.276                       -2826.314          16.805  
R05  19839714.751   106054628.016         941.225          36.379  
R12  23027456.823   123008649.942        1447.295          28.247  
R20  19867391.291                        -589.558          21.152  
R21  21107144.928   112948698.684        3021.720          34.768  
> 2022  9 17  7 28 38.0000008  0 24
C06  40100284.751   208812679.742        1811.071          28.787  
C09  41105350.358   214046403.400        2128.088          32.468  
C27  21717850.945   113090539.799        -352.656          34.605  
C28  24822396.113   129256699.740       -2328.846          36.076  
C30  22648884.004                        2374.603          22.900  
C33  25097007.803   130686719.047       -2268.824          33.937  
E07                                                                  25559152.267   134314281.920        1379.946          33.777    25559162.160   100299653.072        1030.528          37.628  
E08                                                                  27416475.069   144074564.966       -1194.836          28.614    27416481.665   107588164.919        -892.381          22.791  
E13                                                                  27899639.481   146613598.339       -1978.137          29.027    27899651.473   109484214.576       -1477.234          30.617  
E24                                                                  27235424.408   143123089.8871       1575.488          21.805  
E33                                                                  24004560.189   126144813.7971       1404.017          23.966  
G01  21440534.827   112670756.020        2676.881          30.311    21440530.929                        2000.577          18.915  
G08  20495907.079   107706719.119        -688.416          30.843    20495907.379    80430340.498        -514.048          28.869  
G10  22854729.000   120102383.927       -2476.242          35.857    22854736.495    89686887.870       -1849.083          24.360  
G14  23675889.623                        2110.333          24.924  
G21  20850179.921   109568409.416         848.637          26.101  
G22  23379990.869   122862701.162        2803.144          31.083  
G27  22269347.352   117026187.853       -2701.434          30.211    22269347.651    87389706.749       -2017.242          35.963  
G32  22867680.634   120170455.259        1580.531          37.951    22867681.533    89737692.042        1180.311          27.194  
R04  22023713.301                       -2827.837          18.272  
R05  19839639.503   106054169.199         939.586          36.697  
R12  23027275.749   123007684.534        1445.839          28.558  
R20  19867623.930                        -589.713          21.123  
R21  21106667.958   112946159.204        3020.755          34.912  
> 2022  9 17  7 28 39.0000010  0 24
C06  40099999.648   208811181.757        1810.204          28.611  
C09  41105002.299   214044588.317        2127.303          32.706  
C27  21717981.055   113091205.638        -353.620          34.360  
C28  24822903.062   129259341.617       -2329.657          36.194  
C30  22648494.274                        2375.262          23.187  
C33  25097505.159   130689300.992       -2269.725          34.574  
E07                                                                  25558948.108   134313218.104        1378.900          33.293    25558959.501   100298858.729        1029.633          37.641  
E08                                                                  27416761.371   144076076.013       -1195.963          28.096    27416770.065   107589293.141        -892.932          23.423  
E13                                                                  27900077.478   146615892.281       -1978.858          28.163    27900086.472   109485927.585       -1477.720          30.247  
E24                                                                  27235185.174   143121830.446        1574.525          22.486  
E33                                                                  24004356.630                        1403.007          23.221  
G01  21440086.037   112668395.153        2675.951          30.129  
G08  20496096.847   107707723.880        -689.677          30.699    20496099.845    80431090.831        -515.043          29.062  
G10  22855260.233   120105176.203       -2477.192          35.952    22855269.226    89688973.022       -1849.862          25.136  
G14  23675548.159                        2108.565          24.657  
G21  20850077.991   109567876.827         847.673          26.335  
G22  23379517.197   122860214.070        2802.176          30.461  
G27  22269922.653   117029205.243       -2702.306          30.655    22269921.754    87391960.026       -2017.987          35.919  
G32  22867441.100   120169190.963        1579.380          37.886    22867440.201                        1178.634          27.030  
R04  22024334.770                       -2830.353          18.320  
R05  19839516.289   106053551.681         938.031          36.614  
R12  23027060.498   123006560.501        1444.321          28.456  
R20  19867802.606                        -589.985          21.874  
R21  21106160.109   112943460.103        3019.951          35.193  
> 2022  9 17  7 28 40.0000012  0 24
C06  40099710.348   208809684.489        1809.487          29.071  
C09  41104652.741   214042773.958        2126.579          32.386  
C27  21718105.468   113091872.410        -354.552          34.098  
C28  24823413.608   129261984.253       -2330.416          36.307  
C30  22648100.047                        2373.809          22.722  
C33  25097999.217   130691883.951       -2270.739          34.190  
E07                                                                  25558743.350   134312155.496        1377.692          33.369    25558757.440   100298065.158        1028.861          37.730  
E08                                                                  27417047.073   144077588.011       -1196.914          27.895    27417056.667   107590422.290        -893.859          23.212  
E13                                                                  27900513.377   146618186.879       -1979.514          28.375    27900522.370   109487641.040       -1478.165          30.002  
E24                                                                  27234939.044                        1573.346          23.230  
E33                                                                  24004148.274                        1401.374          23.371  
G01  21439636.948   112666035.168        2675.069          30.291    21439635.149                        1997.023          20.025  
G08  20496287.515   107708729.686        -690.723          29.760    20496289.914    80431841.940        -515.819          29.199  
G10  22855791.765   120107969.353       -2478.066          35.794    22855798.960    89691058.828       -1850.516          24.719  
G14  23675214.490   124414038.4291       2108.464          24.743  
G21  20849978.160                         845.591          26.301  
G22  23379043.225   122857727.897        2801.258          30.499  
G27  22270498.555   117032223.616       -2703.288          30.821    22270496.156    87394213.978       -2018.662          35.395  
G32  22867200.966   120167927.869        1578.178          37.668    22867197.968    89735804.6771       1178.553          27.247  
R04  22024955.341                       -2830.496          17.570  
R05  19839405.365   106052935.715         936.478          36.511  
R12  23026867.731   123005437.814        1442.974          29.099  
R20  19867981.882                        -588.927          22.242  
R21  21105665.452   112940761.758        3019.195          35.793  
> 2022  9 17  7 28 41.0000015  0 24
C06  40099450.428   208808343.549        1809.270          29.406  
C09  41104335.261   214041115.809        2126.478          31.781  
C27  21718264.059   113092695.731        -354.992          34.212  
C28  24823947.539   129264783.221       -2330.639          35.920  
C30  22647734.600                        2374.644          20.802  
C33  25098524.153   130694623.354       -2271.074          34.906  
E07                                                                  25558573.668   134311250.855        1377.267          32.919    25558585.659   100297389.648        1028.445          37.659  
E08                                                                  27417365.753   144079258.125       -1197.488          28.002    27417376.845   107591669.482        -894.257          23.154  
E13                                                                  27900980.753   146620639.019       -1979.515          28.596    27900991.246   109489472.223       -1478.248          31.013  
E24                                                                  27234730.688                        1572.637          22.726  
E33                                                                  24003969.598   126141709.0451       1402.208          24.199  
G01  21439217.539   112663833.138        2674.656          31.046    21439216.939                        1997.347          19.954  
G08  20496508.462   107709893.764        -691.451          29.659    20496512.660    80432711.213        -516.338          29.065  
G10  22856356.274   120110920.391       -2478.412          35.512    22856363.769                       -1851.003          24.697  
G14  23674903.006   124412403.345        2107.710          26.009  
G21  20849896.617   109566971.7301        846.581          26.255  
G22  23378607.027   122855399.651        2800.871          31.513  
G27  22271100.838   117035399.878       -2703.636          32.151    22271100.838    87396585.890       -2018.977          35.682  
G32  22866994.709   120166822.944        1577.551          38.778    22866989.613                        1177.831          27.419  
R04  22025598.396                       -2830.859          15.275  
R05  19839294.442   106052480.984         935.500          36.465  
R12  23026696.250   123004476.223        1442.023          29.617  
R20  19868176.448                        -588.791          23.274  
R21  21105182.186   112938224.128        3018.905          34.340  
> 2022  9 17  7 28 42.0000017  0 24
C06  40099164.726   208806846.925        1808.844          29.106  
C09  41103988.701   214039302.000        2126.029          31.276  
C27  21718392.070   113093363.585        -355.634          34.472  
C28  24824456.586   129267426.533       -2331.093          36.104  
C30  22647334.077                        2373.842          21.876  
C33  25099022.408   130697207.126       -2271.552          34.198  
E07                                                                  25558373.406   134310189.463        1376.476          32.911    25558383.899   100296597.006        1027.931          37.546  
E08                                                                  27417652.654   144080771.254       -1198.044          28.122    27417663.447                        -895.245          23.490  
E13                                                                  27901416.351   146622934.021       -1979.918          28.917    27901426.844   109491186.003       -1478.490          30.894  
E24                                                                  27234491.454   143118214.3101       1572.443          19.392  
E33                                                                  24003763.640                        1401.481          25.449  
G01  21438766.651   112661474.025        2674.197          32.655    21438767.550                        1994.252          19.902  
G08  20496700.030   107710901.082        -692.234          29.922    20496702.728    80433463.373        -516.870          28.383  
G10  22856884.808   120113714.374       -2478.899          35.518    22856890.204                       -1850.529          23.910  
G14  23674557.945   124410611.596        2106.834          24.479  
G21  20849798.885   109566440.917         845.897          27.015  
G22  23378131.856   122852914.426        2800.309          31.104  
G27  22271674.940   117038419.153       -2704.191          32.169    22271676.439    87398840.507       -2019.326          35.594  
G32  22866750.978   120165561.229        1576.798          37.936    22866750.678    89734037.4331       1177.471          27.811  
R04  22026138.022                       -2836.931          15.808  
R05  19839198.209   106051867.166         934.330          36.551  
R12  23026492.391   123003355.549        1440.961          28.969  
R20  19868323.646                        -590.570          23.492  
R21  21104683.332   112935526.621        3018.358          35.186  
> 2022  9 17  7 28 43.0000019  0 24
C06  40098878.724   208805350.551        1808.593          29.872  
C09  41103638.843   214037488.273        2125.947          30.892  
C27  21718521.580   113094031.852        -356.048          34.395  
C28  24824963.535   129270070.092       -2331.339          35.585  
C30  22646942.248                        2370.089          23.563  
C33  25099517.965   130699791.446       -2272.100          34.456  
E07                                                                  25558169.847   134309128.575        1375.972          32.955    25558181.239   100295804.781        1027.515          37.410  
E08                                                                  27417947.350   144082284.921       -1198.584          28.514    27417950.348                        -894.676          22.979  
E13                                                                  27901857.046   146625229.053       -1979.948          29.975    27901862.443   109492899.782       -1478.489          29.950  
E24                                                                  27234257.916   143116957.599        1571.795          20.393  
E33                                                                  24003554.085   126139536.3561       1401.283          25.771  
G01  21438316.962   112659115.448        2673.661          32.264  
G08  20496892.796   107711909.058        -692.891          30.432    20496896.094    80434216.090        -517.426          28.284  
G10  22857417.839   120116508.735       -2479.277          35.211    22857425.933                       -1852.732          23.430  
G14  23674214.382                        2101.008          22.673  
G21  20849698.754   109565910.010         845.991          25.761  
G22  23377660.882   122850429.602        2799.909          30.948  
G27  22272253.840   117041438.845       -2704.608          31.951    22272249.642    87401095.488       -2019.691          35.815  
G32  22866510.544   120164300.265        1576.048          38.378    22866509.645    89733095.783        1176.940          28.174  
R04  22026732.510                       -2837.603          15.501  
R05  19839088.785   106051254.470         933.208          36.637  
R12  23026280.738   123002235.852        1439.984          29.213  
R20  19868514.314                        -595.495          24.000  
R21  21104180.580   112932829.414        3018.057          35.646  
> 2022  9 17  7 28 44.0000022  0 24
C06  40098621.502   208804010.938        1807.942          29.859  
C09  41103319.564   214035831.340        2125.262          30.594  
C27  21718678.672   113094857.163        -356.981          34.357  
C28  24825501.063   129272870.489       -2332.068          35.813  
C30  22646573.204                        2370.921          24.324  
C33  25100043.202   130702532.674       -2272.899          34.075  
E07                                                                  25557997.467   134308226.248        1374.952          32.788    25558009.458   100295130.946        1026.770          37.244  
E08                                                                  27418263.631   144083957.189       -1199.642          27.907    27418268.728   107595178.5301       -895.885          23.582  
E13                                                                  27902322.924   146627682.221       -1980.543          30.065    27902329.219   109494731.711       -1478.994          30.076  
E24                                                                  27234042.964                        1570.515          20.696  
E33                                                                  24003378.707   126138608.133        1400.848          26.664  
G01  21437896.053   112656915.063        2673.011          31.889  
G08  20497117.041   107713075.704        -694.021          30.562    20497116.741    80435087.204        -518.179          29.493  
G10  22857978.451   120119461.567       -2480.205          35.483    22857987.445                       -1853.254          21.023  
G14  23673904.697                        2103.336          20.554  
G21  20849631.001   109565537.890         844.746          23.547  
G22  23377218.388   122848103.305        2798.923          30.903  
G27  22272857.622   117044617.004       -2705.533          32.047    22272854.324    87403468.770       -2020.348          35.495  
G32  22866299.490   120163197.935        1574.957          38.195    22866301.589    89732272.601        1176.117          28.631  
R04  22027402.846                       -2845.008          12.995  
R05  19839000.346   106050803.492         931.747          36.873  
R12  23026105.959   123001277.659        1438.625          29.082  
R20  19868716.973                        -594.210          23.896  
R21  21103714.702   112930293.398        3017.290          35.381  
> 2022  9 17  7 28 45.0000024  0 23
C06  40098334.601   208802516.107        1807.051          30.083  
C09  41102972.404   214034019.095        2124.464          30.700  
C27  21718806.683   113095527.408        -358.025          34.559  
C28  24826009.811   129275515.622       -2332.913          35.787  
C30  22646179.576   117924598.4251       2371.215          24.210  
C33  25100541.457   130705118.837       -2273.944          33.540  
E07                                                                  25557796.606   134307167.481        1373.851          32.658    25557807.998   100294340.324        1025.912          37.423  
E08                                                                  27418553.530   144085472.924       -1200.651          28.142    27418559.526   107596310.416        -896.596          23.118  
E13                                                                  27902760.021   146629978.601       -1981.296          29.783    27902766.617   109496446.544       -1479.543          30.459  
E24                                                                  27233803.130                        1568.587          20.512  
E33                                                                  24003176.047                        1399.045          26.544  
G01  21437452.361   112654558.231        2671.916          31.363  
G08  20497304.711   107714085.945        -695.157          30.495    20497310.707    80435841.663        -519.169          29.464  
G10  22858513.281   120122257.812       -2481.161          35.288  
G14  23673565.332                        2101.413          19.866  
G21  20849533.868   109565009.125         843.849          24.609  
G22  23376745.016   122845620.307        2798.082          30.905  
G27  22273431.124   117047638.537       -2706.449          32.454    22273430.525    87405725.130       -2021.069          35.447  
G32  22866062.055   120161939.279        1573.739          38.276    22866060.855    89731332.703        1175.188          28.313  
R05  19838887.324   106050193.845         930.159          36.857  
R12  23025880.515   123000160.923        1437.023          28.503  
R20  19868880.360   106247745.4091       -594.954          24.453  
R21  21103208.053   112927597.821        3016.427          35.539  
> 2022  9 17  7 28 46.0000026  0 23
C06  40098046.800   208801021.967        1806.359          30.364  
C09  41102623.446   214032207.474        2123.841          30.675  
C27  21718935.594   113096198.479        -358.852          34.403  
C28  24826517.659   129278161.457       -2333.616          35.644  
C30  22645778.754                        2369.836          24.438  
C33  25101035.515   130707705.804       -2274.747          33.455  
E07                                                                  25557597.843   134306109.715        1372.850          32.589    25557606.837   100293550.406        1025.208          37.276  
E08                                                                  27418844.029   144086989.609       -1201.601          27.938    27418845.828                        -897.545          23.691  
E13                                                                  27903198.018   146632275.531       -1981.845          29.104    27903205.513   109498161.782       -1479.949          30.453  
E24                                                                  27233560.898   143113351.4341       1568.731          20.168  
E33                                                                  24002968.291   126136439.2921       1399.224          26.347  
G01  21437004.171   112652202.158        2671.158          31.667  
G08  20497498.077   107715097.319        -696.290          30.612    20497503.474    80436596.881        -519.928          29.801  
G10  22859040.615   120125054.778       -2481.882          34.958    22859052.607                       -1853.195          19.594  
G14  23673213.975                        2108.874          19.381  
G21  20849431.939   109564481.248         842.961          25.424  
G22  23376275.541   122843138.231        2797.160          30.772  
G27  22274006.126   117050660.942       -2707.321          32.527    22274006.126    87407982.107       -2021.687          35.345  
G32  22865820.722   120160681.789        1572.575          38.563    22865821.321    89730393.656        1174.337          28.651  
R05  19838766.508   106049585.690         928.668          36.669  
R12  23025666.463   122999045.443        1435.767          28.158  
R20  19869061.435                        -596.435          24.554  
R21  21102699.905   112924902.956        3015.715          35.590  
> 2022  9 17  7 28 47.0000029  0 22
C06  40097791.377   208799684.477        1805.819          30.111  
C09  41102305.966   214030552.427        2123.376          30.790  
C27  21719095.083   113097026.455        -359.646          34.082  
C28  24827057.885   129280963.962       -2334.176          35.604  
C30  22645415.105                        2371.229          23.903  
C33  25101562.850   130710449.694       -2275.561          33.533  
E07                                                                  25557425.463   134305210.379        1371.963          32.579    25557435.655   100292878.836        1024.505          37.360  
E08                                                                  27419155.514   144088664.611       -1202.376          27.513    27419165.707   107598693.8921       -897.984          23.680  
E13                                                                  27903664.495   146634730.435       -1982.278          29.230    27903671.090   109499994.947       -1480.229          30.338  
E24                                                                  27233353.142   143112256.211        1567.849          19.625  
E33                                                                  24002792.313   126135513.445        1398.474          26.905  
G01  21436584.162   112650004.383        2670.400          32.064  
G08  20497723.521   107716267.205        -697.259          30.325    20497726.519    80437470.504        -520.688          30.067  
G10  22859606.923   120128010.079       -2482.675          35.370    22859613.819                       -1854.648          21.423  
G21  20849364.186                         841.918          26.243  
G22  23375828.251   122840814.410        2796.446          30.673  
G27  22274611.407   117053841.624       -2708.057          32.533    22274610.508    87410357.290       -2022.248          35.440  
G32  22865612.666   120159582.749        1571.665          38.685    22865611.766    89729572.922        1173.669          28.719  
R05  19838681.067   106049139.149         927.309          36.893  
R12  23025491.984   122998091.492        1434.382          27.720  
R20  19869264.694                        -597.089          24.074  
R21  21102218.738   112922369.262        3014.969          35.414  
> 2022  9 17  7 28 48.0000031  0 22
C06  40097505.974   208798191.267        1805.430          29.636  
C09  41101959.106   214028741.682        2122.964          30.685  
C27  21719225.493   113097698.989        -360.315          34.459  
C28  24827563.635   129283610.818       -2334.636          35.414  
C30  22645019.979                        2365.714          22.866  
C33  25102060.505   130713037.973       -2276.060          33.707  
E07                                                                  25557224.302   134304154.229        1371.233          32.621    25557234.495   100292090.189        1023.937          37.332  
E08                                                                  27419449.010   144090182.836       -1203.141          27.445    27419454.706                        -898.542          23.881  
E13                                                                  27904102.792   146637028.085       -1982.567          29.525    27904108.787   109501710.686       -1480.449          30.444  
E24                                                                  27233119.604                        1562.730          18.853  
E33                                                                  24002586.355   126134430.361        1398.168          26.814  
G01  21436137.171   112647649.612        2669.855          31.842  
G08  20497914.189   107717280.322        -698.033          30.380    20497918.087    80438227.115        -521.321          30.272  
G10  22860139.055   120130808.348       -2483.186          35.375    22860148.648    89708113.9251      -1854.267          21.023  
G21  20849264.654                         841.358          26.351  
G22  23375358.176   122838333.717        2795.777          30.675  
G27  22275188.808   117056865.397       -2708.688          32.778    22275185.810    87412615.277       -2022.698          35.389  
G32  22865375.530   120158327.016        1570.818          38.580    22865373.731    89728635.238        1172.974          28.648  
R05  19838579.437   106048533.560         926.102          36.922  
R12  23025287.225   122996978.320        1433.459          27.879  
R20  19869443.071                        -598.850          23.904  
R21  21101718.984   112919675.578        3014.534          35.458  
> 2022  9 17  7 28 49.0000033  0 22
C06  40097217.274   208796698.194        1805.293          29.615  
C09  41101611.347   214026930.939        2122.963          30.858  
C27  21719356.502   113098371.730        -360.521          34.540  
C28  24828073.283   129286257.739       -2334.702          35.164  
C30  22644623.353                        2367.687          23.083  
C33  25102558.760   130715626.477       -2276.284          33.953  
E07                                                                  25557024.340   134303098.459        1370.855          32.501    25557033.034   100291301.738        1023.741          37.313  
E08                                                                  27419738.010   144091701.356       -1203.436          27.546    27419742.207                        -899.534          23.331  
E13                                                                  27904540.189   146639325.670       -1982.501          29.596    27904545.285   109503426.449       -1480.473          30.611  
E24                                                                  27232888.164   143109752.6571       1566.863          19.547  
E33                                                                  24002380.398   126133347.399        1398.047          27.028  
G01  21435688.981   112645295.046        2669.650          31.922  
G08  20498104.857   107718293.885        -698.480          29.992    20498110.553    80438983.967        -521.562          30.285  
G10  22860671.486   120133606.810       -2483.378          35.856    22860675.983                       -1854.554          20.501  
G21  20849158.828   109563058.4961        842.079          26.172  
G22  23374886.303   122835853.150        2795.651          30.477  
G27  22275762.311   117059889.293       -2708.812          33.320    22275761.411    87414873.415       -2022.848          35.561  
G32  22865132.998   120157071.752        1570.348          38.417    22865134.797    89727697.880        1172.648          28.896  
R05  19838461.919   106047928.822         925.250          37.039  
R12  23025066.578   122995865.974        1432.634          27.370  
R20  19869617.550                        -598.623          24.087  
R21  21101215.932   112916981.952        3014.476          35.053  
> 2022  9 17  7 28 50.0000036  0 24
C06  40096960.352   208795361.136        1805.387          29.507  
C09  41101295.066   214025276.153        2123.115          30.747  
C27  21719512.994   113099200.723        -360.664          34.230  
C28  24828609.012   129289060.753       -2334.684          34.804  
C30  22644264.202                        2374.247          23.214  
C33  25103084.896   130718371.296       -2276.490          33.878  
E07                                                                  25556853.758   134302200.445        1370.640          32.716    25556863.052   100290631.146        1023.528          37.279  
E08                                                                  27420057.589   144093377.614       -1203.632          28.047    27420063.285   107602213.2851       -898.799          23.553  
E13                                                                  27905006.666   146641780.575       -1982.279          30.075    27905012.362   109505259.671       -1480.287          30.664  
E24                                                                  27232673.512                        1566.080          19.587  
E33                                                                  24002201.722   126132421.899        1398.126          27.101  
G01  21435271.670   112643098.125        2669.547          31.996  
G08  20498324.605   107719465.323        -698.811          29.757    20498333.599    80439858.740        -521.839          30.204  
G10  22861238.394   120136562.854       -2483.418          35.741    22861243.790                       -1854.328          20.445  
G14  23671922.469                        2099.396          18.326  
G21  20849086.578   109562689.707         841.415          26.517  
G22  23374443.809   122833530.291        2795.485          30.706  
G27  22276367.891   117063070.882       -2708.963          33.466    22276367.592    87417249.270       -2022.920          35.292  
G32  22864927.040   120155974.415        1569.963          38.419    22864925.541    89726878.415        1172.400          28.938  
R05  19838381.574   106047485.067         924.524          36.937  
R11  22478244.835                       -2152.122          23.368  
R12  23024890.000   122994914.398        1432.008          27.854  
R20  19869819.011                        -597.824          23.102  
R21  21100739.862   112914448.823        3014.403          34.756  
> 2022  9 17  7 28 51.0000038  0 23
C06  40096670.752   208793866.427        1806.928          29.511  
C09  41100945.807   214023463.754        2124.619          30.907  
C27  21719643.704   113099872.339        -359.396          34.400  
C28  24829121.357   129291706.127       -2333.155          34.750  
C30  22643861.881                        2371.810          22.530  
C33  25103580.753   130720958.551       -2275.035          33.731  
E07                                                                  25556654.097   134301143.595        1371.934          32.831    25556661.891   100289841.977        1024.459          37.297  
E08                                                                  27420346.589   144094895.063       -1202.365          28.792    27420350.786                        -897.715          23.773  
E13                                                                  27905442.564   146644076.297       -1980.638          30.317    27905449.759   109506974.003       -1479.042          30.666  
E33                                                                  24001993.965                        1400.546          26.726  
G01  21434819.583   112640742.185        2671.024          31.952  
G08  20498520.070   107720478.090        -697.683          29.554    20498527.864    80440614.994        -520.964          30.057  
G10  22861765.129   120139359.958       -2482.020          35.475    22861774.423                       -1853.311          20.194  
G14  23671583.104                        2097.938          16.976  
G21  20848993.942   109562161.877         842.913          26.130  
G22  23373971.336   122831048.450        2796.924          31.111  
G27  22276943.793   117066093.520       -2707.554          33.398    22276942.294    87419506.432       -2021.873          35.455  
G32  22864686.007   120154718.287        1571.212          38.041    22864686.607    89725940.500        1173.205          29.045  
R05  19838264.655   106046880.214         925.366          36.840  
R11  22478675.037                       -2150.181          22.927  
R12  23024682.544   122993801.789        1432.896          27.783  
R20  19869972.504                        -596.738          23.070  
R21  21100231.414   112911753.716        3015.957          34.820  
> 2022  9 17  7 28 52.0000040  0 24
C06  40096384.750   208792369.990        1808.657          29.401  
C09  41100597.748   214021649.485        2126.488          30.840  
C27  21719770.816   113100542.393        -357.835          34.571  
C28  24829626.207   129294349.786       -2331.439          34.624  
C30  22643475.748                        2369.864          21.584  
C33  25104081.406   130723544.279       -2273.508          33.672  
E07                                                                  25556452.936   134300085.391        1373.289          33.021    25556461.330   100289051.761        1025.506          37.407  
E08                                                                  27420634.390   144096410.960       -1200.813          28.824    27420638.287                        -895.863          22.946  
E13                                                                  27905878.462   146646370.159       -1978.777          30.837    27905886.557   109508686.933       -1477.640          30.405  
E24                                                                  27232198.641                        1570.310          20.618  
E33                                                                  24001784.710   126130251.2321       1401.278          26.760  
G01  21434373.492   112638384.715        2672.554          31.903  
G08  20498712.836   107721489.532        -696.358          29.195    20498718.832    80441370.327        -520.043          30.275  
G10  22862302.957   120142155.503       -2480.461          35.524    22862307.454                       -1851.875          19.833  
G14  23671239.542                        2101.260          19.205  
G21  20848890.513   109561632.476         844.486          25.729  
G22  23373500.962   122828565.103        2798.432          31.419  
G27  22277521.193   117069114.626       -2706.022          33.793    22277516.996    87421762.434       -2020.712          35.251  
G32  22864448.572   120153460.950        1572.421          38.190    22864447.372    89725001.550        1174.240          28.971  
R05  19838153.432   106046274.419         926.307          37.158  
R11  22479143.912                       -2150.900          23.543  
R12  23024485.281   122992688.046        1434.030          27.886  
R20  19870153.279                        -592.815          23.362  
R21  21099729.561   112909056.843        3017.723          34.683  
> 2022  9 17  7 28 53.0000043  0 25
C06  40096126.629   208791028.096        1810.223          29.264  
C09  41100280.868   214019989.675        2128.139          30.802  
C27  21719930.005   113101367.167        -356.444          34.340  
C28  24830165.234   129297147.976       -2329.861          34.196  
C30  22643104.305                        2377.605          20.371  
C33  25104604.544   130726284.721       -2272.113          34.017  
E07                                                                  25556278.457   134299183.298        1374.719          33.260    25556288.650   100288378.190        1026.506          37.312  
E08                                                                  27420950.971   144098083.120       -1199.534          28.796    27420960.264                        -894.820          23.287  
E13                                                                  27906341.642   146648819.831       -1977.046          30.785    27906352.134   109510516.204       -1476.336          30.283  
E24                                                                  27231989.686                        1570.590          20.300  
E26                                                                  24452036.407                        -730.139          20.264  
E33                                                                  24001610.531   126129320.848        1403.010          26.520  
G01  21433956.181   112636183.272        2674.069          31.858  
G08  20498935.582   107722657.220        -695.062          29.614    20498940.978    80442242.299        -519.037          30.239  
G10  22862864.168   120145107.061       -2478.932          35.868    22862869.265                       -1846.145          19.943  
G14  23670927.158                        2110.674          20.420  
G21  20848821.561                         846.166          26.030  
G22  23373056.969   122826237.825        2799.904          31.309  
G27  22278125.275   117072291.799       -2704.547          33.910    22278121.078    87424134.999       -2019.630          34.984  
G32  22864236.618   120152359.931        1573.645          38.317    22864237.518    89724179.306        1175.178          28.976  
R05  19838072.788   106045827.960         927.228          37.048  
R11  22479623.580                       -2154.974          22.785  
R12  23024302.107   122991733.454        1435.023          28.244  
R20  19870332.855                        -593.492          23.279  
R21  21099241.799   112906518.847        3019.271          34.243  
> 2022  9 17  7 28 54.0000045  0 25
C06  40095839.128   208789528.738        1811.578          29.500  
C09  41099928.911   214018172.396        2129.499          30.945  
C27  21720057.717   113102034.686        -355.300          33.926  
C28  24830671.284   129299788.733       -2328.537          34.077  
C30  22642709.179                        2381.215          21.885  
C33  25105100.700   130728867.822       -2270.881          34.146  
E07                                                                  25556078.195   134298122.702        1375.680          33.254    25556087.489   100287586.188        1027.292          37.302  
E08                                                                  27421245.667   144099596.610       -1198.406          28.366    27421245.367                        -894.489          23.542  
E13                                                                  27906778.439   146651110.469       -1975.554          30.457    27906787.433   109512226.738       -1475.244          30.319  
E24                                                                  27231746.854   143103797.7821       1571.681          19.528  
E26                                                                  24452227.375                        -742.373          19.668  
E33                                                                  24001402.175   126128231.584        1404.348          26.391  
G01  21433507.092   112633823.084        2675.272          31.870  
G08  20499128.948   107723666.454        -694.149          29.365    20499134.644    80442995.932        -518.343          30.429  
G10  22863392.103   120147899.849       -2477.704          35.722  
G14  23670583.596                        2109.704          18.454  
G21  20848715.734   109560727.4501        847.284          26.163  
G22  23372581.798   122823751.794        2801.115          30.889  
G27  22278696.679   117075310.187       -2703.304          33.697    22278696.979    87426388.977       -2018.688          35.189  
G32  22863997.984   120151100.371        1574.644          38.503    22863997.684    89723238.789        1175.807          29.118  
R05  19837960.066   106045220.710         927.763          37.205  
R11  22480084.961                       -2150.443          22.832  
R12  23024101.846   122990618.059        1435.683          28.704  
R20  19870503.737                        -592.365          22.986  
R21  21098757.634   112903819.107        3020.590          34.278  
> 2022  9 17  7 28 55.0000047  0 23
C06  40095549.529   208788028.132        1812.826          29.549  
C09  41099579.053   214016353.839        2130.776          30.721  
C27  21720184.229   113102701.190        -354.284          34.043  
C28  24831178.233   129302428.274       -2327.321          33.372  
C30  22642318.249                        2376.842          22.646  
C33  25105598.056   130731449.895       -2269.854          34.283  
E07                                                                  25555875.236   134297061.288        1376.498          33.221    25555884.529   100286793.439        1028.039          37.411  
E08                                                                  27421528.071   144101109.050       -1197.356          28.155    27421532.568                        -894.574          23.082  
E13                                                                  27907215.237   146653399.702       -1974.149          30.369    27907223.331   109513936.206       -1474.178          30.372  
E33                                                                  24001199.515                        1405.785          25.969  
G01  21433058.602   112631461.769        2676.399          32.010  
G08  20499317.218   107724674.850        -693.312          29.948    20499325.013    80443748.958        -517.736          30.499  
G10  22863926.633   120150691.542       -2476.609          35.925    22863932.629    89722961.6741      -1849.357          20.285  
G14  23670247.529                        2106.581          19.476  
G21  20848615.304   109560193.630         848.904          25.862  
G22  23372108.726   122821264.711        2802.167          30.816  
G27  22279268.383   117078327.570       -2702.299          33.407    22279270.182    87428642.220       -2017.953          35.239  
G32  22863758.150   120149840.014        1575.441          38.629    22863758.150    89722297.566        1176.513          28.806  
R05  19837842.248   106044612.918         928.304          36.924  
R11  22480540.945                       -2144.713          22.952  
R12  23023898.886   122989502.056        1436.290          29.265  
R20  19870685.111                        -590.312          22.822  
R21  21098245.289   112901118.168        3021.789          34.255  
> 2022  9 17  7 28 56.0000050  0 24
C06  40095292.607   208786684.009        1812.452          29.187  
C09  41099261.873   214014691.702        2130.467          30.699  
C27  21720344.019   113103524.320        -354.801          33.806  
C28  24831715.461   129305224.286       -2327.682          33.528  
C30  22641960.297                        2373.880          23.188  
C33  25106123.892   130734188.567       -2270.342          34.039  
E07                                                                  25555705.853   134296157.912        1376.002          33.333    25555713.048   100286118.855        1027.519          37.238  
E08                                                                  27421845.551   144102779.697       -1198.021          28.623    27421852.746                        -895.504          22.732  
E13                                                                  27907679.016   146655846.725       -1974.398          29.918    27907688.909   109515763.552       -1474.411          30.021  
E24                                                                  27231304.960   143101441.2471       1571.895          19.318  
E33                                                                  24001019.640   126126208.6541       1405.154          26.556  
G01  21432638.593   112629258.495        2675.900          32.507  
G08  20499540.563   107725841.444        -693.969          29.874    20499546.559    80444620.162        -518.269          30.223  
G10  22864484.547   120153641.134       -2476.967          35.869    22864493.241                       -1850.404          21.191  
G14  23669939.342                        2099.979          19.646  
G21  20848538.257   109559818.367         847.889          25.924  
G22  23371664.433   122818935.625        2801.712          30.680  
G27  22279874.264   117081502.924       -2702.728          33.041    22279874.564    87431013.421       -2018.266          35.410  
G32  22863549.194   120148737.988        1574.652          38.705    22863548.894    89721474.599        1175.902          28.981  
R05  19837758.006   106044166.548         927.140          36.705  
R11  22481023.311                       -2148.228          22.337  
R12  23023725.307   122988547.262        1435.225          29.333  
R20  19870863.787                        -592.582          23.724  
R21  21097771.317   112898578.023        3021.420          34.393  
> 2022  9 17  7 28 57.0000052  0 22
C06  40095005.705   208785185.038        1811.191          29.551  
C09  41098910.516   214012874.561        2129.360          30.644  
C27  21720476.827   113104192.772        -356.232          33.700  
C28  24832223.310   129307865.402       -2328.896          32.943  
C30  22641562.472                        2374.521          23.594  
C33  25106617.950   130736772.546       -2271.760          33.995  
E07                                                                  25555504.692   134295098.517        1374.479          33.272    25555511.587   100285327.785        1026.361          37.436  
E08                                                                  27422134.551   144104294.247       -1199.466          28.498    27422139.948   107610365.2441       -895.644          22.033  
E13                                                                  27908114.314   146658137.261       -1975.451          29.121    27908124.507   109517474.026       -1475.184          29.853  
E33                                                                  24000815.181   126125119.884        1403.854          26.345  
G01  21432191.602   112626899.044        2674.534          32.805  
G08  20499735.428   107726852.189        -695.661          30.097    20499738.426    80445374.888        -519.436          29.638  
G10  22865017.578   120156434.650       -2478.432          36.157    22865025.073                       -1852.052          19.197  
G21  20848439.626   109559287.015         846.436          25.625  
G22  23371191.960   122816450.445        2800.264          31.082  
G27  22280454.063   117084522.159       -2704.151          33.536    22280449.566    87433268.033       -2019.322          34.992  
G32  22863310.260   120147480.001        1573.071          38.642    22863309.660    89720535.207        1174.682          29.064  
R05  19837641.387   106043561.930         925.130          36.199  
R11  22481496.983                       -2151.447          22.745  
R12  23023517.251   122987434.188        1433.361          29.331  
R20  19871044.862                        -596.002          23.626  
R21  21097275.460   112895878.769        3020.104          34.409  
> 2022  9 17  7 28 58.0000055  0 23
C06  40094747.284   208783843.650        1809.717          29.595  
C09  41098593.336   214011215.000        2127.891          30.587  
C27  21720629.421   113105019.091        -357.990          33.631  
C28  24832758.139   129310664.212       -2330.481          33.054  
C30  22641200.623   117898597.5531       2372.946          23.439  
C33  25107146.484   130739514.262       -2273.387          33.984  
E07                                                                  25555332.911   134294198.568        1372.575          33.454    25555340.106   100284655.722        1024.998          37.445  
E08                                                                  27422450.233   144105968.171       -1201.299          28.132    27422457.428                        -897.767          21.500  
E13                                                                  27908585.288   146660586.780       -1976.893          28.954    27908592.184   109519303.203       -1476.242          29.952  
E33                                                                  24000634.706                        1401.704          26.417  
G01  21431771.293   112624698.782        2672.888          32.681  
G08  20499958.174   107728022.364        -697.549          30.512    20499961.172    80446248.789        -520.966          29.553  
G10  22865577.890   120159387.297       -2480.021          36.041    22865585.085                       -1854.053          19.598  
G14  23669302.583                        2096.711          18.668  
G21  20848373.072   109558914.665         844.976          25.289  
G22  23370750.666   122814124.492        2798.579          31.045  
G27  22281060.243   117087700.578       -2705.793          33.322    22281054.847    87435641.563       -2020.595          35.251  
G32  22863101.304   120146381.450        1571.177          38.609    22863100.405    89719714.885        1173.256          29.692  
R05  19837567.338   106043119.853         922.846          36.405  
R11  22482017.723                       -2156.499          23.437  
R12  23023325.983   122986483.475        1431.144          29.692  
R20  19871266.708                        -598.406          23.012  
R21  21096799.090   112893341.454        3018.590          34.402  
> 2022  9 17  7 28 59.0000057  0 23
C06  40094459.783   208782347.209        1808.661          29.636  
C09  41098244.377   214009400.355        2126.864          30.379  
C27  21720757.433   113105690.579        -359.268          33.133  
C28  24833266.587   129313307.978       -2331.546          32.318  
C30  22640797.702                        2369.663          23.867  
C33  25107646.238   130742101.163       -2274.681          34.296  
E07                                                                  25555132.650   134293142.379        1371.273          33.220    25555140.744   100283866.990        1024.022          37.654  
E08                                                                  27422738.033   144107485.790       -1202.535          28.069    27422746.428                        -898.731          22.646  
E13                                                                  27909015.491   146662879.683       -1977.819          29.299    27909026.583   109521015.431       -1476.938          29.633  
E33                                                                  24000428.149                        1400.913          26.203  
G01  21431322.204   112622342.243        2671.623          32.505  
G08  20500153.039   107729036.454        -699.006          30.337    20500154.239    80447006.040        -521.961          29.360  
G10  22866113.019   120162183.667       -2481.286          35.846  
G14  23668957.522                        2106.919          18.052  
G21  20848267.245   109558386.070         843.679          25.768  
G22  23370279.992   122811642.235        2797.340          31.028  
G27  22281631.348   117090722.709       -2707.047          33.539    22281630.148    87437898.340       -2021.487          35.523  
G32  22862861.171   120145126.914        1569.620          38.879    22862861.470    89718778.011        1172.165          29.678  
R05  19837445.922   106042519.405         920.961          36.534  
R11  22482472.208                       -2159.502          24.366  
R12  23023108.034   122985374.438        1429.325          29.555  
R20  19871445.684                        -595.933          22.926  
R21  21096298.436   112890644.941        3017.363          34.293  
> 2022  9 17  7 29  0.0000059  0 24
C06  40094171.982   208780851.779        1807.649          29.688  
C09  41097893.920   214007586.655        2125.919          30.267  
C27  21720886.943   113106363.201        -360.402          33.253  
C28  24833772.937   129315952.728       -2332.531          32.574  
C30  22640399.278                        2370.565          23.458  
C33  25108141.495   130744689.230       -2275.847          34.419  
E07                                                                  25554931.489   134292087.542        1369.921          33.288    25554938.684   100283079.319        1022.962          37.639  
E08                                                                  27423027.933   144109004.718       -1203.844          27.145    27423039.325   107613882.8741       -898.984          22.125  
E13                                                                  27909451.689   146665173.540       -1978.774          29.454    27909462.781   109522728.364       -1477.643          29.459  
E24                                                                                                                                  27230388.195                        1171.516          17.370  
E33                                                                  24000220.693                        1399.678          26.367  
G01  21430873.415   112619986.803        2670.524          32.059    21430875.813                        1990.857          18.856  
G08  20500343.408   107730051.992        -700.454          30.774    20500347.005    80447764.355        -523.025          29.134  
G10  22866643.652   120164981.143       -2482.392          35.284    22866648.149                       -1846.794          19.707  
G14  23668599.270                        2109.135          18.112  
G21  20848165.615   109557858.595         842.559          25.509  
G22  23369808.718   122809161.193        2796.126          31.060  
G27  22282206.350   117093746.090       -2708.297          32.779    22282205.150    87440156.067       -2022.437          35.120  
G32  22862624.035   120143873.842        1568.155          38.596    22862622.836    89717842.302        1170.999          29.530  
R05  19837338.896   106041920.757         919.160          36.439  
R11  22482966.566                       -2156.215          24.447  
R12  23022911.070   122984267.182        1427.543          30.004  
R20  19871602.776                        -596.213          23.679  
R21  21095800.781   112887949.483        3016.308          33.666  
> 2022  9 17  7 29  1.0000062  0 23
C06  40093913.561   208779512.885        1807.224          29.649  
C09  41097576.140   214005929.376        2125.609          30.202  
C27  21721044.634   113107192.638        -361.107          32.959  
C28  24834314.962   129318754.049       -2332.992          32.454  
C30  22640031.133                        2374.724          23.292  
C33  25108667.331   130747433.964       -2276.405          34.023  
E07                                                                  25554763.006   134291191.034        1369.134          33.306    25554768.402   100282409.828        1022.426          37.691  
E08                                                                  27423347.512   144110681.893       -1204.549          27.427    27423354.107                        -899.823          22.210  
E13                                                                  27909919.964   146667625.069       -1978.903          29.835    27909929.258   109524559.136       -1477.837          29.663  
E33                                                                  24000045.015   126121091.5411       1399.901          26.200  
G01  21430454.005   112617789.514        2669.915          31.961    21430456.704                        1990.039          18.285  
G08  20500570.051   107731225.884        -701.265          31.132    20500571.250    80448640.987        -523.697          29.454  
G10  22867203.964   120167936.699       -2482.930          34.797    22867212.358                       -1857.335          19.138  
G14  23668313.268                        2093.690          18.687  
G21  20848099.061   109557489.314         841.907          25.230  
G22  23369363.526   122806838.246        2795.573          30.595  
G27  22282808.932   117096927.558       -2708.842          32.443    22282810.132    87442531.811       -2022.808          35.154  
G32  22862415.379   120142779.045        1567.424          38.691    22862415.079    89717024.789        1170.448          30.239  
R05  19837249.558   106041483.519         918.006          36.483  
R11  22483467.220   120144794.2741      -2157.787          25.510  
R12  23022733.593   122983320.996        1426.618          30.309  
R20  19871802.138                        -595.901          24.160  
R21  21095325.910   112885415.030        3015.728          33.416  
> 2022  9 17  7 29  2.0000064  0 23
C06  40093629.958   208778018.610        1806.495          29.700  
C09  41097227.481   214004116.757        2124.838          30.191  
C27  21721173.844   113107866.849        -361.992          32.865  
C28  24834818.613   129321400.014       -2333.745          31.712  
C30  22639637.505                        2371.317          21.600  
C33  25109164.987   130750023.448       -2277.264          33.941  
E07                                                                  25554562.145   134290137.912        1368.206          33.416    25554567.841   100281623.408        1021.710          37.497  
E08                                                                  27423638.010   144112202.528       -1205.550          27.094    27423647.304                        -900.760          22.699  
E13                                                                  27910358.561   146669919.915       -1979.761          29.256    27910368.154   109526272.664       -1478.238          29.448  
E33                                                                  23999841.156                        1398.510          25.154  
G01  21430008.514   112615435.513        2669.085          32.133  
G08  20500763.117   107732243.358        -702.390          31.237    20500763.717    80449400.800        -524.523          29.479  
G10  22867736.695   120170735.577       -2483.794          34.985    22867744.790                       -1861.636          20.843  
G14  23667976.301                        2091.595          20.126  
G21  20848002.528   109556963.201         841.197          25.258  
G22  23368891.053   122804358.717        2794.613          29.905  
G27  22283383.035   117099952.325       -2709.683          32.623    22283386.333    87444790.546       -2023.446          34.734  
G32  22862176.744   120141527.889        1566.240          38.388    22862177.644    89716090.450        1169.628          30.370  
R05  19837145.230   106040887.600         916.432          36.627  
R11  22483900.420                       -2159.537          25.105  
R12  23022530.634   122982216.231        1425.052          30.690  
R20  19871969.422                        -601.591          23.687  
R21  21094814.164   112882720.837        3015.043          32.725  
> 2022  9 17  7 29  3.0000066  0 23
C06  40093340.958   208776524.586        1806.243          29.587  
C09  41096880.921   214002304.336        2124.641          30.288  
C27  21721300.956   113108541.544        -362.475          32.952  
C28  24835324.962   129324046.293       -2334.059          31.724  
C30  22639248.374                        2366.964          18.849  
C33  25109662.642   130752613.450       -2277.783          34.192  
E07                                                                  25554363.083   134289085.441        1367.555          33.882    25554367.879   100280837.484        1021.214          37.743  
E08                                                                  27423928.509   144113723.622       -1206.010          27.384    27423933.906                        -901.819          22.123  
E13                                                                  27910795.658   146672214.775       -1979.776          28.825    27910803.753   109527986.362       -1478.409          29.495  
E33                                                                  23999630.701   126118923.7371       1398.852          25.099  
G01  21429557.926   112613081.925        2668.672          31.831  
G08  20500957.383   107733261.451        -703.010          31.400    20500959.181    80450161.050        -524.961          29.511  
G10  22868271.525   120173534.900       -2484.239          35.831    22868276.921                       -1859.338          20.284  
G14  23667630.940                        2091.478          17.404  
G21  20847904.496   109556437.518         840.768          26.927  
G22  23368419.480   122801879.488        2794.313          29.212  
G27  22283959.236   117102977.551       -2710.142          32.467    22283961.934    87447049.620       -2023.784          34.847  
G32  22861941.407   120140277.475        1565.498          38.578    22861939.009    89715156.691        1169.049          30.122  
R05  19837030.110   106040292.781         915.332          36.452  
R11  22484367.196                       -2162.125          24.782  
R12  23022328.873   122981112.256        1424.262          29.530  
R20  19872132.209                        -601.057          22.326  
R21  21094313.810   112880027.058        3014.629          33.669  
> 2022  9 17  7 29  4.0000069  0 22
C06  40093084.635   208775187.215        1805.700          29.895  
C09  41096564.640   214000648.504        2124.161          30.642  
C27  21721461.945   113109373.105        -363.232          32.700  
C28  24835863.390   129326849.209       -2334.586          31.378  
C30  22638885.026                        2360.504          16.513  
C33  25110190.277   130755360.234       -2278.454          34.095  
E07                                                                  25554190.402   134288191.315        1366.752          33.343    25554197.597   100280169.771        1020.648          37.373  
E08                                                                  27424247.489   144115403.098       -1206.850          26.959    27424254.384                        -902.256          21.914  
E13                                                                  27911255.840   146674667.487       -1980.086          28.087    27911270.529   109529818.002       -1478.704          29.777  
E33                                                                  23999450.826   126117998.125        1398.238          25.390  
G01  21429138.516   112610886.549        2668.002          32.122  
G08  20501184.325   107734437.997        -703.920          32.033    20501181.327    80451039.673        -525.688          29.538  
G10  22868830.038   120176492.335       -2484.809          35.924    22868838.133                       -1850.382          20.641  
G21  20847832.546   109556070.009         840.134          27.286  
G22  23367975.787   122799558.567        2793.547          28.874  
G27  22284563.318   117106160.989       -2710.812          32.109    22284567.215    87449426.844       -2024.289          34.433  
G32  22861734.850   120139185.453        1564.647          38.710    22861731.253    89714341.251        1168.376          29.881  
R05  19836951.264   106039859.443         914.107          36.311  
R11  22484868.749                       -2161.695          24.526  
R12  23022154.994   122980169.739        1422.948          29.983  
R20  19872346.561                        -601.805          24.023  
R21  21093828.746   112877494.205        3014.127          33.372  
> 2022  9 17  7 29  5.0000071  0 22
C06  40092797.734   208773694.346        1805.089          30.140  
C09  41096214.183   213998837.021        2123.703          30.476  
C27  21721591.455   113110049.272        -363.947          32.835  
C28  24836376.035   129329496.529       -2335.101          31.429  
C33  25110688.832   130757951.652       -2279.199          34.084  
E07                                                                  25553992.539   134287140.529        1365.870          33.275    25553997.935   100279385.107        1019.954          37.296  
E08                                                                  27424539.786   144116925.875       -1207.693          27.223    27424542.185                        -902.454          21.017  
E13                                                                  27911698.034   146676963.171       -1980.600          28.678    27911707.327   109531532.307       -1479.015          29.748  
E24                                                                  27229248.384                        1557.669          20.984    27229266.671                        1165.204          17.485  
E33                                                                  23999244.269                        1397.342          25.891  
G01  21428692.725   112608534.358        2667.275          31.746  
G08  20501378.591   107735458.047        -704.966          31.677    20501377.991    80451801.307        -526.344          29.507  
G10  22869365.768   120179293.039       -2485.620          36.117    22869371.763                       -1850.643          21.114  
G21  20847738.111   109555545.728         839.366          27.904  
G22  23367503.914   122797080.855        2792.795          28.505  
G27  22285144.915   117109187.673       -2711.600          31.717    22285143.416    87451687.046       -2024.912          34.502  
G32  22861495.016   120137936.932        1563.605          38.919    22861493.517    89713408.930        1167.611          29.888  
R05  19836841.540   106039267.294         912.661          36.250  
R11  22485322.935                       -2162.614          24.235  
R12  23021945.139   122979068.325        1421.701          29.938  
R20  19872512.946                        -600.653          23.972  
R21  21093320.298   112874801.696        3013.359          33.027  
> 2022  9 17  7 29  6.0000073  0 23
C06  40092511.732   208772202.210        1804.355          30.113  
C09  41095868.222   213997026.277        2122.964          30.237  
C27  21721723.064   113110726.473        -364.982          32.897  
C28  24836883.883   129332144.661       -2335.912          31.999  
C30  22638090.576                        2370.455          18.750  
C33  25111187.087   130760543.894       -2280.022          33.812  
E07                                                                  25553790.179   134286090.807        1364.807          33.318    25553797.674   100278601.242        1019.155          37.301  
E08                                                                  27424828.486   144118449.696       -1208.737          27.749    27424830.885                        -902.682          22.372  
E13                                                                  27912134.831   146679259.584       -1981.329          29.213    27912143.225   109533247.107       -1479.510          29.841  
E24                                                                  27229016.944                        1557.053          22.240    27229031.334                        1165.398          17.744  
E33                                                                  23999037.412   126115833.8951       1396.764          26.296  
G01  21428244.235   112606183.094        2666.348          32.067  
G08  20501572.557   107736479.284        -706.153          31.687    20501570.158    80452563.871        -527.274          29.684  
G10  22869900.297   120182094.573       -2486.450          35.828    22869905.394                       -1855.275          21.682  
G21  20847636.781   109555022.340         838.472          27.231  
G22  23367032.640   122794604.087        2791.852          28.123  
G27  22285715.720   117112215.256       -2712.499          31.109    22285719.018    87453947.927       -2025.591          34.228  
G32  22861256.981   120136689.595        1562.421          38.825    22861257.581    89712477.439        1166.781          29.958  
R05  19836720.124   106038676.665         911.141          36.179  
R11  22485801.104   120157360.4531      -2162.959          24.416  
R12  23021729.288   122977968.367        1420.246          30.062  
R20  19872683.827                        -602.778          24.034  
R21  21092824.142   112872109.983        3012.563          32.792  
> 2022  9 17  7 29  7.0000076  0 24
C06  40092256.309   208770866.778        1803.762          30.389  
C09  41095548.943   213995372.117        2122.489          30.284  
C27  21721885.851   113111560.526        -365.723          33.298  
C28  24837421.711   129334949.536       -2336.546          31.570  
C30  22637722.431                        2373.007          18.477  
C33  25111713.522   130763293.073       -2280.849          33.571  
E07                                                                  25553622.895   134285199.534        1363.898          32.767    25553627.692   100277935.672        1018.505          37.414  
E08                                                                  27425145.667   144120131.843       -1209.521          27.809    27425154.960   107622192.1191       -903.248          22.860  
E13                                                                  27912601.908                       -1982.026          29.296    27912611.501   109535079.850       -1479.808          30.228  
E24                                                                  27228810.387                        1556.476          22.284  
E33                                                                  23998859.935   126114910.139        1396.383          25.325  
G01  21427825.725   112603990.051        2665.670          31.841  
G08  20501797.101   107737658.980        -707.071          31.624    20501797.101    80453444.854        -528.048          29.443  
G10  22870462.408   120185054.360       -2487.161          35.600    22870469.304                       -1860.300          21.505  
G14  23666341.832                        2093.822          19.124  
G21  20847564.531   109554657.130         837.836          27.526  
G22  23366592.545   122792285.612        2791.101          28.704  
G27  22286318.303   117115401.086       -2713.204          31.036    22286326.097    87456326.946       -2026.084          34.210  
G32  22861048.625   120135600.737        1561.484          38.579    22861050.124    89711664.329        1166.045          30.112  
R05  19836649.074   106038247.603         909.831          36.478  
R11  22486287.667                       -2166.629          24.625  
R12  23021559.006   122977029.825        1418.973          29.789  
R20  19872898.179                        -602.738          24.344  
R21  21092336.979   112869579.304        3011.955          32.561  
> 2022  9 17  7 29  8.0000078  0 24
C06  40091968.208   208769375.489        1803.509          30.279  
C09  41095203.882   213993562.164        2122.173          29.949  
C27  21722015.961   113112238.980        -366.234          33.227  
C28  24837928.660   129337598.641       -2336.886          31.498  
C30  22637322.808                        2367.035          18.049  
C33  25112210.878   130765886.680       -2281.387          33.473  
E07                                                                  25553422.334   134284151.251        1363.367          32.832    25553428.629   100277152.926        1018.036          37.388  
E08                                                                  27425434.667   144121657.025       -1210.098          28.125    27425442.161                        -904.367          22.442  
E13                                                                  27913038.705   146684010.9021      -1981.908          29.023    27913048.299   109536795.169       -1480.029          30.105  
E24                                                                  27228573.851   143087024.3831       1559.247          22.439  
E33                                                                  23998657.275   126113829.255        1395.968          25.049  
G01  21427378.135   112601639.944        2665.190          31.815  
G08  20501989.268   107738681.848        -707.783          31.531    20501989.868    80454208.683        -528.539          29.308  
G10  22870997.238   120187857.009       -2487.565          35.899    22871001.435                       -1860.612          21.197  
G14  23666000.369                        2087.937          19.117  
G21  20847465.600   109554134.839         837.375          27.197  
G22  23366121.870   122789810.066        2790.630          28.401  
G27                                                                  22286901.999    87458588.691       -2026.456          34.336  
G32  22860813.588   120134355.133        1560.688          38.503    22860812.389    89710734.145        1165.474          29.720  
R05  19836544.746   106037659.407         908.708          36.630  
R11  22486746.050                       -2165.827          24.212  
R12  23021360.244   122975932.209        1417.903          29.904  
R20  19873079.853                        -606.296          24.912  
R21  21091843.820   112866888.606        3011.548          32.751  
> 2022  9 17  7 29  9.0000080  0 24
C06  40091683.405   208767884.702        1803.006          30.389  
C09  41094855.524   213991752.546        2121.837          29.818  
C27  21722148.170   113112918.030        -366.831          33.388  
C28  24838439.506   129340248.133       -2337.273          30.918  
C30  22636923.484                        2367.590          18.167  
C33  25112711.532   130768480.795       -2281.896          33.336  
E07                                                                  25553222.972   134283103.711        1362.624          33.097    25553229.267   100276370.693        1017.524          37.370  
E08                                                                  27425725.765   144123182.904       -1210.795          27.969    27425733.560                        -904.349          22.642  
E13                                                                  27913475.803   146686308.236       -1982.251          29.209    27913485.996   109538510.654       -1480.195          30.214  
E24                                                                  27228336.415                        1558.330          21.603  
E33                                                                  23998450.418   126112748.881        1395.457          24.696  
G01  21426929.345   112599290.387        2664.642          31.724  
G08  20502184.733   107739705.441        -708.509          31.565    20502185.632    80454973.103        -529.131          29.071  
G10  22871529.070   120190660.250       -2488.157          35.799    22871534.466                       -1859.833          20.601  
G14  23665665.501                        2088.313          18.281  
G21  20847364.870   109553613.065         836.858          27.308  
G22  23365654.194                        2789.470          28.340  
G27  22287473.103   117121459.2601      -2714.247          31.134    22287478.500    87460850.893       -2026.912          34.360  
G32  22860576.752   120133110.286        1559.931          38.562    22860576.452    89709804.602        1164.833          29.863  
R05  19836429.626   106037072.433         907.486          36.668  
R11  22487215.824                       -2165.990          23.709  
R12  23021147.691   122974835.497        1416.999          30.001  
R20  19873255.831                        -609.302          24.380  
R21  21091351.561   112864198.291        3011.165          32.943  
> 2022  9 17  7 29 10.0000083  0 23
C06  40091427.083   208766550.219        1802.813          30.439  
C09  41094539.842   213990099.266        2121.610          30.302  
C27  21722310.058   113113753.707        -367.347          33.529  
C30  22636547.844                        2362.660          18.161  
C33  25113238.567   130771231.441       -2282.317          33.737  
E07                                                                  25553053.289   134282214.403        1361.934          33.290    25553060.185   100275706.572        1017.056          37.269  
E08                                                                  27426046.543   144124866.826       -1211.296          27.663    27426054.338   107625727.8751       -904.512          21.998  
E13                                                                  27913942.580   146688763.123       -1982.260          29.342    27913952.773   109540343.855       -1480.266          30.159  
E24                                                                  27228128.059                        1558.341          22.267  
E33                                                                  23998274.440   126111826.245        1395.263          24.697  
G01  21426512.634   112597098.772        2664.240          31.584  
G08  20502410.477   107740887.284        -709.217          31.197    20502409.877    80455855.719        -529.681          29.169  
G10  22872093.279   120193621.361       -2488.486          35.865    22872097.776                       -1856.224          21.368  
G14  23665359.413                        2089.790          18.458  
G21  20847292.919   109553249.311         836.380          27.227  
G22  23365214.698   122785018.0531       2789.679          28.005  
G27  22288081.682   117124646.596       -2714.709          30.279    22288084.980    87463230.999       -2027.171          34.049  
G32  22860366.598   120132023.663        1559.249          38.185    22860368.096    89708993.221        1164.316          29.929  
R05  19836351.380   106036646.767         906.435          36.683  
R11  22487699.090                       -2168.744          23.322  
R12  23020969.914   122973899.951        1415.977          29.969  
R20  19873467.185                        -605.953          24.693  
R21  21090874.591   112861668.791        3010.775          32.951  
> 2022  9 17  7 29 11.0000085  0 23
C06  40091140.481   208765059.629        1802.809          30.185  
C09  41094192.083   213988289.810        2121.675          30.397  
C27  21722439.868   113114433.400        -367.474          33.803  
C28  24839487.880   129345703.7741      -2337.510          31.288  
C30  22636159.913                        2363.112          17.912  
C33  25113737.122   130773826.111       -2282.450          33.483  
E07                                                                  25552853.028   134281167.655        1361.832          33.362    25552860.823   100274924.969        1016.893          37.438  
E08                                                                  27426335.243   144126393.357       -1211.447          27.906    27426344.237   107626867.858        -904.693          21.808  
E13                                                                  27914379.377   146691060.356       -1982.149          29.335    27914389.570   109542059.330       -1480.185          30.092  
E24                                                                  27227893.022   143083452.8051       1557.765          21.849  
E33                                                                  23998069.982   126110745.948        1395.380          25.050  
G01  21426068.641   112594749.708        2664.149          31.788  
G08  20502602.044   107741911.927        -709.558          30.868    20502605.941    80456620.863        -529.854          29.357  
G10  22872624.512   120196425.118       -2488.672          35.683    22872633.805                       -1856.235          20.656  
G21  20847195.487   109552727.986         836.409          27.527  
G22  23364741.626                        2789.487          27.753  
G27  22288656.984   117127676.526       -2714.847          29.922    22288661.781    87465493.612       -2027.323          33.892  
G32  22860132.160   120130779.904        1558.843          38.124    22860131.560    89708064.387        1164.124          30.181  
R05  19836247.052   106036061.607         905.673          36.680  
R11  22488152.076                       -2168.163          23.543  
R12  23020763.357   122972804.926        1415.313          30.024  
R20  19873608.687                        -605.632          25.080  
R21  21090377.835   112858978.876        3010.765          33.040  
> 2022  9 17  7 29 12.0000087  0 23
C06  40090854.479   208763569.237        1802.612          30.070  
C09  41093844.623   213986480.445        2121.585          30.292  
C27  21722569.678   113115113.543        -367.924          33.768  
C28  24840001.425   129348353.763       -2337.769          31.502  
C30  22635772.881                        2360.117          18.067  
C33  25114235.976   130776421.171       -2282.841          33.686  
E07                                                                  25552651.268   134280121.556        1361.184          32.994    25552661.760   100274143.756        1016.503          37.333  
E08                                                                  27426625.143   144127920.396       -1211.954          28.211    27426634.436                        -905.657          21.763  
E13                                                                  27914814.376   146693357.678       -1982.239          29.263    27914827.267   109543774.881       -1480.261          29.950  
E24                                                                  27227656.785   143082210.656        1557.234          21.646  
E33                                                                  23997865.823   126109666.078        1394.954          24.831  
G01  21425621.351   112592401.007        2663.785          31.560  
G08  20502796.010   107742937.232        -710.222          30.803    20502799.008    80457386.487        -530.334          28.930  
G10  22873158.442   120199229.134       -2488.933          35.570    22873165.337                       -1858.699          21.472  
G21  20847098.954   109552207.099         835.971          27.584  
G22  23364270.652   122780069.6751       2789.104          27.338  
G27  22289232.885   117130706.804       -2715.194          29.961    22289238.281    87467756.454       -2027.552          34.244  
G32  22859895.923   120129536.747        1558.241          38.118    22859895.624    89707136.043        1163.634          30.298  
R05  19836137.328   106035477.454         904.666          36.645  
R11  22488636.841                       -2165.449          23.386  
R12  23020560.697   122971710.704        1414.510          29.751  
R20  19873791.261   106274014.7161       -606.490          24.357  
R21  21089881.079   112856289.185        3010.540          33.186  
> 2022  9 17  7 29 13.0000089  0 24
C06  40090566.678   208762079.022        1802.434          30.241  
C09  41093496.564   213984671.234        2121.430          30.183  
C27  21722705.184   113115794.022        -368.259          33.883  
C28  24840503.877   129351003.852       -2337.870          31.089  
C30  22635380.152                        2360.935          16.988  
C33  25114733.931   130779016.522       -2283.132          33.376  
E07                                                                  25552454.604   134279075.872        1360.768          33.199    25552462.998   100273362.873        1016.173          37.477  
E08                                                                  27426915.042   144129447.895       -1212.415          28.241    27426926.734                        -905.622          22.238  
E13                                                                  27915252.073   146695655.057       -1982.295          29.332    27915264.365   109545490.401       -1480.230          29.657  
E24                                                                  27227415.752                        1556.681          21.865  
E33                                                                  23997660.765   126108586.239        1394.923          24.783  
G01  21425171.662   112590052.576        2663.515          31.512  
G08  20502987.877   107743962.958        -710.642          30.679    20502994.772    80458152.481        -530.705          29.108  
G10  22873694.171   120202033.478       -2489.260          35.660    22873697.169                       -1857.429          20.156  
G14  23664328.426                        2084.664          17.520  
G21  20847001.821   109551686.344         835.840          27.865  
G22  23363788.286   122777596.024        2788.735          26.457  
G27  22289815.682   117133737.390       -2715.501          30.401    22289814.483    87470019.576       -2027.832          34.180  
G32  22859655.190   120128294.141        1557.690          37.911    22859660.586    89706208.131        1163.202          30.507  
R05  19836035.398   106034894.180         903.787          36.562  
R11  22489116.209                       -2162.789          22.910  
R12  23020342.748   122970617.465        1413.526          29.801  
R20  19873979.530                        -606.628          25.064  
R21  21089381.325   112853599.791        3010.244          33.480  
> 2022  9 17  7 29 14.0000092  0 24
C06  40090312.754   208760745.267        1802.085          30.149  
C09  41093179.084   213983018.362        2121.201          30.240  
C27  21722863.475   113116631.186        -368.834          33.845  
C28  24841043.803   129353810.520       -2338.338          31.037  
C30  22635012.907                        2359.708          18.097  
C33  25115261.866   130781768.567       -2283.715          33.388  
E07                                                                  25552287.919   134278188.379        1360.119          33.108    25552294.215   100272700.161        1015.647          37.470  
E08                                                                  27427237.319   144131133.520       -1212.999          27.929    27427246.612                        -906.269          21.369  
E13                                                                  27915721.248   146698110.163       -1982.480          29.421    27915731.141   109547323.769       -1480.433          29.788  
E24                                                                  27227210.994                        1556.090          22.690  
E33                                                                  23997483.288   126107664.363        1394.501          24.920  
G01  21424755.550   112587862.219        2662.983          31.408  
G08  20503216.019   107745147.092        -711.507          30.357    20503219.616    80459036.660        -531.244          28.871  
G10  22874255.682   120204995.813       -2489.709          35.601    22874261.079                       -1859.417          21.686  
G14  23664017.542                        2094.001          18.319  
G21  20846930.470   109551323.762         835.207          27.839  
G22  23363349.989                        2787.937          25.964  
G27  22290419.164   117136925.994       -2715.979          30.575    22290420.963    87472400.722       -2028.211          33.763  
G32  22859450.732   120127209.874        1556.893          37.922    22859452.830    89705398.485        1162.581          30.817  
R05  19835939.765   106034472.306         902.643          36.527  
R11  22489624.357                       -2169.783          21.873  
R12  23020169.169   122969685.376        1412.521          29.943  
R20  19874182.190                        -611.518          24.452  
R21  21088913.649   112851071.223        3009.843          33.291  
> 2022  9 17  7 29 15.0000094  0 24
C06  40090024.354   208759256.015        1801.471          30.116  
C09  41092831.325   213981209.926        2120.656          30.267  
C27  21722996.882   113117313.003        -369.598          34.082  
C28  24841549.253   129356461.645       -2338.906          30.861  
C30  22634612.084                        2360.018          18.446  
C33  25115758.622   130784365.207       -2284.420          33.520  
E07                                                                  25552087.358   134277144.249        1359.214          33.150    25552095.153   100271920.438        1015.013          37.511  
E08                                                                  27427531.715   144132662.414       -1213.810          28.398    27427536.811                        -906.741          21.389  
E13                                                                  27916157.446   146700408.152       -1982.905          29.744    27916168.539   109549039.795       -1480.736          30.032  
E24                                                                  27226975.357   143078645.2851       1555.198          21.860  
E33                                                                  23997281.827                        1393.461          24.528  
G01  21424309.159   112585515.002        2662.301          31.527  
G08  20503408.486   107746174.668        -712.492          30.169    20503414.781    80459803.992        -532.042          28.933  
G10  22874789.013   120207801.343       -2490.446          35.614    22874795.908    89765608.5521      -1859.628          21.942  
G14  23663696.764                        2093.403          16.956  
G21  20846831.839   109550804.259         834.587          28.274  
G22  23362881.414   122772807.8321       2787.582          26.476  
G27  22290995.065   117139957.834       -2716.756          30.704    22290998.663    87474664.741       -2028.730          33.751  
G32  22859216.893   120125969.032        1555.926          37.770    22859216.594    89704471.838        1161.938          30.321  
R05  19835836.636   106033891.555         901.263          36.392  
R11  22490087.836                       -2178.608          21.968  
R12  23019967.108   122968594.328        1411.335          29.641  
R20  19874372.558   106276960.1471       -608.459          24.258  
R21  21088398.605   112848382.830        3009.243          33.389  
> 2022  9 17  7 29 16.0000096  0 24
C06  40089737.452   208757767.008        1801.227          30.359  
C09  41092481.167   213979401.807        2120.339          30.270  
C27  21723127.292   113117995.340        -370.117          34.147  
C28  24842062.198   129359113.080       -2339.215          31.042  
C30  22634219.056                        2366.834          19.128  
C33  25116261.374   130786962.314       -2284.887          33.400  
E07                                                                  25551890.095   134276100.692        1358.640          33.161    25551896.390   100271141.170        1014.558          37.335  
E08                                                                  27427821.614   144134191.896       -1214.399          27.862    27427829.409   107632691.4591       -906.803          21.111  
E13                                                                  27916595.443   146702706.358       -1983.122          30.003    27916605.936   109550756.023       -1480.938          30.235  
E24                                                                  27226742.119   143077405.669        1554.700          22.486  
E33                                                                  23997078.268   126105507.0731       1393.542          24.526  
G01  21423862.768   112583168.248        2661.838          31.111  
G08  20503603.051   107747202.813        -713.061          30.027    20503612.045    80460571.779        -532.496          28.939  
G10  22875325.342   120210607.323       -2490.896          35.301    22875331.038                       -1860.703          21.846  
G14  23663360.097                        2083.605          16.424  
G21  20846731.408   109550285.198         834.145          27.790  
G22  23362414.337   122770335.885        2787.031          26.584  
G27  22291571.866   117142990.175       -2717.257          30.335    22291575.164    87476929.111       -2029.080          33.577  
G32  22858980.357   120124728.936        1555.180          38.005    22858980.357    89703545.791        1161.337          30.312  
R05  19835723.614   106033311.863         900.204          36.356  
R11  22490515.040                       -2173.779          20.049  
R12  23019762.050   122967504.249        1410.367          29.893  
R20  19874537.144                        -609.417          24.292  
R21  21087903.648   112845694.763        3008.918          33.571  
> 2022  9 17  7 29 17.0000099  0 24
C06  40089482.329   208756434.455        1800.882          30.539  
C09  41092164.886   213977749.976        2120.160          30.293  
C27  21723287.081   113118834.283        -370.614          34.204  
C28  24842603.024   129361920.943       -2339.533          31.248  
C30  22633854.209                        2370.805          17.934  
C33  25116788.709   130789716.020       -2285.377          33.434  
E07                                                                  25551721.611   134275215.323        1357.995          32.998    25551728.806   100270479.974        1014.131          37.403  
E08                                                                  27428142.392   144135879.516       -1214.994          27.756    27428148.388                        -907.275          21.505  
E13                                                                  27917063.719   146705162.334       -1983.350          30.402    27917073.912   109552589.968       -1481.010          30.151  
E24                                                                  27226539.759   143076324.276        1554.019          22.982    27226546.054                        1160.394          17.104  
E33                                                                  23996901.391   126104586.374        1393.325          24.642  
G01  21423445.457   112580979.532        2661.342          31.144  
G08  20503829.994   107748389.260        -713.821          30.100    20503837.788    80461457.722        -533.008          28.955  
G10  22875887.752   120213571.276       -2491.327          35.306    22875892.849                       -1860.411          21.368  
G14  23663049.512                        2079.350          16.884  
G21  20846664.554   109549924.111         833.713          27.766  
G22  23361978.739                        2785.780          27.240  
G27  22292178.646   117146180.457       -2717.656          29.944    22292182.543    87479311.449       -2029.403          33.632  
G32  22858773.500   120123647.083        1554.479          37.877    22858775.299    89702737.950        1160.776          30.366  
R05  19835648.067   106032893.558         899.074          36.243  
R11  22490996.807                       -2171.875          20.481  
R12  23019598.963   122966575.406        1409.274          30.013  
R20  19874720.018                        -607.551          23.922  
R21  21087424.880   112843167.556        3008.482          33.487  
> 2022  9 17  7 29 18.0000101  0 23
C06  40089196.926   208754946.020        1800.654          30.363  
C09  41091819.226   213975942.308        2119.888          30.449  
C27  21723415.093   113119517.602        -371.099          33.574  
C28  24843110.273   129364573.043       -2339.881          30.670  
C33  25117285.765   130792314.025       -2285.786          33.433  
E07                                                                  25551520.450   134274172.972        1357.436          33.180    25551530.044   100269701.653        1013.611          37.564  
E08                                                                  27428433.491   144137410.096       -1215.495          27.738    27428443.084   107635094.7451       -907.802          21.079  
E13                                                                  27917501.416   146707460.858       -1983.440          30.334    27917511.009   109554306.419       -1481.161          30.068  
E24                                                                  27226303.522                        1553.669          22.714    27226309.218                        1158.450          18.272  
E33                                                                  23996697.232                        1392.798          24.080  
G01  21422996.668   112578633.594        2661.023          31.115  
G08  20504027.557   107749418.860        -714.515          30.139    20504034.452    80462226.607        -533.595          28.993  
G10  22876421.983   120216378.093       -2491.733          35.326    22876423.781                       -1861.200          21.751  
G14  23662725.436                        2080.440          17.093  
G21  20846567.422   109549405.882         833.313          27.846  
G22  23361505.067   122765550.8991       2786.195          26.762  
G27  22292759.644   117149213.654       -2718.113          29.932    22292759.644    87481576.544       -2029.805          33.482  
G32  22858539.962   120122408.441        1553.726          37.901    22858539.063    89701812.937        1160.302          30.411  
R05  19835531.747   106032315.997         898.074          35.903  
R11  22491438.101                       -2169.109          20.395  
R12  23019394.505   122965487.368        1408.325          30.055  
R20  19874895.396                        -610.659          24.718  
R21  21086920.029   112840480.217        3008.189          33.508  
> 2022  9 17  7 29 19.0000103  0 23
C06  40088913.922   208753457.180        1801.060          30.520  
C09  41091472.665   213974134.098        2120.429          30.245  
C27  21723546.402   113120200.657        -370.835          33.504  
C28  24843619.620   129367224.626       -2339.363          30.163  
C33  25117782.821   130794911.775       -2285.531          33.473  
E07                                                                  25551327.084   134273130.484        1357.571          33.126    25551331.881   100268923.127        1013.816          37.546  
E08                                                                  27428728.187   144138940.377       -1215.198          27.756    27428730.585   107636237.525        -907.490          21.037  
E13                                                                  27917940.912   146709758.815       -1982.873          30.279    27917948.107   109556022.414       -1480.705          30.081  
E24                                                                  27226068.785   143073847.3571       1553.527          23.149    27226072.682                        1161.364          17.330  
E33                                                                  23996489.176                        1393.602          24.628  
G01  21422552.376   112576287.379        2661.299          30.944  
G08  20504221.523   107750448.378        -714.434          30.479    20504228.418    80462995.420        -533.524          29.499  
G10  22876956.812   120219184.506       -2491.329          35.191    22876962.209                       -1860.938          21.348  
G14  23662382.773                        2086.667          16.528  
G21  20846462.494   109548887.299         833.667          27.733  
G22  23361034.093   122763079.659        2786.324          26.504  
G27  22293333.147   117152246.556       -2717.819          29.622    22293337.643    87483841.377       -2029.542          33.258  
G32  22858303.726   120121169.621        1553.904          37.959    22858303.726    89700887.901        1160.326          30.680  
R05  19835428.619   106031738.764         897.745          36.097  
R11  22491912.973                       -2174.229          18.364  
R12  23019193.044   122964399.390        1408.266          30.154  
R20  19875071.374                        -610.679          24.965  
R21  21086419.076   112837792.526        3008.541          33.959  
> 2022  9 17  7 29 20.0000106  0 22
C06  40088656.101   208752124.328        1801.181          30.516  
C09  41091155.185   213972481.768        2120.659          30.451  
C27  21723707.690   113121039.909        -370.922          33.536  
C28  24844157.448   129370032.252       -2339.297          30.096  
C33  25118314.653   130797665.659       -2285.554          33.368  
E07                                                                  25551153.505   134272245.688        1357.422          33.350    25551163.398   100268262.475        1013.587          37.579  
E08                                                                  27429043.568   144140628.458       -1215.454          27.776    27429053.761                        -907.911          20.876  
E13                                                                  27918407.389   146712214.055       -1982.614          30.204    27918415.783   109557855.855       -1480.506          30.145  
E24                                                                  27225858.330   143072766.442        1553.540          23.246    27225868.523                        1159.155          17.747  
E33                                                                  23996315.896                        1394.033          24.293  
G01  21422136.563   112574098.732        2661.273          30.950  
G08  20504449.365   107751635.683        -714.679          30.478    20504456.260    80463882.009        -533.653          29.385  
G10  22877522.821   120222148.465       -2491.333          35.022    22877526.118                       -1860.729          20.959  
G21  20846393.542   109548526.357         833.568          27.383  
G22  23360592.498   122760765.876        2786.409          25.488  
G27  22293937.528   117155437.038       -2717.856          29.491    22293943.524    87486223.867       -2029.555          32.924  
G32  22858098.668   120120088.733        1553.515          37.918    22858098.368    89700080.741        1160.095          30.826  
R05  19835356.069   106031322.462         897.071          36.116  
R11  22492481.079                       -2171.830          19.377  
R12  23019024.261   122963472.233        1407.588          29.987  
R20  19875271.336   106281932.8991       -610.114          24.958  
R21  21085949.901   112835265.156        3008.645          33.790  
> 2022  9 17  7 29 21.0000108  0 22
C06  40088369.799   208750635.212        1801.336          30.439  
C09  41090806.826   213970673.213        2120.775          30.339  
C27  21723840.198   113121723.154        -371.026          33.103  
C28  24844668.294   129372683.677       -2339.205          30.173  
C33  25118813.807   130800263.455       -2285.577          33.485  
E07                                                                  25550960.438   134271203.601        1357.171          33.073    25550964.635   100267484.165        1013.601          37.572  
E08                                                                  27429339.164   144142159.129       -1215.588          27.561    27429343.061   107638641.0181       -907.739          20.462  
E13                                                                  27918844.486   146714511.498       -1982.360          30.694    27918851.981   109559571.465       -1480.320          29.873  
E24                                                                  27225621.195   143071528.216        1553.310          23.086  
E33                                                                  23996108.440                        1393.591          24.253  
G01  21421687.474   112571752.533        2661.283          30.785  
G08  20504648.727   107752665.741        -714.973          30.813    20504650.526    80464651.232        -533.934          29.180  
G10  22878054.952   120224954.920       -2491.372          35.403    22878059.449    89778418.0301      -1860.324          21.085  
G21  20846294.910   109548007.746         833.694          27.602  
G22  23360119.426                        2785.760          24.262  
G27  22294516.727   117158470.027       -2717.905          29.383    22294520.625    87488488.706       -2029.549          32.907  
G32  22857860.632   120118850.524        1553.292          37.889    22857863.031    89699156.120        1159.910          30.743  
R05  19835238.550   106030746.529         896.445          35.798  
R11  22492933.166                       -2169.296          20.332  
R12  23018808.111   122962385.401        1407.120          29.915  
R20  19875460.805   106282863.625        -610.101          24.396  
R21  21085450.746   112832577.232        3008.774          33.801  
> 2022  9 17  7 29 22.0000110  0 23
C06  40088082.898   208749146.388        1801.044          30.455  
C09  41090459.966   213968864.826        2120.607          30.204  
C27  21723965.212   113122406.840        -371.465          33.165  
C28  24845178.841   129375335.314       -2339.417          29.966  
C30  22631919.048                        2362.415          20.536  
C33  25119310.863   130802861.722       -2286.047          33.774  
E07                                                                  25550760.776   134270161.937        1356.748          33.507    25550766.772   100266706.377        1013.078          37.543  
E08                                                                  27429629.363   144143690.208       -1215.995          27.758  
E13                                                                  27919283.682   146716809.064       -1982.482          30.590    27919290.877   109561287.142       -1480.386          30.252  
E24                                                                  27225388.556                        1552.945          23.694    27225396.350                        1155.070          17.415  
E33                                                                  23995903.082                        1393.135          23.895  
G01  21421243.782   112569406.741        2660.876          30.681  
G08  20504845.391   107753696.444        -715.619          31.085    20504846.290    80465420.899        -534.377          29.100  
G10  22878588.882   120227761.752       -2491.748          35.082    22878590.681                       -1860.331          20.844  
G21  20846197.478   109547489.562         833.269          27.924  
G22  23359653.249   122755823.7821       2785.932          24.428  
G27  22295089.631   117161503.381       -2718.270          29.550    22295099.224    87490753.914       -2029.919          32.940  
G32  22857626.494   120117613.005        1552.604          37.863    22857627.094    89698231.980        1159.431          30.798  
R05  19835141.717   106030171.663         895.379          35.782  
R11  22493336.387                       -2174.433          19.880  
R12  23018608.149   122961299.592        1406.096          29.916  
R20  19875631.986                        -610.155          24.908  
R21  21084942.598   112829889.668        3008.415          33.717  
> 2022  9 17  7 29 23.0000113  0 23
C06  40087826.575   208747813.840        1800.877          30.515  
C09  41090141.887   213967212.685        2120.471          30.271  
C27  21724129.798   113123247.021        -371.852          33.085  
C28  24845716.069   129378143.318       -2339.674          29.795  
C30  22631562.295                        2364.369          21.020  
C33  25119842.695   130805616.399       -2286.348          33.657  
E07                                                                  25550593.192   134269278.365        1356.198          33.326    25550598.289   100266046.621        1012.691          37.585  
E08                                                                  27429951.939   144145379.344       -1216.510          28.068    27429957.036                        -909.222          22.289  
E13                                                                  27919749.260   146719264.216       -1982.526          30.644    27919757.054   109563120.577       -1480.500          30.231  
E24                                                                  27225179.900                        1552.384          23.325  
E33                                                                  23995730.402   126098431.7351       1393.197          23.744  
G01  21420827.370   112567218.790        2660.576          31.010  
G08  20505073.833   107754885.162        -716.091          31.554    20505072.933    80466308.604        -534.770          29.066  
G10  22879148.595   120230726.348       -2491.970          34.998    22879158.788                       -1861.111          20.695  
G21  20846126.727   109547129.193         832.994          27.899  
G22  23359206.858   122753510.817        2785.591          24.633  
G27  22295698.509   117164694.646       -2718.639          29.830    22295703.606    87493136.913       -2030.064          32.880  
G32  22857419.638   120116533.617        1552.013          37.842    22857422.935    89697425.955        1158.960          30.690  
R05  19835062.272   106029758.013         894.419          35.568  
R11  22493877.213                       -2179.314          20.465  
R12  23018434.270   122960374.701        1405.323          29.702  
R20  19875823.853                        -612.481          24.640  
R21  21084475.821   112827362.708        3008.234          33.867  
> 2022  9 17  7 29 24.0000115  0 23
C06  40087541.173   208746325.262        1800.798          30.157  
C09  41089796.226   213965404.477        2120.427          30.123  
C27  21724260.208   113123931.376        -372.136          32.717  
C28  24846224.217   129380795.308       -2339.770          29.056  
C30  22631166.869                        2364.409          21.025  
C33  25120338.851   130808215.155       -2286.536          33.655  
E07                                                                  25550394.130   134268237.659        1355.790          33.526    25550400.426   100265269.484        1012.427          37.613  
E08                                                                  27430243.637   144146911.235       -1216.807          27.798    27430251.732                        -908.342          21.690  
E13                                                                  27920186.357   146721561.801       -1982.502          30.651    27920196.250   109564836.275       -1480.408          30.411  
E24                                                                  27224940.966                        1552.254          22.766    27224957.454                        1159.054          19.054  
E33                                                                  23995525.643                        1393.564          24.027  
G01  21420381.279   112564873.605        2660.269          30.903  
G08  20505269.897   107755916.927        -716.681          31.603    20505269.897    80467079.014        -535.120          29.211  
G10  22879688.521   120233533.716       -2492.284          35.067    22879692.119                       -1859.931          19.865  
G21  20846031.992   109546611.479         832.798          27.786  
G22  23358739.481   122751040.526        2785.375          24.213  
G27  22296278.907   117167728.589       -2718.859          29.896    22296281.905    87495402.518       -2030.315          32.473  
G32  22857186.999   120115297.232        1551.469          37.670    22857186.699    89696502.638        1158.607          30.576  
R05  19834951.649   106029184.970         893.555          35.241  
R11  22494329.899                       -2176.805          20.447  
R12  23018226.214   122959290.462        1404.526          29.831  
R20  19876000.131                        -611.574          24.621  
R21  21083962.576   112824675.536        3008.022          33.725  
> 2022  9 17  7 29 25.0000117  0 23
C06  40087256.969   208744835.244        1802.237          30.230  
C09  41089446.368   213963594.754        2121.943          29.947  
C27  21724389.118   113124614.525        -370.929          32.521  
C28  24846732.665   129383445.830       -2338.303          28.930  
C30  22630778.038                        2366.456          20.598  
C33  25120838.605   130810812.778       -2285.403          33.481  
E07                                                                  25550194.169   134267195.823        1356.920          33.602    25550202.263   100264491.417        1013.357          37.710  
E08                                                                  27430533.237   144148441.932       -1215.613          27.609    27430541.331                        -907.904          21.082  
E13                                                                  27920623.455   146723857.786       -1980.901          30.809    27920630.949   109566550.816       -1479.251          29.811  
E24                                                                  27224711.325                        1552.857          23.068    27224723.616                        1161.065          17.800  
E33                                                                  23995322.684   126096274.3371       1394.506          23.583  
G01  21419933.389   112562526.966        2661.723          31.161  
G08  20505468.659   107756947.541        -715.530          31.967    20505465.662    80467848.685        -534.381          29.299  
G10  22880221.552   120236339.711       -2490.912          35.173    22880225.150                       -1859.288          20.169  
G21  20845932.461   109546092.558         834.006          27.787  
G22  23358266.409   122748569.069        2786.541          24.821  
G27  22296855.708   117170761.187       -2717.514          29.718    22296859.306    87497667.208       -2029.400          32.591  
G32  22856950.163   120114059.715        1552.601          37.675    22856951.362    89695578.527        1159.401          30.922  
R05  19834836.229   106028611.224         894.258          35.323  
R11  22494788.582                       -2172.981          20.430  
R12  23018025.952   122958205.406        1405.343          29.997  
R20  19876184.504                        -609.624          24.800  
R21  21083467.020   112821986.973        3009.413          33.888  
> 2022  9 17  7 29 26.0000120  0 23
C06  40087000.647   208743499.478        1804.096          30.265  
C09  41089130.987   213961939.227        2123.856          30.087  
C27  21724550.706   113125452.067        -369.213          32.699  
C28  24847273.191   129386250.595       -2336.436          29.276  
C30  22630416.788                        2368.713          21.581  
C33  25121365.640   130813564.690       -2283.583          33.375  
E07                                                                  25550025.685   134266309.907        1358.542          33.691    25550034.079   100263829.869        1014.483          37.816  
E08                                                                  27430855.514   144150128.495       -1213.937          27.665    27430862.709                        -905.789          20.854  
E13                                                                  27921090.531   146726309.247       -1978.835          30.951    27921097.127   109568381.459       -1477.708          30.012  
E24                                                                  27224505.967                        1555.412          23.423    27224515.860                        1166.363          17.875  
E33                                                                  23995141.609   126095350.461        1396.503          23.999  
G01  21419516.977   112560336.205        2663.387          30.870  
G08  20505695.602   107758134.223        -714.056          31.698    20505693.204    80468734.896        -533.276          29.077  
G10  22880783.363   120239301.474       -2489.137          35.168    22880790.858                       -1857.953          20.711  
G21  20845860.211   109545729.247         835.937          27.702  
G22  23357830.211   122746253.342        2788.353          24.911  
G27  22297463.687   117173949.634       -2715.820          29.613    22297466.685    87500048.207       -2028.064          32.172  
G32  22856745.704   120112978.273        1554.068          37.629    22856746.004    89694770.985        1160.477          30.776  
R05  19834762.779   106028196.509         895.484          35.145  
R11  22495295.231                       -2170.730          20.598  
R12  23017846.077   122957279.180        1406.657          30.225  
R20  19876370.375   106287840.1181       -608.664          24.567  
R21  21082996.046   112819456.828        3011.420          33.773  
> 2022  9 17  7 29 27.0000122  0 23
C06  40086711.647   208742006.128        1805.570          30.432  
C09  41088782.628   213960126.116        2125.330          30.337  
C27  21724679.617   113126132.272        -367.985          32.601  
C28  24847780.140   129388897.886       -2335.071          29.723  
C30  22630022.861                        2366.275          21.288  
C33  25121866.893   130816159.224       -2282.315          33.843  
E07                                                                  25549827.822   134265265.228        1359.763          33.399    25549834.717   100263049.816        1015.343          37.665  
E08                                                                  27431147.212                       -1212.517          27.639    27431152.608                        -905.132          20.890  
E13                                                                  27921526.729   146728601.666       -1977.335          30.732    27921534.524   109570093.312       -1476.563          30.176  
E24                                                                  27224268.831   143064413.1251       1555.903          23.298    27224276.925                        1164.080          18.176  
E33                                                                  23994938.650                        1398.035          23.300  
G01  21419073.584   112557986.549        2664.740          30.804  
G08  20505891.067   107759162.328        -713.021          31.851    20505888.369    80469502.609        -532.424          29.013  
G10  22881317.593   120242104.292       -2487.734          35.157    22881323.889    89791224.4831      -1857.800          21.053  
G21  20845763.378   109545207.154         837.177          27.992  
G22  23357363.434   122743778.787        2789.639          25.737  
G27  22298035.691   117176979.274       -2714.557          29.774    22298042.287    87502310.567       -2027.069          32.202  
G32  22856508.269   120111738.299        1555.059          37.644    22856509.768    89693845.012        1161.263          30.679  
R05  19834651.856   106027620.846         896.176          34.964  
R11  22495766.205                       -2170.360          21.022  
R12  23017654.509   122956192.113        1407.355          30.021  
R20  19876534.062                        -608.978          24.860  
R21  21082481.901   112816764.848        3012.830          33.662  
> 2022  9 17  7 29 28.0000124  0 23
C06  40086425.045   208740513.283        1805.064          30.680  
C09  41088435.168   213958313.356        2124.980          30.423  
C27  21724815.423   113126813.115        -368.624          32.763  
C28  24848290.387   129391545.584       -2335.479          29.688  
C30  22629634.930                        2366.911          21.693  
C33  25122362.750   130818754.435       -2282.992          33.879  
E07                                                                  25549628.760   134264221.404        1358.908          33.435    25549636.255   100262270.249        1014.857          37.634  
E08                                                                  27431440.709   144153184.8971      -1213.514          27.314    27431444.606   107646874.5761       -906.210          20.633  
E13                                                                  27921962.628   146730894.375       -1977.625          30.582    27921970.422   109571805.360       -1476.758          30.230  
E24                                                                  27224031.695                        1553.690          23.601    27224044.586                        1158.201          17.858  
E33                                                                  23994730.294   126093185.3911       1397.383          23.349  
G01  21418623.895   112555637.521        2664.111          30.953  
G08  20506085.632   107760191.313        -713.901          32.390    20506081.735    80470270.972        -533.073          28.883  
G10  22881854.522   120244907.804       -2488.428          35.029    22881855.421    89793317.890       -1858.117          21.576  
G21  20845663.847   109544685.685         836.552          28.345  
G22  23356894.858   122741304.929        2788.942          26.032  
G27  22298610.393   117180009.498       -2715.139          29.590    22298618.787    87504573.353       -2027.496          31.919  
G32  22856276.229   120110499.130        1554.253          37.592    22856273.231    89692919.727        1160.575          30.954  
R05  19834547.828   106027046.432         894.926          34.860  
R11  22496266.259                       -2168.938          21.208  
R12  23017442.856   122955106.129        1406.271          30.635  
R20  19876719.334                        -607.597          24.482  
R21  21081986.345   112814073.402        3012.296          33.965  
> 2022  9 17  7 29 29.0000127  0 23
C06  40086169.622   208739177.707        1803.905          30.216  
C09  41088115.589   213956657.931        2123.755          30.497  
C27  21724972.215   113127651.527        -370.083          32.601  
C28  24848830.613   129394350.602       -2336.689          29.716  
C30  22629261.688                        2363.950          21.667  
C33  25122895.781   130821507.032       -2284.267          33.839  
E07                                                                  25549461.476   134263336.623        1357.407          33.923    25549467.772   100261609.614        1013.569          37.663  
E08                                                                  27431762.086   144154872.475       -1214.952          27.351    27431764.784   107648134.678        -907.166          20.245  
E13                                                                  27922428.205   146733345.711       -1978.710          30.748    27922436.599   109573635.919       -1477.624          30.525  
E24                                                                  27223826.637   143062092.2901       1553.572          23.176    27223839.828                        1159.218          17.839  
E33                                                                  23994553.716                        1396.259          23.517  
G01  21418208.683   112553447.416        2662.731          31.224  
G08  20506313.475   107761379.428        -715.489          32.419    20506309.577    80471158.163        -534.255          28.893  
G10  22882415.433   120247870.164       -2489.733          35.180    22882420.530    89795530.077       -1859.251          21.310  
G21  20845596.993   109544322.960         835.351          28.059  
G22  23356447.268   122738989.950        2787.606          25.624  
G27  22299218.672   117183198.682       -2716.558          29.975    22299226.167    87506954.906       -2028.618          32.010  
G32  22856063.077   120109419.203        1552.552          37.583    22856069.073    89692113.238        1159.423          31.051  
R05  19834473.480   106026634.309         892.892          34.925  
R11  22496729.738                       -2173.784          21.831  
R12  23017266.578   122954182.258        1404.303          30.167  
R20  19876932.186   106290787.8891       -609.708          25.086  
R21  21081518.968   112811543.748        3010.929          33.957  
> 2022  9 17  7 29 30.0000129  0 23
C06  40085883.021   208737686.629        1803.298          29.763  
C09  41087770.229   213954846.791        2123.359          30.299  
C27  21725104.423   113128334.591        -370.844          32.153  
C28  24849336.962   129397000.143       -2337.321          29.300  
C30  22628868.061                        2363.550          21.321  
C33  25123391.038   130824104.378       -2285.127          33.579  
E07                                                                  25549261.514   134262295.198        1356.510          34.194    25549269.609   100260831.844        1013.060          37.683  
E08                                                                  27432052.585   144156403.337       -1215.778          27.147    27432055.283                        -908.831          20.632  
E13                                                                  27922865.303   146735639.973       -1979.178          30.844    27922873.697   109575349.130       -1477.921          30.506  
E24                                                                  27223591.000   143060854.669        1552.704          23.722    27223602.392                        1157.878          18.618  
E33                                                                  23994350.757                        1395.862          23.073  
G01  21417762.292   112551100.376        2662.125          31.058  
G08  20506508.040   107762410.849        -716.337          31.948    20506505.941    80471928.430        -534.977          28.773  
G10  22882950.563   120250675.598       -2490.351          35.238    22882956.859                       -1858.918          21.426  
G21  20845500.161   109543803.484         834.560          28.037  
G22  23355977.493   122736518.122        2786.912          24.932  
G27  22299797.272   117186230.984       -2717.218          30.309    22299802.968    87509219.312       -2029.116          31.502  
G32  22855833.136   120108182.656        1551.632          37.549    22855832.836    89691189.873        1158.656          30.920  
R05  19834372.150   106026063.343         891.479          35.225  
R11  22497217.800                       -2177.975          21.771  
R12  23017075.910   122953099.438        1403.108          30.054  
R20  19877098.871                        -610.664          25.207  
R21  21081013.518   112808854.289        3010.309          34.222  
> 2022  9 17  7 29 31.0000131  0 23
C06  40085597.918   208736194.644        1804.205          29.808  
C09  41087421.570   213953034.735        2124.276          30.201  
C27  21725234.533   113129016.873        -370.063          32.479  
C28  24849846.309   129399648.722       -2336.359          29.320  
C30  22628481.628                        2363.045          21.832  
C33  25123890.792   130826700.866       -2284.268          33.593  
E07                                                                  25549065.450   134261253.078        1357.204          33.894    25549071.746   100260053.681        1013.453          37.718  
E08                                                                  27432343.983   144157933.507       -1215.086          27.498    27432347.881   107650420.4581       -907.162          20.157  
E13                                                                  27923302.700   146737933.110       -1978.053          30.839    27923310.494   109577061.541       -1477.121          30.491  
E24                                                                  27223358.061   143059616.417        1553.337          22.990    27223364.957                        1160.759          19.443  
E33                                                                  23994147.797   126090099.8911       1396.598          23.841  
G01  21417313.203   112548752.600        2662.859          31.343  
G08  20506705.303   107763441.874        -715.941          31.692    20506701.406    80472698.308        -534.589          28.493  
G10  22883486.892   120253480.272       -2489.590          35.358    22883488.091                       -1858.359          21.034  
G21  20845401.529   109543283.112         835.456          28.241  
G22  23355509.217                        2787.642          25.261  
G27  22300376.770   117189262.500       -2716.432          30.378    22300380.968    87511483.019       -2028.417          31.619  
G32  22855593.902   120106945.579        1552.161          37.767    22855598.698    89690266.032        1159.131          30.661  
R05  19834255.830   106025492.119         891.737          35.005  
R11  22497675.883                       -2175.003          22.211  
R12  23016878.347   122952016.279        1403.446          30.248  
R20  19877273.950   106292649.5601       -609.866          25.037  
R21  21080517.362   112806163.904        3011.235          34.326  
> 2022  9 17  7 29 32.0000134  0 23
C06  40085340.097   208734857.320        1805.653          29.973  
C09  41087102.591   213951377.373        2125.692          30.343  
C27  21725399.419   113129854.177        -368.975          32.652  
C28  24850382.938   129402452.161       -2335.110          29.628  
C30  22628111.684                        2367.827          21.723  
C33  25124417.827   130829452.279       -2283.083          33.594  
E07                                                                  25548897.566   134260367.493        1358.210          34.125    25548902.963   100259392.331        1014.285          37.625  
E08                                                                  27432664.761   144159620.080       -1213.947          27.342    27432669.258                        -905.792          20.907  
E13                                                                  27923767.978   146740382.320       -1976.584          30.830    27923776.372   109578890.527       -1476.051          30.423  
E24                                                                  27223152.104                        1554.504          23.306    27223158.400                        1162.159          19.119  
E33                                                                  23993972.419                        1398.264          23.385  
G01  21416894.393   112546561.151        2664.075          31.386  
G08  20506930.447   107764629.385        -714.885          31.495    20506928.649    80473585.163        -533.919          28.396  
G10  22884047.504   120256441.240       -2488.342          35.165    22884051.401                       -1857.188          21.164  
G21  20845330.478   109542919.154         836.584          28.052  
G22  23355070.621   122731729.3911       2788.829          26.110  
G27  22300980.552   117192450.365       -2715.240          30.274    22300987.148    87513863.708       -2027.754          31.276  
G32  22855389.743   120105865.162        1553.043          37.703    22855392.141    89689459.257        1159.710          30.682  
R05  19834188.077   106025080.621         892.266          35.223  
R11  22498193.924                       -2168.093          22.369  
R12  23016690.077   122951092.646        1404.065          30.287  
R20  19877471.813   106293739.378        -608.881          25.556  
R21  21080044.289   112803632.595        3012.584          34.316  
> 2022  9 17  7 29 33.0000136  0 23
C06  40085054.394   208733362.775        1806.765          29.861  
C09  41086754.532   213949562.668        2126.924          30.340  
C27  21725530.128   113130534.333        -367.936          32.967  
C28  24850894.084   129405098.193       -2333.813          29.421  
C30  22627723.453                        2368.804          21.312  
C33  25124917.282   130832046.557       -2282.059          33.781  
E07                                                                  25548697.005   134259323.351        1359.226          33.886    25548703.900   100258612.687        1014.934          37.415  
E08                                                                  27432955.560   144161148.180       -1213.017          27.245    27432960.357   107652821.0991       -905.800          20.534  
E13                                                                  27924204.775   146742672.632       -1975.228          30.935    27924211.970   109580600.837       -1475.020          30.601  
E24                                                                  27222914.668   143057294.2961       1555.395          23.284    27222922.763                        1160.428          18.610  
E33                                                                  23993768.859                        1400.296          23.769  
G01  21416449.501   112544211.022        2665.213          31.317  
G08  20507124.713   107765658.527        -714.058          31.496    20507125.013    80474353.668        -533.216          28.629  
G10  22884578.736   120259243.537       -2487.213          35.226    22884588.029                       -1857.113          20.390  
G21  20845234.544   109542396.430         837.808          28.104  
G22  23354599.347   122729254.509        2789.965          25.355  
G27  22301556.754   117195479.665       -2714.215          30.437    22301562.450    87516125.707       -2026.709          31.546  
G32  22855154.406   120104626.296        1553.950          37.544    22855156.504    89688534.130        1160.416          30.843  
R05  19834074.156   106024508.298         892.836          35.526  
R11  22498643.014                       -2170.267          21.349  
R12  23016488.916   122950008.256        1404.678          30.297  
R20  19877644.793                        -607.634          25.636  
R21  21079542.436   112800939.622        3013.823          34.722  
> 2022  9 17  7 29 34.0000138  0 24
C06  40084767.493   208731867.049        1807.945          29.705  
C09  41086407.372   213947746.704        2128.183          30.264  
C27  21725660.538   113131213.531        -366.979          33.154  
C28  24851403.431   129407743.172       -2332.759          29.671  
C30  22627331.025                        2369.310          22.283  
C33  25125416.136   130834639.881       -2281.104          33.621  
E07                                                                  25548497.943   134258278.504        1359.932          33.858    25548505.138   100257832.363        1015.614          37.578  
E08                                                                  27433247.258   144162675.402       -1212.138          26.853    27433247.558   107653961.587        -905.197          20.087  
E13                                                                  27924640.374   146744961.691       -1973.975          30.683    27924647.869   109582310.163       -1474.036          30.443  
E24                                                                  27222677.832   143056053.162        1556.218          23.384    27222687.725                        1158.229          18.624  
E33                                                                  23993563.801                        1400.595          23.658  
G01  21416002.210   112541859.975        2666.131          31.590  
G08  20507319.878   107766686.916        -713.305          31.203    20507319.278    80475121.635        -532.677          28.668  
G10  22885113.566   120262044.890       -2486.269          35.065    22885117.463                       -1857.186          20.484  
G14  23657490.160                        2085.048          14.566  
G21  20845136.212   109541872.788         838.727          28.519  
G22  23354121.478   122726778.774        2790.820          24.917  
G27  22302136.552   117198508.015       -2713.266          30.644    22302140.749    87518387.128       -2026.130          31.170  
G32  22854919.069   120103386.771        1554.609          37.603    22854922.067    89687608.489        1160.931          30.907  
R05  19833971.927   106023935.633         893.177          35.523  
R11  22499106.792                       -2170.821          22.362  
R12  23016287.156   122948923.434        1405.110          30.542  
R20  19877818.073   106295595.3751       -606.919          25.638  
R21  21079049.278   112798245.540        3014.932          34.921  
> 2022  9 17  7 29 35.0000141  0 24
C06  40084509.671   208730526.316        1809.062          30.010  
C09  41086088.393   213946085.697        2129.337          30.414  
C27  21725822.426   113132047.983        -366.122          33.115  
C28  24851941.259   129410543.132       -2331.631          29.979  
C30  22626959.282                        2372.108          22.602  
C33  25125942.272   130837388.329       -2280.118          33.970  
E07                                                                  25548330.359   134257390.314        1360.816          34.002    25548336.355   100257169.125        1016.173          37.723  
E08                                                                  27433570.135   144164359.259       -1211.231          26.756    27433570.135   107655219.048        -904.526          20.226  
E13                                                                  27925102.354   146747407.022       -1972.705          30.787    27925113.146   109584136.253       -1473.155          30.461  
E24                                                                  27222473.074   143054968.748        1557.040          23.482  
E33                                                                  23993384.526                        1401.482          24.373  
G01  21415584.899   112539665.371        2667.230          31.799  
G08  20507545.322   107767872.111        -712.568          31.021    20507544.123    80476006.670        -532.100          28.559  
G10  22885674.477   120265002.696       -2485.180          34.913    22885679.274    89808323.9821      -1855.832          20.956  
G14  23657180.775                        2084.844          15.314  
G21  20845063.963   109541505.658         839.756          28.404  
G22  23353681.083   122724459.559        2791.841          24.548  
G27  22302740.634   117201692.822       -2712.181          30.847    22302745.431    87520765.409       -2025.347          31.217  
G32  22854710.113   120102303.993        1555.405          37.446    22854715.210    89686799.980        1161.445          30.886  
R05  19833902.675   106023522.800         893.602          35.721  
R11  22499616.739                       -2169.641          21.710  
R12  23016109.679   122947998.225        1405.639          30.523  
R20  19878014.437                        -605.439          25.471  
R21  21078558.518   112795710.823        3015.992          34.772  
> 2022  9 17  7 29 36.0000143  0 23
C06  40084221.271   208729029.975        1808.561          30.267  
C09  41085735.837   213944269.110        2128.806          30.500  
C27  21725953.136   113132726.972        -366.769          32.982  
C28  24852448.508   129413187.458       -2332.106          29.880  
C30  22626570.751                        2369.302          22.380  
C33  25126441.427   130839981.305       -2280.757          33.842  
E07                                                                  25548130.697   134256345.360        1360.038          34.071    25548137.592   100256388.766        1015.649          37.754  
E08                                                                  27433859.734   144165886.297       -1211.953          26.622    27433862.132                        -906.307          19.623  
E13                                                                  27925540.051   146749695.178       -1973.072          31.108    27925548.145   109585844.926       -1473.383          30.298  
E24                                                                  27222231.741                        1555.506          23.477  
E33                                                                  23993175.570   126084991.0691       1400.894          25.008  
G01  21415138.508   112537313.902        2666.554          32.028  
G08  20507740.487   107768900.649        -713.455          30.448    20507741.386    80476774.684        -532.724          28.205  
G10  22886209.907   120267803.632       -2485.852          34.782    22886214.104                       -1858.023          20.654  
G21  20844965.631   109540981.533         839.209          28.958  
G22  23353210.109                        2790.612          24.720  
G27  22303315.636   117204720.733       -2712.827          30.479    22303322.831    87523026.559       -2025.859          30.995  
G32  22854474.477   120101064.615        1554.462          37.423    22854478.674    89685874.443        1160.827          30.697  
R05  19833780.360   106022950.949         892.363          35.804  
R11  22500091.011                       -2174.517          22.081  
R12  23015916.612   122946914.065        1404.448          30.546  
R20  19878194.312   106297609.6961       -606.810          25.392  
R21  21078063.260   112793016.263        3015.410          34.814  
> 2022  9 17  7 29 37.0000146  0 23
C06  40083965.548   208727690.026        1808.279          30.723  
C09  41085416.258   213942608.781        2128.658          30.493  
C27  21726113.824   113133562.631        -367.330          33.287  
C28  24852983.937   129415988.327       -2332.540          29.777  
C30  22626211.000                        2363.772          22.630  
C33  25126967.862   130842730.902       -2281.268          33.813  
E07                                                                  25547961.614   134255458.548        1359.438          34.072    25547968.509   100255726.589        1015.112          37.695  
E08                                                                  27434176.015   144167571.451       -1212.529          26.894    27434184.409                        -900.708          19.647  
E13                                                                  27926005.928   146752141.128       -1973.324          30.735    27926014.023   109587671.399       -1473.537          30.315  
E24                                                                  27222023.385   143052644.6411       1555.614          23.607  
E33                                                                  23992999.892   126084063.265        1400.429          24.400  
G01  21414722.096   112535120.463        2666.065          32.119  
G08  20507964.432   107770087.452        -714.176          30.451    20507964.731    80477660.965        -533.346          28.301  
G10  22886772.317   120270762.540       -2486.282          34.764    22886778.613                       -1857.315          21.072  
G21  20844897.278   109540615.435         838.724          29.196  
G22  23352771.513                        2790.952          24.522  
G27  22303923.915   117207906.784       -2713.425          30.660    22303927.812    87525405.664       -2026.171          30.742  
G32  22854269.419   120099983.528        1553.712          37.308    22854273.915    89685067.133        1160.245          30.607  
R05  19833719.502   106022540.552         891.166          35.875  
R11  22500571.578                       -2171.887          21.837  
R12  23015741.833   122945991.022        1403.475          30.853  
R20  19878402.368                        -607.237          25.707  
R21  21077580.595   112790482.534        3015.004          34.936  
> 2022  9 17  7 29 38.0000148  0 23
C06  40083675.649   208726194.555        1807.690          29.984  
C09  41085072.696   213940792.798        2128.203          30.556  
C27  21726242.735   113134242.832        -367.981          33.269  
C28  24853493.584   129418633.496       -2332.949          30.017  
C30  22625814.974                        2367.274          23.243  
C33  25127466.117   130845325.078       -2281.956          33.686  
E07                                                                  25547764.051   134254415.048        1358.584          33.866    25547770.047   100254947.368        1014.511          37.731  
E08                                                                  27434467.413   144169099.867       -1213.332          26.868    27434469.812                        -897.342          18.508  
E13                                                                  27926441.227   146754429.800       -1973.588          30.883    27926449.022   109589380.483       -1473.794          30.387  
E24                                                                  27221791.646   143051404.915        1554.810          23.466    27221805.136                        1158.244          17.946  
E33                                                                  23992790.337                        1399.280          24.109  
G01  21414275.406   112532770.124        2665.423          31.872  
G08  20508162.295   107771117.581        -715.045          30.519    20508162.894    80478430.180        -533.925          28.569  
G10  22887302.950   120273564.553       -2486.929          34.731    22887310.445    89814717.5061      -1857.032          20.575  
G21  20844802.543   109540092.441         838.078          29.460  
G22  23352294.843   122717190.5521       2789.968          25.369  
G27  22304498.617   117210935.849       -2713.981          31.179    22304504.313    87527667.650       -2026.696          30.699  
G32  22854032.283   120098745.850        1552.762          37.558    22854037.379    89684142.893        1159.530          30.511  
R05  19833587.893   106021971.220         889.845          35.492  
R11  22501037.156                       -2177.884          21.083  
R12  23015536.476   122944909.055        1402.254          30.563  
R20  19878558.260                        -608.693          25.229  
R21  21077085.937   112787788.882        3014.502          34.961  
> 2022  9 17  7 29 39.0000150  0 23
C06  40083390.246   208724699.437        1807.337          30.083  
C09  41084724.337   213938977.201        2127.816          30.528  
C27  21726372.245   113134923.663        -368.611          33.368  
C28  24853999.634   129421279.127       -2333.411          29.808  
C30  22625417.150                        2367.700          24.065  
C33  25127963.473   130847919.758       -2282.461          33.645  
E07                                                                  25547566.488   134253372.208        1357.924          33.590    25547571.584   100254168.595        1014.063          37.781  
E08                                                                  27434759.111   144170628.876       -1213.925          27.154    27434759.411                        -910.918          18.202  
E13                                                                  27926875.327   146756718.798       -1973.914          30.857    27926886.419   109591089.784       -1474.011          30.459  
E24                                                                  27221555.409                        1554.002          23.547    27221569.799                        1159.886          17.116  
E33                                                                  23992587.078   126081893.9751       1399.479          24.008  
G01  21413827.516   112530420.271        2664.938          31.653  
G08  20508357.759                        -716.651          30.336    20508358.059    80479200.027        -534.557          28.711  
G10  22887838.079   120276366.978       -2487.341          34.810    22887844.675                       -1858.150          20.850  
G21  20844709.008   109539569.923         837.602          29.344  
G22  23351827.466   122714716.222        2789.413          26.144  
G27  22305075.418   117213965.444       -2714.511          30.892    22305082.013    87529930.038       -2027.097          30.040  
G32  22853802.042   120097508.922        1552.012          37.645    22853803.541    89683219.190        1158.993          30.772  
R05  19833500.054   106021402.975         888.758          35.656  
R11  22501483.847                       -2176.177          20.673  
R12  23015337.713   122943828.112        1401.230          30.956  
R20  19878746.830                        -608.935          25.574  
R21  21076576.590   112785095.694        3014.038          34.697  
> 2022  9 17  7 29 40.0000153  0 24
C06  40083132.725   208723362.156        1805.610          30.114  
C09  41084403.559   213937319.386        2126.145          30.780  
C27  21726537.431   113135762.567        -370.575          33.454  
C28  24854537.462   129424082.627       -2335.171          29.959  
C30  22625051.103                        2364.652          24.010  
C33  25128493.806   130850672.468       -2284.380          33.853  
E07                                                                  25547395.906   134252489.044        1355.790          33.547    25547403.700   100253509.077        1012.453          37.790  
E08                                                                  27435078.390   144172317.460       -1215.958          27.110    27435086.185                        -911.750          19.610  
E13                                                                  27927340.904   146759166.974       -1975.550          31.168    27927350.498   109592917.970       -1475.251          30.615  
E24                                                                  27221346.154   143049086.3901       1552.027          23.501    27221361.444                        1156.560          17.482  
E33                                                                  23992421.892                        1397.183          24.132  
G01  21413410.804   112528229.928        2662.968          31.979  
G08  20508584.103   107773339.1071       -717.936          30.330    20508584.402    80480089.190        -536.228          28.215  
G10  22888402.888   120279328.906       -2489.302          34.832    22888406.486    89819022.0311      -1858.841          21.112  
G14  23655558.598                        2080.109          16.244  
G21  20844632.261   109539206.843         835.706          29.016  
G22  23351390.669   122712401.296        2787.552          26.168  
G27  22305682.497   117217154.593       -2716.523          30.356    22305688.193    87532311.524       -2028.552          30.007  
G32  22853596.085   120096431.677        1549.871          37.594    22853596.384    89682414.812        1157.313          30.868  
R05  19833423.906   106020997.571         886.173          35.258  
R11  22502010.282                       -2175.317          20.379  
R12  23015170.729   122942909.885        1398.658          31.204  
R20  19878963.280                        -612.402          25.216  
R21  21076097.521   112782564.796        3012.173          34.685  
> 2022  9 17  7 29 41.0000155  0 24
C06  40082848.222   208721869.769        1804.607          30.381  
C09  41084055.500   213935506.435        2125.170          30.911  
C27  21726666.042   113136446.547        -371.760          33.358  
C28  24855047.109   129426731.022       -2336.175          30.015  
C30  22624657.775                        2364.805          24.361  
C33  25128990.562   130853270.263       -2285.576          33.975  
E07                                                                  25547196.244   134251449.567        1354.561          33.591    25547206.137   100252732.911        1011.456          37.551  
E08                                                                  27435367.690   144173849.856       -1217.313          27.015    27435377.883                        -911.105          19.262  
E13                                                                  27927781.299   146761458.450       -1976.392          30.942    27927786.995   109594629.164       -1475.904          30.537  
E24                                                                  27221113.515                        1550.251          23.509    27221123.408                        1162.228          17.976  
E33                                                                  23992212.637   126079887.1191       1396.750          24.071  
G01  21412961.715   112525883.148        2661.864          32.120    21412962.015                        1988.544          17.488  
G08  20508782.865   107774373.543        -719.352          30.266    20508782.265    80480861.599        -537.119          28.258  
G10  22888938.618   120282134.432       -2490.442          34.735    22888941.915                       -1857.632          19.958  
G14  23655195.549                        2079.844          16.250  
G21  20844528.233   109538687.405         834.522          28.780  
G22  23350921.194                        2785.951          25.848  
G27  22306259.598   117220187.296       -2717.620          30.596    22306266.793    87534576.243       -2029.428          29.348  
G32  22853358.949   120095198.398        1548.363          37.635    22853363.146    89681493.826        1156.276          30.743  
R05  19833316.581   106020433.727         884.356          35.469  
R11  22502483.355                       -2184.673          20.560  
R12  23014970.168   122941833.185        1396.988          31.582  
R20  19879126.367                        -615.727          25.475  
R21  21075601.964   112779874.576        3011.070          34.774  
> 2022  9 17  7 29 42.0000157  0 24
C06  40082561.920   208720378.288        1803.701          29.996  
C09  41083705.343   213933694.207        2124.448          30.755  
C27  21726797.951   113137131.579        -372.813          32.910  
C28  24855554.658   129429380.289       -2337.047          29.794  
C30  22624262.049   117810384.5171       2363.830          24.462  
C33  25129488.517   130855869.047       -2286.564          33.874  
E07                                                                  25547001.379   134250411.331        1353.321          33.943    25547008.274   100251957.556        1010.645          37.583  
E08                                                                  27435660.288   144175383.230       -1218.289          26.916    27435665.084                        -912.809          19.121  
E13                                                                  27928215.399   146763750.717       -1977.183          31.262    27928223.793   109596340.863       -1476.408          30.532  
E24                                                                  27220874.281                        1549.041          23.204  
E33                                                                  23992007.579   126078806.365        1395.838          24.376  
G01  21412517.423   112523537.337        2660.896          32.033  
G08  20508976.531   107775409.281        -720.654          30.479    20508979.229    80481635.012        -538.123          28.193  
G10  22889472.248   120284940.904       -2491.389          34.734    22889473.747    89823212.9211      -1860.584          20.028  
G14  23654881.067                        2080.025          16.370  
G21  20844434.698   109538168.892         833.597          28.897  
G22  23350448.721   122707459.8651       2785.341          25.999  
G27  22306841.495   117223221.022       -2718.642          30.615    22306842.394    87536841.675       -2030.143          28.823  
G32  22853126.610   120093966.325        1547.157          37.652    22853129.308    89680573.784        1155.331          30.840  
R05  19833212.852   106019871.548         882.692          35.565  
R11  22502962.723                       -2188.403          21.468  
R12  23014766.908   122940757.927        1395.546          31.495  
R20  19879297.848   106303514.9471       -613.268          25.296  
R21  21075095.915   112777185.267        3010.159          34.539  
> 2022  9 17  7 29 43.0000160  0 24
C06  40082304.098   208719043.666        1802.951          29.825  
C09  41083389.361   213932038.869        2123.668          30.676  
C27  21726961.637   113137973.698        -373.790          33.157  
C28  24856092.185   129432186.412       -2337.794          30.088  
C30  22623897.502   117808489.699        2363.147          25.067  
C33  25130018.850   130858624.830       -2287.454          33.943  
E07                                                                  25546829.298   134249531.659        1352.298          33.774    25546841.290   100251300.688        1009.803          37.669  
E08                                                                  27435983.164   144177075.279       -1219.423          26.957    27435988.560                        -912.710          18.908  
E13                                                                  27928681.876   146766201.140       -1977.798          31.359    27928689.670   109598170.701       -1476.903          30.891  
E24                                                                  27220669.822                        1548.148          23.188  
E33                                                                  23991828.902                        1394.340          24.415  
G01  21412102.510   112521350.010        2659.953          32.247  
G08  20509205.273   107776603.671        -721.764          30.726    20509204.973    80482526.937        -538.990          28.489  
G10  22890031.661   120287905.853       -2492.322          34.308    22890039.755                       -1861.248          21.474  
G14  23654568.383                        2073.990          16.262  
G21  20844364.247   109537808.836         832.682          28.829  
G22  23350012.223   122705148.146        2784.345          26.711  
G27  22307446.476   117226413.270       -2719.622          30.915    22307450.673    87539225.425       -2030.815          28.870  
G32  22852924.250   120092892.986        1545.965          37.946    22852924.849    89679772.296        1154.423          30.927  
R05  19833139.104   106019471.162         881.155          35.181  
R11  22503464.576                       -2181.138          20.900  
R12  23014593.628   122939844.356        1394.002          31.072  
R20  19879510.102                        -611.945          25.095  
R21  21074612.949   112774657.187        3009.355          34.400  
> 2022  9 17  7 29 44.0000162  0 25
C06  40082018.096   208717553.610        1802.276          30.130  
C09  41083043.701   213930228.045        2123.043          30.728  
C27  21727092.647   113138660.591        -374.673          32.696  
C28  24856601.533   129434837.175       -2338.543          30.060  
C30  22623511.069                        2359.545          24.953  
C32  23849868.480                        3320.039          14.610  
C33  25130519.803   130861225.468       -2288.418          33.595  
E07                                                                  25546636.532   134248495.477        1351.266          33.498    25546643.427   100250526.892        1009.086          37.786  
E08                                                                  27436273.063   144178610.632       -1220.269          27.127    27436283.856                        -913.078          19.184  
E13                                                                  27929116.875   146768494.588       -1978.364          31.495    27929125.868   109599883.369       -1477.378          30.634  
E24                                                                  27220434.186                        1546.782          22.240  
E33                                                                  23991622.345   126076804.5571       1394.406          24.835  
G01  21411656.419   112519005.992        2659.102          32.452    21411651.922                        1984.699          17.632  
G08  20509400.438   107777641.587        -722.833          30.873    20509403.735    80483302.029        -539.802          28.570  
G10  22890565.891   120290714.053       -2493.117          34.253    22890571.887    89827523.9481      -1861.807          20.279  
G14  23654253.001                        2071.672          16.274  
G21  20844265.016   109537292.057         831.863          28.865  
G22  23349534.354   122702679.770        2783.460          26.817  
G27  22308024.176   117229448.767       -2720.413          30.859    22308028.373    87541492.200       -2031.485          28.979  
G32  22852690.711   120091663.269        1544.800          37.794    22852691.311    89678853.940        1153.646          30.961  
R05  19833036.874   106018912.017         879.658          35.581  
R11  22503907.369                       -2180.145          19.954  
R12  23014401.761   122938772.040        1392.603          30.980  
R20  19879690.277   106305546.2711       -615.415          25.717  
R21  21074111.396   112771969.421        3008.616          34.518  
> 2022  9 17  7 29 45.0000164  0 23
C06  40081730.895   208716064.257        1801.573          30.036  
C09  41082694.143   213928417.837        2122.428          30.873  
C27  21727221.857   113139348.411        -375.601          32.586  
C28  24857110.880   129437488.605       -2339.211          30.333  
C30  22623116.243                        2361.309          24.691  
C33  25131017.758   130863826.888       -2289.200          33.720  
E07                                                                  25546438.069   134247460.266        1350.295          33.754    25546446.763   100249753.874        1008.308          37.820  
E08                                                                  27436565.661   144180147.036       -1221.320          26.330    27436574.655                        -910.892          18.919  
E13                                                                  27929552.473   146770788.624       -1978.952          31.552    27929561.767   109601596.438       -1477.779          30.580  
E24                                                                  27220210.241                        1545.887          22.536  
E33                                                                  23991417.887                        1393.067          24.378  
G01  21411209.728   112516662.815        2658.261          32.813    21411205.831                        1983.594          17.654  
G08  20509598.600   107778680.657        -723.986          30.613    20509601.298    80484077.933        -540.614          28.362  
G10  22891096.224   120293523.084       -2493.946          34.126    22891110.314    89829621.553       -1862.314          21.557  
G21  20844164.285   109536776.104         831.037          28.925  
G22  23349067.577   122700212.208        2782.646          26.985  
G27  22308600.377   117232485.119       -2721.268          30.012    22308607.872    87543759.692       -2032.202          28.638  
G32  22852453.875   120090434.612        1543.742          37.821    22852458.072    89677936.467        1152.763          30.806  
R05  19832928.649   106018354.390         878.139          35.605  
R11  22504378.343                       -2187.284          20.462  
R12  23014188.009   122937701.144        1391.184          31.225  
R20  19879884.842                        -619.503          25.518  
R21  21073619.137   112769282.501        3007.770          34.353  
> 2022  9 17  7 29 46.0000167  0 25
C06  40081475.772   208714731.600        1800.986          30.458  
C09  41082378.161   213926764.323        2121.844          30.895  
C27  21727386.743   113140193.121        -376.380          32.700  
C28  24857652.006   129440296.798       -2339.864          30.124  
C30  22622751.395                        2363.132          24.229  
C32  23848752.952                        3323.285          13.311  
C33  25131550.490   130866585.175       -2289.958          33.863  
E07                                                                  25546271.984   134246583.531        1349.360          33.712    25546280.378   100249099.108        1007.701          37.834  
E08                                                                  27436885.839   144181841.683       -1222.022          26.155    27436897.831                        -908.749          18.865  
E13                                                                  27930018.950   146773240.631       -1979.381          31.368    27930029.443   109603427.473       -1478.100          30.587  
E24                                                                  27220003.384                        1545.538          22.944    27220014.776                        1147.241          18.164  
E33                                                                  23991244.007   126074805.5421       1393.123          23.895  
G01  21410794.515   112514477.877        2657.564          32.763    21410794.216                        1983.877          17.508  
G08  20509827.942   107779878.289        -725.006          30.872    20509828.841    80484972.252        -541.384          28.249  
G10  22891669.427   120296490.408       -2494.698          34.023    22891674.224                       -1863.101          20.728  
G14  23653606.949                        2076.907          15.174  
G21  20844098.331   109536418.359         830.372          28.512  
G22  23348631.079   122697902.957        2781.877          27.965  
G27  22309206.857   117235679.806       -2722.061          29.876    22309214.352    87546145.195       -2032.569          28.011  
G32  22852253.014   120089364.514        1542.724          37.798    22852254.214    89677137.357        1152.046          30.728  
R05  19832852.202   106017958.326         876.833          35.695  
R11  22504881.994                       -2183.270          21.281  
R12  23014018.327   122936791.514        1390.061          31.238  
R20  19880087.802   106307581.2901       -617.105          26.178  
R21  21073136.171   112766756.620        3007.156          34.544  
> 2022  9 17  7 29 47.0000169  0 23
C06  40081189.770   208713243.379        1800.441          30.593  
C09  41082029.503   213924955.147        2121.395          30.877  
C27  21727519.251   113140882.521        -377.181          32.688  
C28  24858160.154   129442949.416       -2340.398          30.475  
C30  22622364.363                        2360.382          23.614  
C33  25132047.546   130869188.050       -2290.655          33.602  
E07                                                                  25546072.622   134245550.080        1348.536          33.550    25546083.714   100248327.438        1006.960          37.751  
E08                                                                  27437180.235   144183379.686       -1222.919          26.527    27437189.529                        -914.678          18.537  
E13                                                                  27930457.247   146775535.569       -1979.854          31.574    27930466.241   109605141.193       -1478.430          30.912  
E24                                                                  27219768.047                        1543.959          23.143    27219783.936                        1152.043          17.477  
E33                                                                  23991040.149   126073728.022        1392.604          24.237  
G01  21410348.124   112512136.130        2656.831          32.810    21410351.122                        1982.265          17.150  
G08  20510027.903   107780919.257        -725.884          31.178    20510028.203    80485749.621        -542.079          28.563  
G10  22892198.261   120299300.823       -2495.331          33.862    22892208.154                       -1863.529          21.074  
G21  20843997.601   109535903.813         829.630          27.934  
G22  23348163.403   122695436.941        2781.100          28.166  
G27  22309784.258   117238717.632       -2722.742          30.089    22309791.753    87548413.729       -2033.244          27.723  
G32  22852018.877   120088137.789        1541.809          37.745    22852020.675    89676221.352        1151.295          31.044  
R05  19832754.470   106017403.460         875.378          35.759  
R11  22505358.065                       -2183.239          21.490  
R12  23013819.864   122935723.103        1388.699          31.134  
R20  19880251.488   106308519.971        -618.055          25.750  
R21  21072644.812   112764070.981        3006.489          34.403  
> 2022  9 17  7 29 48.0000172  0 24
C06  40080933.747   208711911.711        1799.998          30.604  
C09  41081712.922   213923302.422        2121.055          30.730  
C27  21727682.039   113141728.526        -377.676          32.852  
C28  24858699.480   129445758.566       -2340.820          30.665  
C30  22621995.618                        2360.360          24.183  
C33  25132576.379   130871947.615       -2291.236          33.558  
E07                                                                  25545905.937   134244674.818        1347.888          33.642    25545916.730   100247673.831        1006.542          37.658  
E08                                                                  27437500.714   144185075.823       -1223.511          26.414    27437510.607                        -920.141          18.645  
E13                                                                  27930923.124   146777988.209       -1980.014          31.442    27930933.017   109606972.748       -1478.620          30.430  
E24                                                                  27219562.689                        1543.921          23.376    27219578.578                        1157.758          17.893  
E33                                                                  23990861.772   126072808.589        1392.059          24.273  
G01  21409934.111   112509952.422        2656.334          32.698  
G08  20510259.043   107782118.519        -726.636          31.383    20510256.645    80486645.168        -542.612          28.313  
G10  22892772.064   120302269.211       -2495.762          33.744    22892772.064                       -1863.507          21.588  
G14  23652971.688                        2074.838          14.336  
G21  20843931.646   109535547.297         829.142          27.124  
G22  23347730.203   122693129.005        2780.563          28.584  
G27  22310389.539   117241913.502       -2723.244          29.646    22310399.432    87550800.314       -2033.650          27.853  
G32  22851812.919   120087069.495        1540.920          37.776    22851816.217    89675423.512        1150.775          31.052  
R05  19832669.629   106017009.949         874.281          35.400  
R11  22505861.416                       -2192.423          20.826  
R12  23013650.781   122934815.831        1387.703          30.899  
R20  19880444.255   106309619.667        -618.759          26.208  
R21  21072164.844   112761546.167        3006.089          34.323  
> 2022  9 17  7 29 49.0000174  0 24
C06  40080648.045   208710423.528        1800.402          30.149  
C09  41081365.462   213921493.212        2121.429          30.747  
C27  21727809.151   113142418.355        -377.609          32.413  
C28  24859208.528   129448411.277       -2340.491          30.753  
C30  22621598.393                        2355.901          23.842  
C33  25133079.731   130874550.924       -2291.089          33.524  
E07                                                                  25545709.573   134243642.087        1347.815          33.903    25545720.066   100246902.631        1006.490          37.746  
E08                                                                  27437796.908   144186614.466       -1223.559          26.887    27437804.703                        -915.071          17.430  
E13                                                                  27931360.222   146780282.973       -1979.680          31.317    27931369.515   109608686.343       -1478.304          30.603  
E24                                                                  27219324.354   143038472.8621       1544.094          23.136    27219339.343                        1157.673          17.285  
E33                                                                  23990662.710   126071731.236        1392.438          24.059  
G01  21409488.020   112507610.956        2656.551          32.521  
G08  20510459.904   107783160.391        -726.788          31.516    20510452.709                        -541.967          28.461  
G10  22893302.397   120305079.988       -2495.693          33.943    22893305.394                       -1861.459          21.041  
G14  23652628.726                        2077.396          13.749  
G21  20843826.119   109535033.010         829.371          27.565  
G22  23347264.025   122690663.380        2780.708          28.600  
G27  22310967.838   117244951.732       -2723.146          28.961    22310978.031    87553069.073       -2033.469          28.006  
G32  22851580.580   120085843.723        1540.857          37.546    22851582.978    89674508.168        1150.634          31.063  
R05  19832566.200   106016456.624         873.837          35.553  
R11  22506353.975                       -2189.582          21.186  
R12  23013461.312   122933748.833        1387.285          31.185  
R20  19880631.625   106310558.906        -618.614          26.295  
R21  21071668.687   112758860.662        3006.354          34.196  
> 2022  9 17  7 29 50.0000176  0 24
C06  40080363.242   208708934.340        1801.407          30.249  
C09  41081018.003   213919682.942        2122.490          30.878  
C27  21727941.059   113143107.306        -376.732          31.919  
C28  24859717.875   129451062.993       -2339.497          30.744  
C30  22621212.560                        2360.443          24.515  
C33  25133579.785   130877153.362       -2290.219          33.291  
E07                                                                  25545513.509   134242608.570        1348.601          33.494    25545523.402   100246130.836        1007.085          37.706  
E08                                                                  27438088.607                       -1222.643          26.457  
E13                                                                  27931797.919   146782576.490       -1978.433          31.250    27931806.013   109610399.010       -1477.378          30.659  
E24                                                                  27219093.214   143037243.009        1544.937          23.192    27219110.302                        1150.691          17.397  
E33                                                                  23990454.354                        1393.213          24.576  
G01  21409041.629   112505268.651        2657.389          32.548  
G08  20510656.268   107784201.496        -726.020          31.114    20510650.872    80488200.6661       -542.242          28.211  
G10  22893838.126   120307889.804       -2494.732          33.884    22893840.824                       -1862.034          19.282  
G14  23652296.556                        2069.663          13.883  
G21  20843729.586   109534517.862         830.233          27.249  
G22  23346789.754   122688196.861        2781.603          28.192  
G27  22311545.838   117247989.068       -2722.252          29.077    22311556.031    87555337.212       -2032.849          27.452  
G32  22851347.042   120084617.249        1541.558          37.547    22851351.239    89673592.317        1151.141          30.926  
R05  19832463.971   106015902.990         874.147          35.313  
R11  22506787.475                       -2186.074          21.095  
R12  23013257.453   122932681.336        1387.784          31.346  
R20  19880810.002   106311497.364        -617.833          26.875  
R21  21071165.336   112756174.162        3007.350          34.177  
> 2022  9 17  7 29 51.0000179  0 23
C06  40080105.420   208707600.888        1801.782          30.198  
C09  41080697.525   213918028.213        2123.058          30.470  
C27  21728105.346   113143952.188        -376.552          32.019  
C28  24860255.104   129453870.392       -2339.069          30.819  
C30  22620847.113   117792568.2851       2361.474          23.829  
C33  25134108.019   130879911.550       -2289.858          33.096  
E07                                                                  25545348.923   134241732.492        1348.704          33.541    25545356.418   100245476.594        1007.178          37.686  
E08                                                                  27438411.183   144189847.4051      -1222.542          26.860  
E13                                                                  27932264.096   146785027.023       -1977.907          31.406    27932272.490   109612228.919       -1476.974          30.537  
E24                                                                  27218892.953                        1543.588          22.872    27218908.842                        1148.612          17.493  
E33                                                                  23990280.175                        1393.104          24.373  
G01  21408623.718   112503083.584        2657.693          32.289  
G08  20510881.412   107785400.151        -726.030          30.911    20510878.414    80489095.755        -542.154          28.378  
G10  22894404.134   120310856.777       -2494.347          33.639    22894407.132                       -1861.000          19.993  
G21  20843662.733                         829.675          27.295  
G22  23346355.654   122685887.610        2781.877          28.277  
G27  22312158.014   117251183.618       -2721.923          29.303    22312164.310                       -2033.693          27.789  
G32  22851144.382   120083548.360        1541.514          37.654    22851146.480    89672794.134        1151.117          31.030  
R05  19832396.218   106015509.978         873.781          35.182  
R11  22507292.626                       -2188.860          20.808  
R12  23013082.974   122931774.323        1387.445          31.537  
R20  19881013.861                        -618.477          26.511  
R21  21070688.366   112753647.649        3007.788          34.204  
> 2022  9 17  7 29 52.0000181  0 23
C06  40079820.018   208706112.208        1800.900          30.184  
C09  41080350.665   213916218.380        2122.052          30.414  
C27  21728235.755   113144642.133        -377.726          31.822  
C28  24860764.151   129456522.644       -2340.032          31.044  
C30  22620458.283                        2360.173          24.180  
C33  25134609.572   130882514.824       -2291.055          33.300  
E07                                                                  25545148.662   134240700.096        1347.479          33.612    25545160.054   100244705.705        1006.179          37.958  
E08                                                                  27438702.581   144191386.170       -1223.682          26.967  
E13                                                                  27932699.694   146787320.845       -1978.739          31.659    27932708.388   109613941.867       -1477.658          30.524  
E24                                                                  27218657.915   143034941.8171       1543.804          22.852  
E33                                                                  23990073.318   126068653.7791       1392.911          24.192  
G01  21408179.726   112500742.052        2656.616          32.109  
G08  20511079.275   107786442.636        -727.401          30.949    20511077.776    80489874.250        -543.205          28.188  
G10  22894936.265   120313667.423       -2495.562          33.500    22894941.662                       -1864.184          20.130  
G21  20843561.103   109533645.9501        829.490          27.135  
G22  23345884.081   122683422.008        2780.687          28.441  
G27  22312736.614   117254221.749       -2723.047          29.276    22312744.408    87559991.5061      -2033.386          27.311  
G32  22850908.745   120082323.291        1540.153          37.731    22850914.141    89671879.298        1150.127          31.240  
R05  19832295.188   106014958.382         872.108          35.276  
R11  22507746.212                       -2191.087          20.798  
R12  23012888.109   122930708.800        1385.810          31.164  
R20  19881170.952   106313535.4321       -618.912          26.679  
R21  21070191.010   112750961.774        3006.725          34.180  
> 2022  9 17  7 29 53.0000183  0 23
C06  40079535.515   208704622.718        1801.709          30.193  
C09  41080004.105   213914407.611        2122.989          30.569  
C27  21728367.064   113145331.430        -377.077          31.670  
C28  24861275.297   129459174.072       -2339.209          31.596  
C30  22620064.056                        2361.301          24.228  
C33  25135108.726   130885117.443       -2290.399          33.361  
E07                                                                  25544953.497   134239667.200        1347.980          33.295    25544963.989   100243934.347        1006.648          37.902  
E08                                                                  27438993.380   144192924.458       -1223.203          26.435    27439006.571                        -909.853          18.493  
E13                                                                  27933137.092   146789613.698       -1977.768          31.574    27933145.186   109615654.026       -1476.870          30.612  
E24                                                                  27218426.176                        1543.806          21.983  
E33                                                                  23989866.761   126067575.099        1393.764          24.510  
G01  21407736.033   112498399.800        2657.336          31.949  
G08  20511281.036   107787484.632        -726.912          30.796    20511275.939    80490652.334        -542.794          28.200  
G10  22895474.992   120316477.225       -2494.718          33.488    22895475.892                       -1867.025          18.941  
G21  20843465.769   109533130.830         830.204          27.680  
G22  23345414.906   122680955.710        2781.382          28.046  
G27  22313308.018   117257259.224       -2722.391          28.825    22313320.310    87562259.801       -2033.006          26.649  
G32  22850674.907   120081097.796        1540.580          37.522    22850681.203    89670964.199        1150.388          31.303  
R05  19832198.655   106014406.757         872.138          34.975  
R11  22508195.600                       -2185.781          21.030  
R12  23012676.755   122929643.056        1386.031          30.829  
R20  19881361.020   106314474.360        -618.303          26.265  
R21  21069693.055   112748275.114        3007.510          34.059  
> 2022  9 17  7 29 54.0000186  0 22
C06  40079278.293   208703289.672        1801.376          30.204  
C09  41079686.625   213912753.181        2122.759          30.915  
C28  24861816.423   129461981.913       -2339.512          32.127  
C30  22619698.309                        2358.816          24.566  
C33  25135636.961   130887876.611       -2290.838          33.422  
E07                                                                  25544787.711   134238792.464        1347.362          33.150    25544797.305   100243281.138        1006.144          37.878  
E08                                                                  27439315.957   144194620.744       -1223.660          26.543  
E13                                                                  27933602.669   146792064.239       -1977.915          31.166    27933611.363   109617483.968       -1477.007          30.594  
E24                                                                  27218225.315   143032641.3611       1543.783          22.489  
E33                                                                  23989691.082   126066654.308        1393.417          25.102  
G01  21407318.722   112496215.551        2656.875          32.000    21407318.422                        1986.017          18.907  
G08  20511504.381   107788684.956        -727.698          30.577    20511505.280    80491548.622        -543.353          28.285  
G10  22896036.504   120319445.040       -2495.189          33.562    22896040.101                       -1865.543          18.156  
G21  20843395.917   109532773.667         829.790          27.485  
G22  23344972.712   122678647.400        2780.936          27.704  
G27  22313916.597   117260454.662       -2722.812          28.791    22313927.689                       -2034.392          26.052  
G32  22850472.247   120080030.504        1539.917          37.501    22850478.243    89670167.181        1149.953          31.321  
R05  19832113.214   106014016.500         871.025          34.987  
R11  22508726.233                       -2187.266          20.683  
R12  23012520.564   122928738.471        1385.016          30.556  
R20  19881567.877   106315574.203        -618.906          26.102  
R21  21069222.381   112745749.266        3007.122          33.951  
> 2022  9 17  7 29 55.0000188  0 23
C06  40078990.792   208701801.992        1799.899          30.165  
C09  41079339.465   213910944.152        2121.249          30.582  
C27  21728663.559   113146868.8901       -379.333          31.478  
C28  24862326.370   129464635.221       -2341.089          32.338  
C30  22619306.480   117784531.8661       2359.166          24.490  
C33  25136138.813   130890481.399       -2292.568          33.196  
E07                                                                  25544592.247   134237761.970        1345.579          33.589    25544600.941   100242511.610        1004.818          37.879  
E08                                                                  27439610.353   144196161.275       -1225.447          26.955  
E13                                                                  27934036.469   146794358.666       -1979.343          31.179    27934048.161   109619197.375       -1478.117          30.793  
E24                                                                  27217988.179   143031414.552        1541.893          23.534  
E33                                                                  23989484.525                        1390.825          24.172  
G01  21406875.029   112493875.431        2655.204          32.371    21406871.431                        1976.243          17.112  
G08  20511700.445   107789729.652        -729.612          30.426    20511702.544    80492328.706        -544.794          29.131  
G10  22896573.732   120322256.985       -2496.861          33.044    22896574.931                       -1862.324          18.698  
G21  20843298.485   109532260.082         828.669          27.043  
G22  23344501.138                        2778.564          27.088  
G27  22314493.398   117263494.294       -2724.547          28.926    22314505.989    87566915.7841      -2034.508          25.403  
G32  22850242.007   120078807.703        1537.885          37.689    22850244.105    89669253.998        1148.473          31.378  
R05  19832007.987   106013468.339         868.674          35.022  
R11  22509196.308                       -2188.446          20.932  
R12  23012320.002   122927675.935        1382.823          31.120  
R20  19881745.954   106316515.529        -620.700          26.072  
R21  21068719.329   112743064.566        3005.550          33.944  
> 2022  9 17  7 29 56.0000190  0 23
C06  40078705.689   208700315.365        1798.847          30.227  
C09  41078992.605   213909136.051        2120.321          30.722  
C27  21728799.065   113147561.610        -380.500          31.668  
C28  24862835.417   129467289.524       -2342.083          32.226  
C30  22618911.354                        2354.598          24.204  
C33  25136641.265   130893087.279       -2293.660          32.994  
E07                                                                  25544394.384   134236732.820        1344.234          33.188    25544405.476   100241743.125        1003.775          37.975  
E08                                                                  27439908.946   144197703.134       -1226.775          26.648  
E13                                                                  27934473.267   146796653.996       -1980.246          31.021    27934484.958   109620911.368       -1478.703          30.669  
E24                                                                  27217755.540                        1539.955          23.093  
E33                                                                  23989279.767                        1390.260          23.790  
G01  21406431.036   112491536.521        2653.994          32.364  
G08  20511902.206   107790775.704        -730.968          29.956    20511903.105    80493109.882        -545.886          28.793  
G10  22897106.163   120325070.011       -2497.943          33.036    22897108.861                       -1863.057          20.487  
G21  20843199.253                         826.685          27.047  
G22  23344034.361                        2777.962          26.652  
G27  22315078.293   117266535.070       -2725.692          29.395    22315086.387                       -2035.498          25.157  
G32  22850009.368   120077586.293        1536.494          37.741    22850012.665    89668341.925        1147.363          31.239  
R05  19831907.856   106012921.981         866.871          35.325  
R11  22509680.472                       -2193.044          20.240  
R12  23012114.944   122926615.177        1381.046          30.715  
R20  19881922.232   106317458.138        -621.984          26.087  
R21  21068224.672   112740380.971        3004.445          34.058  
> 2022  9 17  7 29 57.0000193  0 23
C06  40078450.266   208698985.378        1798.316          30.539  
C09  41078673.026   213907484.518        2119.862          30.931  
C27  21728961.853   113148411.176        -381.237          32.065  
C28  24863374.744   129470100.510       -2342.657          32.667  
C30  22618547.705   117780596.9001       2357.493          24.432  
C33  25137168.600   130895849.967       -2294.359          33.078  
E07                                                                  25544227.999   134235862.046        1343.400          33.290    25544239.991   100241092.859        1003.201          37.912  
E08                                                                  27440226.427   144199403.291       -1227.531          26.707  
E13                                                                  27934940.643   146799107.214       -1980.593          31.243    27934951.735   109622743.325       -1479.022          30.744  
E24                                                                  27217553.480                        1539.146          22.636  
E33                                                                  23989107.686   126063584.2921       1390.201          23.767  
G01  21406017.323   112489355.773        2653.374          32.267    21406012.526                        1986.526          17.554  
G08  20512131.247   107791980.194        -731.864          30.270    20512131.247    80494009.351        -546.535          28.714  
G10  22897671.272   120328041.267       -2498.629          33.006    22897676.968                       -1862.733          20.430  
G21  20843130.301   109531394.9891        826.337          26.898  
G22  23343597.564   122671415.5671       2777.316          27.135  
G27  22315686.572   117269734.091       -2726.396          29.521    22315694.066    87571575.3601      -2035.875          24.327  
G32  22849806.408   120076523.366        1535.552          37.674    22849808.807    89667548.230        1146.631          31.146  
R05  19831839.203   106012537.212         865.537          35.269  
R11  22510156.543                       -2198.515          21.252  
R12  23011947.360   122925715.728        1379.879          30.814  
R20  19882122.193                        -625.351          26.057  
R21  21067744.104   112737858.373        3003.873          34.120  
> 2022  9 17  7 29 58.0000195  0 23
C06  40078167.262   208697499.747        1797.851          30.435  
C09  41078327.965   213905677.335        2119.403          30.996  
C27  21729093.761   113149105.358        -381.962          32.144  
C28  24863884.691   129472755.857       -2343.128          32.913  
C30  22618150.180                        2357.022          24.854  
C33  25137668.654   130898457.234       -2295.047          33.335  
E07                                                                  25544034.933   134234834.555        1342.575          32.931    25544044.226   100240325.609        1002.540          37.928  
E08                                                                  27440519.324   144200946.672       -1228.297          26.478  
E13                                                                  27935381.638   146801403.313       -1981.014          31.205    27935388.533   109624457.914       -1479.299          30.906  
E24                                                                  27217314.545                        1538.304          23.548  
E33                                                                  23988907.125   126062509.534        1389.842          24.359  
G01  21405575.129   112487018.107        2652.751          32.243  
G08  20512329.710   107793028.008        -732.730          30.109    20512331.808    80494791.865        -547.224          28.700  
G10  22898206.102   120330855.576       -2499.225          33.088    22898213.597                       -1861.950          20.254  
G21  20843034.368                         825.483          26.666  
G22  23343134.684                        2776.295          26.824  
G27  22316263.372   117272776.243       -2727.068          29.232    22316274.165    87573847.021       -2036.371          24.744  
G32  22849577.367   120075303.828        1534.622          37.940    22849577.367    89666637.486        1146.034          31.236  
R05  19831733.077   106011993.408         864.317          35.578  
R11  22510624.819                       -2192.338          20.985  
R12  23011747.699   122924657.365        1378.650          30.692  
R20  19882298.771   106319506.1281       -623.550          25.884  
R21  21067247.348   112735175.916        3003.307          33.819  
> 2022  9 17  7 29 59.0000197  0 24
C06  40077882.459   208696014.498        1797.468          30.601  
C09  41077980.506   213903870.378        2119.176          30.948  
C27  21729231.666   113149800.017        -382.439          32.286  
C28  24864394.938   129475411.565       -2343.488          33.499  
C30  22617754.155                        2358.284          24.488  
C33  25138171.106   130901064.965       -2295.511          33.511  
E07                                                                  25543838.569   134233807.684        1341.955          33.309    25543848.462   100239558.755        1002.144          38.099  
E08                                                                  27440814.619   144202490.629       -1228.873          26.641  
E13                                                                  27935814.238   146803699.583       -1981.186          31.404    27935825.630   109626172.694       -1479.491          30.830  
E24                                                                  27217089.401                        1538.042          23.067  
E33                                                                  23988702.067   126061435.274        1389.344          24.972  
G01  21405126.939   112484680.932        2652.259          32.639  
G08  20512529.671   107794076.512        -733.420          29.582    20512529.371    80495574.805        -547.650          28.645  
G10  22898745.428   120333670.368       -2499.709          33.287    22898747.827                       -1865.848          19.925  
G14  23649376.577                        2062.751          15.443  
G21  20842944.130   109530374.1171        825.289          26.690  
G22  23342655.916   122666492.9641       2776.147          26.856  
G27  22316841.072   117275818.818       -2727.492          29.327  
G32  22849344.428   120074085.023        1533.889          38.003    22849344.728    89665727.348        1145.428          31.235  
R05  19831629.648   106011450.707         863.214          35.197  
R11  22511102.088                       -2191.648          20.923  
R12  23011550.435   122923600.010        1377.643          30.414  
R20  19882469.952   106320450.912        -624.159          25.724  
R21  21066737.701   112732493.858        3002.908          33.549  
> 2022  9 17  7 30  0.0000200  0 24
C06  40077625.237   208694685.892        1796.935          30.658  
C09  41077661.227   213902220.130        2118.578          30.524  
C27  21729392.355   113150651.592        -383.246          32.815  
C28  24864935.463   129478223.936       -2344.041          33.907  
C30  22617393.205                        2355.811          25.130  
C33  25138701.739   130903829.557       -2296.262          33.371  
E07                                                                  25543674.582   134232939.191        1341.119          33.264    25543683.576   100238910.188        1001.502          38.006  
E08                                                                  27441137.496   144204192.809       -1229.554          26.461  
E13                                                                  27936282.214   146806153.803       -1981.593          31.407    27936292.707   109628005.412       -1479.783          30.761  
E24                                                                  27216889.440   143025609.7511       1537.485          23.052  
E33                                                                  23988526.689                        1388.812          24.738  
G01  21404712.026   112482501.975        2651.583          32.576  
G08  20512756.614   107795283.611        -734.473          29.046    20512759.912    80496476.233        -548.493          28.626  
G10  22899310.537   120336643.376       -2500.382          33.127    22899312.036                       -1868.049          19.360  
G14  23649083.380                        2058.397          15.964  
G21  20842871.580   109530022.215         824.529          26.013  
G22  23342221.816   122664190.157        2775.433          26.120  
G27  22317451.750   117279019.679       -2728.234          30.123  
G32  22849142.668   120073024.745        1532.904          38.170    22849143.567    89664935.571        1144.711          30.816  
R05  19831559.197   106011069.605         861.870          35.190  
R11  22511640.216                       -2195.203          20.573  
R12  23011381.952   122922704.002        1376.439          30.296  
R20  19882687.302   106321556.960        -625.111          25.582  
R21  21066279.318   112729972.868        3002.266          33.758  
> 2022  9 17  7 30  1.0000202  0 24
C06  40077341.934   208693200.970        1797.143          30.367  
C09  41077315.266   213900413.480        2118.870          30.324  
C27  21729528.760   113151347.083        -383.271          32.710  
C28  24865445.410   129480880.030       -2343.875          34.366  
C30  22617000.776   117772576.6461       2355.988          25.299  
C33  25139204.491   130906438.002       -2296.226          33.196  
E07                                                                  25543475.520   134231913.322        1340.953          33.436    25543488.411   100238144.147        1001.332          37.793  
E08                                                                  27441433.391   144205737.695       -1229.802          26.646  
E13                                                                  27936721.710   146808450.194       -1981.307          31.328    27936730.104   109629720.239       -1479.537          30.604  
E24                                                                  27216655.002                        1538.116          22.366  
E33                                                                  23988324.329   126059445.0291       1389.021          24.779  
G01  21404265.635   112480165.455        2651.604          32.626    21404268.034                        1982.326          20.136  
G08  20512954.477   107796333.354        -734.659          28.578    20512958.974    80497260.113        -548.590          28.717  
G10  22899846.266   120339458.791       -2500.331          33.142    22899848.065                       -1869.806          18.283  
G14  23648747.013                        2062.173          17.417  
G21  20842773.848   109529512.188         825.111          25.881  
G22  23341751.442   122661729.837        2775.405          24.681  
G27  22318035.745   117282062.964       -2728.201          30.178  
G32  22848911.827   120071807.128        1532.701          38.318    22848910.928    89664026.309        1144.553          30.721  
R05  19831462.664   106010528.881         861.237          35.789  
R11  22512082.709                       -2197.580          21.663  
R12  23011181.391   122921648.323        1375.967          29.948  
R20  19882857.884                        -626.549          25.425  
R21  21065766.673   112727291.323        3002.394          33.395  
> 2022  9 17  7 30  2.0000204  0 24
C06  40077055.932   208691716.091        1797.098          30.332  
C09  41076968.107   213898606.781        2118.919          30.090  
C27  21729664.566   113152042.761        -383.459          33.026  
C28  24865957.456   129483536.182       -2343.933          34.927  
C30  22616602.352   117770532.950        2355.915          25.518  
C33  25139703.346   130909046.648       -2296.426          33.434  
E07                                                                  25543282.154   134230887.741        1340.665          33.212    25543292.946   100237378.289        1001.147          37.883  
E08                                                                  27441730.785                       -1230.007          26.234  
E13                                                                  27937159.107   146810746.532       -1981.255          31.391    27937167.202   109631434.981       -1479.452          30.532  
E24                                                                  27216428.659                        1536.544          22.637  
E33                                                                  23988121.069   126058371.053        1389.060          24.546  
G01  21403819.544   112477829.073        2651.466          32.456    21403825.840                        1982.780          20.968  
G08  20513156.837                        -735.715          27.715    20513158.636    80498044.279        -548.876          28.290  
G10  22900380.197   120342274.358       -2500.483          33.045    22900382.895                       -1870.407          17.627  
G14  23648437.028                        2065.070          20.520  
G21  20842678.814   109529002.718         824.554          25.743  
G22  23341286.464   122659269.593        2775.328          24.691  
G27  22318617.942   117285106.405       -2728.357          30.112    22318621.840                       -2037.927          23.325  
G32  22848682.186   120070589.954        1532.258          38.203    22848678.889    89663117.411        1144.188          31.018  
R05  19831360.135   106009988.935         860.458          35.674  
R11  22512583.663                       -2198.327          20.913  
R12  23010976.333   122920593.357        1375.253          29.463  
R20  19883024.868                        -627.395          25.405  
R21  21065275.313   112724609.771        3002.402          33.597  
> 2022  9 17  7 30  3.0000207  0 24
C06  40076800.808   208690387.435        1796.985          30.387  
C09  41076650.327   213896956.289        2118.821          30.335  
C27  21729829.152   113152894.928        -383.837          33.114  
C28  24866496.183   129486348.570       -2344.058          34.762  
C30  22616243.201   117768645.572        2355.707          25.612  
C33  25140234.278   130911811.597       -2296.619          33.106  
E07                                                                  25543118.467   134230020.194        1340.173          33.071    25543127.761   100236730.425        1000.800          37.917  
E08                                                                  27442053.961   144208985.8131      -1230.410          26.482  
E13                                                                  27937628.282   146813200.353       -1981.194          31.379    27937633.379   109633267.390       -1479.473          30.587  
E24                                                                  27216226.598                        1536.391          21.217  
E33                                                                  23987943.592                        1389.082          23.945  
G01  21403405.231   112475650.511        2651.188          32.416    21403407.929                        1978.633          20.576  
G08  20513381.082   107798591.6851       -735.568          27.683    20513388.277    80498946.568        -549.354          28.068  
G10  22900944.406   120345247.647       -2500.663          33.201  
G14  23648121.646                        2063.182          21.234  
G21  20842611.660   109528651.097         824.247          24.748  
G22  23340844.270   122656967.339        2774.880          24.369  
G27  22319227.121   117288307.691       -2728.659          30.200    22319228.020                       -2037.566          23.773  
G32  22848476.229   120069530.871        1531.710          38.228    22848478.328    89662326.533        1143.813          30.895  
R05  19831295.380   106009610.152         859.552          35.878  
R11  22513105.002                       -2196.448          20.930  
R12  23010810.248   122919699.334        1374.454          29.179  
R20  19883250.612                        -625.561          25.212  
R21  21064801.341   112722088.890        3002.157          33.698  
> 2022  9 17  7 30  4.0000209  0 23
C06  40076514.207   208688903.052        1796.603          30.505  
C09  41076303.167   213895149.974        2118.535          29.747  
C27  21729961.061   113153591.499        -384.352          33.203  
C28  24867007.929   129489005.223       -2344.434          35.550  
C30  22615846.275                        2354.809          25.941  
C33  25140737.630   130914421.030       -2297.214          33.301  
E07                                                                  25542920.904   134228995.763        1339.515          32.861    25542932.896   100235965.397        1000.318          38.048  
E08                                                                  27442348.657   144210531.916       -1231.019          26.642  
E13                                                                  27938065.080   146815496.869       -1981.432          31.321    27938071.076   109634982.325       -1479.645          30.621  
E24                                                                  27215986.165   143020880.3891       1536.173          21.841  
E33                                                                  23987739.134                        1388.876          23.927  
G01  21402957.341   112473314.941        2650.655          32.251    21402961.538                        1979.698          21.242  
G08  20513582.542   107799643.138        -736.370          27.522    20513587.939    80499731.637        -549.779          28.280  
G10  22901480.135   120348063.934       -2501.204          33.175  
G14  23647794.273                        2056.581          21.511  
G21  20842512.129   109528142.398         823.783          23.964  
G22  23340382.589                        2773.603          23.334  
G27  22319804.221   117291351.960       -2729.185          29.958  
G32  22848247.487   120068314.997        1530.958          38.129    22848246.888    89661418.558        1143.265          31.202  
R05  19831195.249   106009072.257         858.407          35.668  
R12  23010608.487   122918646.249        1373.372          29.262  
R20  19883425.991   106325502.5431       -626.570          25.223  
R21  21064304.585   112719408.041        3001.699          33.590  
> 2022  9 17  7 30  5.0000211  0 24
C06  40076230.603   208687419.204        1796.068          30.085  
C09  41075955.708   213893344.132        2118.062          30.068  
C27  21730094.768   113154288.836        -385.117          33.015  
C28  24867516.676   129491662.469       -2345.026          35.529  
C30  22615456.545   117764560.1491       2354.636          24.931  
C33  25141236.784   130917031.202       -2297.952          33.181  
E07                                                                  25542725.739   134227972.176        1338.671          33.075    25542737.731   100235201.033         999.654          38.059  
E08                                                                  27442641.555   144212078.796       -1231.795          26.268  
E13                                                                  27938501.578   146817793.806       -1981.854          31.411    27938507.274   109636697.543       -1479.928          30.650  
E24                                                                  27215757.123                        1534.903          21.908  
E33                                                                  23987534.675   126055308.5511       1387.830          24.117  
G01  21402517.545   112470979.989        2650.035          31.910    21402519.644                        1982.157          20.651  
G08  20513782.804   107800695.384        -737.162          27.689    20513791.198    80500517.515        -550.588          28.388  
G10  22902014.965   120350880.933       -2501.914          33.145  
G14  23647459.105                        2061.474          22.491  
G21  20842418.594                         822.794          23.584  
G22  23339918.211                        2769.312          21.536  
G27  22320382.521   117294396.941       -2729.897          29.648  
G32  22848015.748   120067100.112        1529.969          38.294    22848015.148    89660511.337        1142.511          31.328  
R05  19831087.024   106008535.704         857.065          35.511  
R11  22513991.488                       -2199.653          21.267  
R12  23010418.119   122917594.339        1372.198          29.558  
R20  19883616.359   106326450.385        -627.217          25.803  
R21  21063797.337   112716727.776        3001.115          33.451  
> 2022  9 17  7 30  6.0000214  0 24
C06  40075977.578   208686091.801        1795.733          30.207  
C09  41075639.726   213891694.705        2117.756          30.073  
C27  21730262.952   113155142.807        -385.641          32.944  
C28  24868059.001   129494476.120       -2345.321          35.677  
C30  22615091.698                        2354.581          25.306  
C33  25141769.515   130919797.955       -2298.424          33.302  
E07                                                                  25542562.352   134227106.695        1338.107          33.351    25542574.344   100234554.775         999.193          37.957  
E08                                                                  27442962.333   144213783.839       -1232.417          26.905  
E13                                                                  27938968.954   146820248.539       -1982.106          31.517    27938974.351   109638530.596       -1480.119          30.796  
E24                                                                  27215555.663                        1534.818          22.883  
E33                                                                  23987357.798   126054393.632        1387.545          24.704  
G01  21402102.633   112468803.141        2649.475          31.734    21402105.631                        1983.322          20.619  
G08  20514012.445   107801905.998        -737.988          28.050    20514020.839    80501421.519        -551.069          28.156  
G10  22902589.367   120353855.843       -2502.284          33.245  
G14  23647162.010                        2059.990          22.333  
G21  20842341.547                         822.372          23.969  
G22  23339464.025                        2770.264          20.659  
G27  22320989.600   117297599.925       -2730.357          29.233    22320998.294                       -2038.653          22.229  
G32  22847813.988   120066043.512        1529.226          38.174    22847814.887    89659722.294        1141.978          31.068  
R05  19831025.866   106008160.512         855.961          35.493  
R11  22514509.829                       -2201.987          21.500  
R12  23010257.430   122916703.622        1371.148          29.687  
R20  19883809.425   106327559.251        -627.929          26.607  
R21  21063337.155   112714208.298        3000.753          33.378  
> 2022  9 17  7 30  7.0000216  0 24
C06  40075692.176   208684608.513        1795.507          30.579  
C09  41075294.365   213889889.335        2117.590          29.889  
C27  21730392.762   113155841.122        -386.096          32.981  
C28  24868569.548   129497133.940       -2345.600          35.808  
C30  22614699.869   117760632.5401       2353.914          25.453  
C33  25142270.169   130922408.952       -2298.777          33.254  
E07                                                                  25542368.386   134226084.219        1337.560          33.170    25542378.279   100233791.244         998.821          38.132  
E08                                                                  27443257.028   144215331.808       -1232.885          26.715  
E13                                                                  27939406.052   146822545.774       -1982.151          31.280    27939412.048   109640246.078       -1480.192          30.905  
E24                                                                  27215325.422   143017379.7201       1533.828          22.931  
E33                                                                  23987150.341                        1386.700          24.464  
G01  21401657.741   112466469.073        2649.151          31.617  
G08  20514218.702   107802959.736        -738.654          28.351    20514219.901    80502208.354        -551.545          28.336  
G10  22903120.000   120356673.622       -2502.695          33.045  
G14  23646822.346                        2054.101          21.934  
G21  20842250.410                         822.144          24.381  
G22  23338997.248                        2775.293          21.466  
G27  22321570.898   117300645.776       -2730.767          29.144    22321577.793                       -2039.575          21.957  
G32  22847581.648   120064829.981        1528.615          38.191    22847582.848    89658816.147        1141.436          31.290  
R05  19830927.535   106007626.112         854.912          35.538  
R11  22514955.621                       -2202.078          21.689  
R12  23010065.863   122915653.660        1370.249          29.410  
R20  19883989.001   106328508.296        -628.419          26.688  
R21  21062832.904   112711528.690        3000.458          33.634  
> 2022  9 17  7 30  8.0000218  0 24
C06  40075405.274   208683125.379        1795.354          30.708  
C09  41074947.805   213888084.012        2117.542          30.138  
C27  21730526.769   113156539.762        -386.421          33.077  
C28  24869080.094   129499791.852       -2345.693          35.948  
C30  22614305.642   117758591.055        2353.705          25.472  
C33  25142773.520   130925020.247       -2299.075          33.422  
E07                                                                  25542172.922   134225062.212        1337.091          33.211    25542184.614   100233028.052         998.482          37.901  
E08                                                                  27443555.622   144216880.090       -1233.198          26.339  
E13                                                                  27939841.350   146824842.997       -1982.140          31.434    27939848.845   109641961.516       -1480.148          30.886  
E24                                                                  27215090.685                        1533.188          23.417  
E33                                                                  23986948.581                        1387.351          24.835  
G01  21401212.249   112464135.207        2648.950          31.509    21401214.647                        1973.614          20.604  
G08  20514416.865   107804013.810        -738.991          28.920    20514421.961    80502995.560        -551.916          28.380  
G10  22903653.631   120359491.635       -2502.928          33.068    22903664.723                       -1867.117          17.379  
G14  23646499.769                        2057.363          22.150  
G21  20842153.278                         821.891          24.019  
G22  23338532.270                        2774.869          21.618  
G27  22322153.695   117303691.865       -2731.005          29.519  
G32  22847352.607   120063617.002        1528.063          38.186    22847352.007    89657910.299        1141.138          31.441  
R05  19830827.704   106007092.574         854.051          35.528  
R11  22515462.270                       -2203.558          20.717  
R12  23009869.499   122914604.431        1369.516          29.884  
R20  19884156.885   106329457.643        -628.722          26.846  
R21  21062333.450   112708849.273        3000.267          33.326  
> 2022  9 17  7 30  9.0000221  0 24
C06  40075150.151   208681798.473        1795.236          30.465  
C09  41074629.726   213886434.951        2117.390          29.979  
C27  21730691.955   113157394.833        -386.741          32.716  
C28  24869617.322   129502606.045       -2345.863          36.002  
C30  22613943.193   117756705.898        2353.486          25.362  
C33  25143302.354   130927787.937       -2299.361          33.294  
E07                                                                  25542005.338   134224198.123        1336.715          33.097    25542019.728   100232382.832         998.156          37.991  
E08                                                                  27443880.297   144218586.384       -1233.668          26.946  
E13                                                                  27940307.528   146827297.797       -1982.173          31.261    27940315.622   109643794.630       -1480.179          30.818  
E24                                                                  27214889.824                        1532.411          22.720  
E33                                                                  23986771.703                        1386.779          24.414  
G01  21400796.737   112461959.221        2648.612          31.332    21400805.131                        1976.105          21.538  
G08  20514649.504   107805226.172        -739.735          28.711    20514651.602                        -552.490          28.392  
G10  22904222.337   120362467.412       -2503.151          33.324  
G14  23646196.679                        2060.063          22.563  
G21  20842087.323                         822.147          24.658  
G22  23338101.169                        2771.185          23.642  
G27  22322763.472   117306895.776       -2731.285          29.534  
G32  22847151.746   120062562.129        1527.499          38.127    22847150.847    89657122.568        1140.666          31.346  
R05  19830746.160   106006720.200         853.143          35.287  
R11  22515945.235                       -2200.198          21.333  
R12  23009695.619   122913716.265        1368.598          29.624  
R20  19884371.536                        -629.638          26.702  
R21  21061853.482   112706330.511        3000.037          33.232  
> 2022  9 17  7 30 10.0000223  0 24
C06  40074867.147   208680315.662        1795.030          30.298  
C09  41074282.866   213884629.885        2117.286          30.166  
C27  21730825.063   113158094.238        -387.185          32.696  
C28  24870129.967   129505264.343       -2346.079          36.149  
C30  22613549.266   117754664.880        2353.238          25.774  
C33  25143805.106   130930399.930       -2299.774          33.322  
E07                                                                  25541813.470   134223177.125        1336.082          33.078    25541825.462   100231620.357         997.764          37.973  
E08                                                                  27444173.494   144220135.488       -1234.020          26.629  
E13                                                                  27940744.925   146829595.113       -1982.232          31.451    27940752.719   109645510.206       -1480.286          30.574  
E24                                                                  27214658.684                        1532.472          22.352  
E33                                                                  23986564.547   126050263.1031       1386.772          24.104  
G01  21400350.945   112459626.082        2648.224          31.102    21400357.241                        1981.222          21.655  
G08  20514854.562   107806281.526        -740.270          29.066    20514853.363                        -553.105          28.022  
G10  22904758.366   120365286.027       -2503.532          33.083  
G14  23645863.909   124259705.1331       2056.232          23.236  
G21  20841997.685   109525415.2271        821.364          25.564  
G22  23337638.289   122640077.3701       2771.840          23.819  
G27  22323346.869   117309942.555       -2731.694          29.292  
G32  22846919.707   120061350.312        1526.902          37.973    22846922.405    89656217.629        1140.229          31.173  
R05  19830646.929   106006188.614         852.099          34.859  
R11  22516421.905                       -2207.164          20.900  
R12  23009503.752   122912668.811        1367.741          29.971  
R20  19884545.116   106331517.9821       -629.623          27.088  
R21  21061352.529   112703651.616        2999.745          33.406  
> 2022  9 17  7 30 11.0000225  0 24
C06  40074581.145   208678832.565        1795.317          30.433  
C09  41073939.603   213882824.488        2117.617          30.142  
C27  21730956.672   113158793.548        -387.091          32.928  
C28  24870642.313   129507922.381       -2345.819          36.384  
C30  22613159.236   117752623.664        2353.435          25.437  
C33  25144309.057   130933011.739       -2299.589          33.608  
E07                                                                  25541623.702   134222156.087        1336.123          33.166    25541630.897   100230857.888         997.759          37.958  
E08                                                                  27444475.985   144221684.659       -1234.087          27.160  
E13                                                                  27941181.123   146831892.029       -1981.832          31.322    27941190.117   109647225.353       -1479.857          30.790  
E24                                                                  27214425.146   143012665.4931       1532.574          22.303    27214425.745                        1146.336          17.331  
E33                                                                  23986363.086                        1387.447          24.207  
G01  21399906.953   112457292.730        2648.435          30.743    21399913.848                        1982.034          21.610  
G08  20515057.821   107807336.986        -740.376          29.072    20515052.425    80505477.1011       -552.874          27.902  
G10  22905294.994   120368104.432       -2503.320          32.987  
G14  23645527.542                        2056.316          22.357  
G21  20841903.251   109524908.619         821.692          25.778  
G22  23337162.519   122637620.557        2771.898          23.526  
G27  22323926.068   117312989.151       -2731.512          28.860    22323927.866                       -2039.727          21.704  
G32  22846689.766   120060138.650        1526.746          37.866    22846691.265    89655312.833        1140.086          31.378  
R05  19830549.196   106005657.433         851.693          34.607  
R11  22516852.108                       -2206.505          19.895  
R12  23009298.994   122911621.701        1367.397          29.972  
R20  19884738.482   106332468.206        -629.599          26.846  
R21  21060844.081   112700972.444        3000.022          33.106  
> 2022  9 17  7 30 12.0000228  0 24
C06  40074325.422   208677505.656        1795.238          30.569  
C09  41073622.423   213881175.220        2117.597          30.039  
C27  21731122.757   113159649.237        -387.360          32.450  
C28  24871180.140   129510736.630       -2345.919          36.613  
C30  22612795.887   117750738.691        2353.302          25.089  
C33  25144839.990   130935779.936       -2299.867          33.218  
E07                                                                  25541457.617   134221292.940        1335.773          33.276    25541467.210   100230213.329         997.495          37.934  
E08                                                                  27444797.062   144223391.612       -1234.327          26.898  
E13                                                                  27941649.998   146834346.382       -1981.728          31.372    27941657.493   109649058.202       -1479.914          30.652  
E24                                                                  27214228.182   143011605.734        1532.384          22.137  
E33                                                                  23986187.408                        1387.074          24.473  
G01  21399493.839   112455117.133        2648.224          30.285    21399500.134                        1977.852          21.324  
G08  20515289.561   107808550.404        -740.792          29.145    20515283.865    80506383.203        -553.167          27.934  
G10  22905864.300   120371080.573       -2503.516          33.165  
G14  23645234.045                        2055.668          22.496  
G21  20841837.596   109524559.833         821.412          25.837  
G22  23336724.822                        2777.581          23.010  
G27  22324535.246   117316193.505       -2731.728          28.628    22324542.741                       -2039.862          21.619  
G32  22846488.305   120059084.995        1526.281          37.992    22846491.003    89654525.969        1139.799          31.457  
R05  19830476.946   106005287.387         850.815          34.221  
R11  22517381.841                       -2201.489          20.001  
R12  23009135.607   122910735.612        1366.520          30.042  
R20  19884936.045   106333579.113        -629.969          26.978  
R21  21060380.302   112698453.850        2999.869          32.889  
> 2022  9 17  7 30 13.0000230  0 24
C06  40074043.017   208676022.802        1795.074          30.399  
C09  41073273.464   213879369.856        2117.583          29.358  
C27  21731254.366   113160349.150        -387.693          32.386  
C28  24871688.888   129513394.916       -2346.067          36.448  
C30  22612405.557                        2352.947          25.343  
C33  25145336.746   130938392.279       -2300.124          33.372  
E07                                                                  25541261.852   134220272.718        1335.305          33.061    25541272.645   100229451.423         997.196          38.013  
E08                                                                  27445091.159   144224941.447       -1234.751          26.964  
E13                                                                  27942086.196   146836643.250       -1981.784          31.619    27942094.590   109650773.355       -1479.863          30.905  
E24                                                                  27213995.243                        1531.446          22.406  
E33                                                                  23985986.847   126047204.8901       1386.872          24.095  
G01  21399048.347   112452784.297        2647.919          30.183    21399054.643                        1974.967          21.721  
G08  20515491.021   107809606.822        -741.334          29.477    20515484.126    80507172.057        -553.564          28.110  
G10  22906393.734   120373899.450       -2503.793          33.169  
G14  23644900.976                        2054.994          23.092  
G21  20841743.461   109524053.170         821.747          25.794  
G22  23336249.051                        2775.189          21.725  
G27  22325112.646   117319240.728       -2732.139          28.489    22325122.239    87608544.4471      -2040.148          21.547  
G32  22846257.465   120057874.319        1525.760          37.723    22846259.564    89653621.947        1139.312          31.792  
R05  19830378.315   106004757.976         849.923          34.339  
R11  22517827.333                       -2203.058          19.019  
R12  23008939.842   122909690.048        1365.851          30.398  
R20  19885115.021   106334530.039        -630.301          27.092  
R21  21059873.353   112695774.908        2999.792          32.830  
> 2022  9 17  7 30 14.0000232  0 24
C06  40073758.814   208674540.193        1794.829          30.599  
C09  41072927.804   213877564.716        2117.360          29.901  
C27  21731393.469   113161049.518        -388.148          32.574  
C28  24872199.734   129516053.443       -2346.308          36.552  
C30  22612015.827   117746657.2091       2352.794          26.106  
C33  25145844.294   130941005.090       -2300.591          33.605  
E07                                                                  25541069.386   134219253.010        1334.792          33.092    25541078.679   100228689.985         996.728          37.829  
E08                                                                  27445385.255   144226491.806       -1235.276          27.418  
E13                                                                  27942522.394   146838940.243       -1981.909          31.295    27942531.688   109652488.653       -1480.008          31.015  
E24                                                                  27213763.504                        1530.606          22.530  
E33                                                                  23985782.988   126046133.390        1386.584          23.619  
G01  21398604.654   112450451.825        2647.556          30.419    21398615.747                        1974.088          22.133  
G08  20515687.685   107810663.842        -741.936          29.210    20515686.486    80507961.405        -554.057          28.027  
G10  22906931.261   120376718.652       -2504.118          33.080  
G14  23644569.705   124252901.7281       2054.413          24.121  
G21  20841649.626   109523547.409         820.845          26.021  
G22  23335792.467                        2770.424          23.226  
G27  22325687.948   117322288.263       -2732.452          27.967    22325702.038    87610820.327       -2040.590          21.103  
G32  22846028.124   120056664.361        1525.042          37.650    22846029.923    89652718.407        1138.830          31.879  
R05  19830277.584   106004229.596         848.893          34.158  
R11  22518257.235                       -2203.379          18.805  
R12  23008747.975   122908645.450        1364.886          30.118  
R20  19885297.295   106335481.583        -630.919          27.524  
R21  21059386.790   112693096.371        2999.387          33.014  
> 2022  9 17  7 30 15.0000235  0 24
C06  40073504.290   208673214.120        1794.402          30.580  
C09  41072612.122   213875916.188        2116.857          29.981  
C27  21731555.357   113161906.657        -388.809          32.414  
C28  24872739.960   129518868.534       -2346.761          36.365  
C30  22611650.380   117744773.311        2352.228          25.973  
C33  25146373.428   130943774.561       -2301.142          33.402  
E07                                                                  25540905.099   134218391.694        1333.942          32.815    25540914.992   100228046.741         996.179          37.888  
E08                                                                  27445712.629   144228200.397       -1235.965          27.148  
E13                                                                  27942990.970   146841395.103       -1982.234          31.347    27942999.964   109654321.800       -1480.212          31.116  
E24                                                                  27213563.542   143008114.9391       1530.603          22.719  
E33                                                                  23985604.911                        1385.674          23.299  
G01  21398190.941   112448277.524        2646.927          30.610    21398199.934                        1974.379          21.896  
G08  20515920.624   107811879.318        -742.850          29.382    20515917.626    80508869.013        -554.674          27.817  
G10  22907501.467   120379696.014       -2504.736          33.283  
G14  23644268.114   124251320.917        2053.437          24.445  
G21  20841583.372                         819.932          26.039  
G22  23335350.573                        2769.633          23.359  
G27  22326299.824   117325493.922       -2733.033          27.906    22326313.914                       -2041.175          21.107  
G32  22845829.661   120055612.771        1524.216          37.783    22845829.961    89651933.158        1138.185          31.861  
R05  19830214.628   106003862.711         847.654          34.183  
R11  22518813.050                       -2208.701          17.686  
R12  23008580.691   122907762.168        1363.713          30.020  
R20  19885498.456   106336594.086        -631.566          27.284  
R21  21058906.822   112690578.844        2998.803          32.564  
> 2022  9 17  7 30 16.0000237  0 23
C06  40073218.288   208671732.384        1793.956          30.181  
C09  41072263.464   213874111.799        2116.609          30.037  
C27  21731691.763   113162608.346        -389.470          32.568  
C28  24873249.907   129521528.039       -2347.285          36.489  
C30  22611260.650   117742733.856        2351.674          26.238  
C33  25146877.979   130946388.551       -2301.770          33.591  
E07                                                                  25540712.633   134217373.536        1333.242          33.020    25540720.427   100227286.499         995.532          37.830  
E08                                                                  27446008.224   144229752.149       -1236.669          27.436  
E13                                                                  27943427.767   146843692.697       -1982.510          31.357    27943435.562   109656037.545       -1480.454          30.984  
E24                                                                  27213330.303                        1529.823          22.489  
E33                                                                  23985403.751                        1385.626          23.908  
G01  21397747.548   112445946.243        2646.365          30.754    21397754.743                        1973.492          21.814  
G08  20516122.084   107812938.072        -743.670          29.016    20516118.487    80509659.650        -555.346          28.152  
G10  22908036.896   120382516.348       -2505.250          33.319  
G14  23643938.642                        2051.773          24.329  
G21  20841480.243   109522695.7081        819.683          26.130  
G22  23334886.794   122625656.5531       2769.673          23.479  
G27  22326872.428   117328542.783       -2733.778          27.149    22326891.914                       -2038.780          19.995  
G32  22845596.423   120054404.533        1523.321          37.616    22845599.421    89651030.844        1137.604          31.730  
R05  19830107.902   106003336.832         846.391          33.854  
R12  23008381.029   122906719.846        1362.610          30.366  
R20  19885677.432   106337547.110        -632.399          27.115  
R21  21058406.169   112687901.316        2998.378          32.775  
> 2022  9 17  7 30 17.0000239  0 24
C06  40072933.186   208670250.823        1793.780          30.119  
C09  41071915.704   213872307.525        2116.494          30.065  
C27  21731821.873   113163310.313        -389.748          32.867  
C28  24873763.452   129524187.596       -2347.337          36.341  
C30  22610874.817                        2350.357          25.857  
C33  25147381.630   130949002.812       -2302.041          33.815  
E07                                                                  25540517.168   134216355.754        1332.866          32.668    25540527.061   100226526.442         995.347          37.905  
E08                                                                  27446303.519   144231304.260       -1237.027          27.240  
E13                                                                  27943867.563   146845990.281       -1982.500          31.178    27943872.360   109657753.241       -1480.406          30.835  
E24                                                                  27213097.964   143005685.8961       1529.402          23.299  
E33                                                                  23985199.892   126043078.7991       1385.568          23.926  
G01  21397305.654   112443615.223        2646.104          30.465    21397313.148    83967549.3221       1976.022          22.335  
G08  20516324.144   107813997.282        -744.126          28.807    20516320.847    80510450.641        -555.701          28.147  
G10  22908575.623   120385336.904       -2505.472          32.932    22908580.720                       -1871.036          18.262  
G14  23643604.673   124247846.2751       2052.197          23.443  
G21  20841382.811   109522191.389         819.403          25.725  
G22  23334417.019   122623202.176        2769.461          23.952  
G27  22327451.627   117331591.717       -2733.850          26.855    22327473.812                       -2041.963          20.833  
G32  22845368.281   120053196.792        1522.826          37.613    22845369.780    89650128.981        1137.153          31.912  
R05  19830001.176   106002811.797         845.548          33.783  
R11  22519717.524                       -2201.734          20.364  
R12  23008190.661   122905678.303        1361.831          30.660  
R20  19885863.303   106338500.355        -632.620          27.200  
R21  21057909.413   112685224.014        2998.151          32.669  
> 2022  9 17  7 30 18.0000242  0 24
C06  40072678.362   208668925.465        1793.687          30.328  
C09  41071599.423   213870659.565        2116.289          29.666  
C27  21731990.056   113164168.839        -390.197          32.750  
C28  24874303.378   129527003.519       -2347.593          36.586  
C30  22610513.567   117738811.5751       2351.290          26.242  
C33  25147909.864   130951773.540       -2302.398          33.569  
E07                                                                  25540355.580   134215495.980        1332.400          33.069    25540363.674   100225884.445         994.931          37.893  
E08                                                                  27446628.794   144233014.351       -1237.464          26.920  
E13                                                                  27944334.040   146848445.539       -1982.632          30.786    27944340.036   109659586.709       -1480.533          31.064  
E24                                                                  27212902.200                        1528.886          23.196  
E33                                                                  23985026.612   126042166.059        1385.366          23.458  
G01  21396889.841   112441442.032        2645.817          30.624    21396899.735                        1975.342          22.888  
G08  20516554.385   107815214.631        -744.723          28.771    20516553.486    80511359.695        -556.119          28.070  
G10  22909146.728   120388315.368       -2505.838          33.007    22909148.526                       -1873.453          18.302  
G14  23643307.879   124246267.493        2051.407          23.465  
G21  20841319.555   109521844.821         819.194          25.117  
G22  23333984.419                        2768.661          23.817  
G27  22328060.505   117334798.615       -2734.272          26.676    22328085.388    87620162.4351      -2041.799          21.001  
G32  22845165.921   120052147.220        1522.198          37.684    22845170.118    89649345.180        1136.736          31.763  
R05  19829944.215   106002448.044         844.522          33.913  
R11  22520251.754                       -2200.864          20.667  
R12  23008030.272   122904797.771        1360.963          31.183  
R20  19886068.361   106339614.448        -633.155          26.702  
R21  21057434.242   112682707.315        2997.974          33.168  
> 2022  9 17  7 30 19.0000244  0 24
C06  40072392.360   208667443.594        1794.091          30.080  
C09  41071255.262   213868854.855        2116.929          29.432  
C27  21732125.563   113164870.970        -389.911          32.838  
C28  24874813.925   129529662.924       -2347.186          36.607  
C30  22610122.638   117736772.117        2351.678          26.777  
C33  25148413.815   130954387.915       -2302.156          33.794  
E07                                                                  25540163.713   134214478.612        1332.452          32.987    25540170.008   100225124.692         995.044          37.924  
E08                                                                  27446924.390   144234566.697       -1237.263          27.299  
E13                                                                  27944771.138   146850742.631       -1982.008          30.899    27944778.033   109661302.076       -1480.076          31.247  
E24                                                                  27212671.060                        1527.774          23.083  
E33                                                                  23984824.252   126041095.306        1385.837          24.003  
G01  21396445.249   112439111.080        2646.036          30.517    21396456.042                        1976.308          23.357  
G08  20516753.147   107816274.414        -744.698          28.264    20516754.646    80512151.099        -556.114          28.067  
G10  22909676.761   120391135.964       -2505.512          33.170    22909686.654                       -1873.162          19.523  
G14  23642976.908                        2051.243          23.750  
G21  20841225.420   109521340.035         819.870          24.347  
G22  23333522.439   122618451.0071       2769.827          24.241  
G27  22328643.901   117337847.699       -2734.000          26.285    22328663.688                       -2041.137          21.831  
G32  22844938.678   120050940.074        1522.229          37.833    22844941.076    89648443.733        1136.737          31.911  
R05  19829851.879   106001924.355         844.202          34.346  
R11  22520741.315                       -2208.576          21.581  
R12  23007836.306   122903757.407        1360.652          31.074  
R20  19886248.836   106340568.115        -633.042          26.386  
R21  21056928.792   112680029.861        2998.305          32.739  
> 2022  9 17  7 30 20.0000246  0 24
C06  40072109.656   208665961.717        1794.097          30.457  
C09  41070908.102   213867050.164        2116.910          29.540  
C27  21732259.870   113165573.283        -390.093          32.807  
C28  24875324.471   129532322.238       -2347.094          36.704  
C30  22609729.610   117734732.758        2351.578          26.493  
C33  25148915.068   130957002.305       -2302.170          33.631  
E07                                                                  25539965.850   134213461.437        1332.259          32.901    25539976.642   100224365.182         994.800          38.124  
E08                                                                  27447222.084   144236119.292       -1237.511          27.594  
E13                                                                  27945208.235   146853039.543       -1981.829          30.707    27945214.231   109663017.317       -1479.951          31.346  
E24                                                                  27212435.423                        1528.073          23.325  
E33                                                                  23984616.795                        1385.160          23.140  
G01  21396002.156   112436780.175        2645.989          30.330    21396011.150                        1975.667          22.663  
G08  20516952.809   107817334.542        -745.045          27.875    20516955.807    80512942.729        -556.340          28.850  
G10  22910215.488   120393956.644       -2505.596          33.316    22910223.582                       -1866.342          19.423  
G14  23642647.436   124242794.9291       2051.144          24.489  
G21  20841126.189   109520835.760         819.359          24.122  
G22  23333050.565   122615996.953        2769.138          24.702  
G27  22329226.098   117340896.876       -2734.093          26.278    22329244.386    87624716.2481      -2041.721          20.471  
G32  22844708.737   120049733.291        1521.867          37.888    22844712.934    89647542.608        1136.416          31.899  
R05  19829753.847   106001401.387         843.480          34.520  
R11  22521216.486                       -2208.795          22.785  
R12  23007636.045   122902717.619        1360.076          30.955  
R20  19886429.611   106341521.990        -633.250          26.332  
R21  21056435.033   112677352.337        2998.373          32.545  
> 2022  9 17  7 30 21.0000249  0 25
C06  40071853.933   208664636.380        1793.666          30.559  
C09  41070589.722   213865401.967        2116.527          29.453  
C27  21732425.655   113166432.369        -390.756          32.717  
C28  24875865.896   129535138.197       -2347.630          36.739  
C30  22609369.559   117732850.020        2351.068          26.558  
C32  23828904.293                        3310.027          15.631  
C33  25149442.104   130959773.525       -2302.891          33.385  
E07                                                                  25539804.861   134212602.645        1331.418          32.823    25539813.255   100223723.871         994.246          37.979  
E08                                                                  27447547.958   144237830.107       -1238.189          27.451  
E13                                                                  27945675.312   146855494.338       -1982.169          30.631    27945681.607   109664850.427       -1480.175          31.202  
E24                                                                  27212232.164   143001146.6471       1527.959          23.218  
E33                                                                  23984442.916                        1385.610          22.877  
G01  21395585.744   112434607.427        2645.373          30.038    21395600.134    83960822.7651       1975.378          22.708  
G08  20517185.748   107818553.007        -745.839          27.709    20517187.846    80513852.650        -556.986          28.326  
G10  22910782.096   120396935.439       -2506.169          33.017    22910790.490                       -1864.652          19.776  
G14  23642341.647                        2049.983          24.231  
G21  20841061.134   109520489.523         818.863          24.192  
G22  23332613.768   122613700.993        2768.586          24.173  
G27  22329838.275                       -2735.061          26.546    22329857.162                       -2042.192          20.683  
G32  22844509.375   120048684.952        1520.965          37.844    22844511.474    89646759.733        1135.810          32.082  
R05  19829698.385   106001039.942         842.214          34.709  
R11  22521731.530                       -2206.263          23.553  
R12  23007480.153   122901839.101        1358.949          31.113  
R20  19886629.273                        -633.998          26.577  
R21  21055966.458   112674835.884        2997.728          32.590  
> 2022  9 17  7 30 22.0000251  0 25
C06  40071570.329   208663155.351        1793.249          30.602  
C09  41070244.062   213863597.984        2116.203          29.284  
C27  21732560.861   113167135.925        -391.337          32.978  
C28  24876377.342   129537798.391       -2347.974          37.040  
C30  22608978.330   117730811.647        2350.593          26.839  
C32  23828333.188                        3302.778          14.585  
C33  25149948.153   130962389.140       -2303.395          33.508  
E07                                                                  25539609.396   134211587.077        1330.652          32.823    25539619.589   100222965.397         993.764          38.049  
E08                                                                  27447843.254   144239384.047       -1238.856          27.651  
E13                                                                  27946110.910   146857791.874       -1982.452          30.733    27946118.105   109666566.072       -1480.355          31.007  
E24                                                                  27212000.424   142999934.189        1527.542          22.622  
E33                                                                  23984238.157                        1384.742          23.391  
G01  21395145.349   112432277.677        2644.834          29.919    21395156.741    83959082.986        1975.069          24.008  
G08  20517381.812   107819614.773        -746.682          27.913    20517389.007                        -557.695          28.054  
G10  22911320.523   120399757.185       -2506.661          32.893    22911324.720                       -1868.624          20.144  
G14  23642012.176   124239482.9581       2049.426          24.863  
G21  20840956.206   109519986.401         818.206          23.971  
G22  23332144.293                        2768.068          24.754  
G27  22330416.574                       -2735.459          26.516    22330436.361    87629389.1251      -2042.531          20.491  
G32  22844280.933   120047479.830        1520.206          37.865    22844282.432    89645859.843        1135.180          32.159  
R05  19829594.957   106000519.420         841.034          34.947  
R11  22522217.793                       -2210.551          23.298  
R12  23007281.690   122900801.526        1357.863          30.963  
R20  19886812.146   106343592.2141       -634.758          25.822  
R21  21055463.106   112672159.377        2997.357          32.709  
> 2022  9 17  7 30 23.0000253  0 25
C06  40071284.627   208661674.584        1792.987          30.571  
C09  41069897.502   213861794.120        2116.084          29.530  
C27  21732697.267   113167839.931        -391.787          33.456  
C28  24876886.690   129540458.838       -2348.228          36.874  
C30  22608584.403   117728773.583        2350.283          27.041  
C32  23827753.390                        3310.738          13.368  
C33  25150446.708   130965005.119       -2303.759          33.371  
E07                                                                  25539417.529   134210571.913        1330.248          32.805    25539426.823   100222207.387         993.300          37.948  
E08                                                                  27448138.549   144240938.485       -1239.355          27.614  
E13                                                                  27946548.907   146860089.497       -1982.539          30.919    27946555.802   109668281.859       -1480.496          30.938  
E24                                                                  27211771.083                        1526.601          22.195  
E33                                                                  23984032.500                        1385.123          23.021  
G01  21394700.157   112429948.256        2644.505          29.931    21394712.449    83957343.472        1974.804          23.246  
G08  20517586.271   107820677.117        -747.260          27.639    20517590.767    80515438.8451       -558.037          28.180  
G10  22911858.650   120402579.296       -2507.027          32.699    22911862.248                       -1876.176          21.375  
G14  23641680.905                        2048.888          24.142  
G21  20840859.373   109519483.574         817.911          23.670  
G22  23331677.816                        2767.215          24.405  
G27  22331002.369                       -2736.068          26.283    22331018.558                       -2042.941          21.033  
G32  22844050.993   120046275.366        1519.548          37.897    22844054.290    89644960.354        1134.780          32.100  
R05  19829489.430   105999999.916         840.016          34.909  
R11  22522701.658                       -2212.531          23.607  
R12  23007091.622   122899764.785        1357.028          31.088  
R20  19886987.525                        -637.012          25.571  
R21  21054969.348   112669483.157        2997.070          32.543  
> 2022  9 17  7 30 24.0000256  0 24
C06  40071031.602   208660349.970        1792.943          30.697  
C09  41069580.321   213860146.494        2115.955          29.796  
C27  21732863.052   113168700.366        -392.105          33.251  
C28  24877427.216   129543275.556       -2348.389          36.948  
C30  22608220.455   117726891.792        2350.120          26.746  
C33  25150980.039   130967777.504       -2304.056          33.429  
E07                                                                  25539253.543   134209714.672        1329.867          32.919    25539263.436   100221567.275         993.047          37.982  
E08                                                                  27448462.925   144242650.791       -1239.679          27.904  
E13                                                                  27947015.384   146862544.671       -1982.548          30.228    27947024.378   109670115.248       -1480.455          30.938  
E24                                                                  27211569.323                        1526.437          21.587  
E33                                                                  23983855.922                        1385.032          22.792  
G01  21394288.542   112427776.673        2644.208          29.665    21394299.335    83955721.805        1974.602          22.847  
G08  20517818.610   107821897.582        -747.839          27.912    20517824.006    80516350.144        -558.364          28.292  
G10  22912422.860   120405559.150       -2507.228          32.438    22912430.355                       -1875.589          21.507  
G14  23641380.513                        2047.679          24.476  
G21  20840796.717                         817.281          23.696  
G22  23331246.714   122606501.3951       2767.325          24.432  
G27  22331603.453   117353413.9331      -2735.915          25.709    22331627.736                       -2043.362          21.467  
G32  22843854.329   120045229.006        1518.985          38.145    22843854.029    89644179.019        1134.270          32.086  
R05  19829439.365   105999641.511         839.174          35.204  
R11  22523194.217                       -2211.045          23.753  
R12  23006928.535   122898889.109        1356.108          31.404  
R20  19887196.780                        -635.732          25.724  
R21  21054496.875   112666967.550        2996.882          32.781  
> 2022  9 17  7 30 25.0000258  0 24
C06  40070748.598   208658869.547        1792.643          30.620  
C09  41069234.061   213858342.949        2115.764          29.649  
C27  21732998.858   113169405.131        -392.546          33.527  
C28  24877938.062   129545936.380       -2348.604          36.938  
C30  22607831.624   117724854.238        2349.774          26.765  
C33  25151486.388   130970394.281       -2304.557          33.272  
E07                                                                  25539059.277   134208700.626        1329.131          32.936    25539070.369   100220809.983         992.582          38.066  
E08                                                                  27448758.820   144244206.011       -1240.136          28.279  
E13                                                                  27947451.282   146864842.380       -1982.625          30.584    27947460.875   109671831.084       -1480.546          30.961  
E24                                                                  27211335.484   142996458.0521       1525.797          21.968  
E33                                                                  23983655.661                        1384.258          22.779  
G01  21393844.550   112425447.932        2643.826          29.927    21393855.342    83953982.855        1974.240          23.723  
G08  20518024.267   107822961.103        -748.437          28.148    20518026.066    80517144.339        -558.905          28.313  
G10  22912960.687   120408381.885       -2507.651          32.467    22912967.882                       -1873.730          21.178  
G14  23641051.940   124234441.1431       2047.599          24.920  
G21  20840695.087                         816.414          22.856  
G22  23330772.442   122604049.673        2766.805          23.968  
G27  22332187.149   117356465.370       -2736.353          26.156    22332207.834                       -2043.304          21.684  
G32  22843621.990   120044025.752        1518.339          37.887    22843625.587    89643280.501        1133.808          32.182  
R05  19829346.429   105999123.884         838.139          34.904  
R11  22523667.889                       -2211.192          24.454  
R12  23006738.167   122897854.163        1355.234          31.022  
R20  19887367.662                        -636.226          25.501  
R21  21053997.721   112664291.818        2996.581          32.625  
> 2022  9 17  7 30 26.0000260  0 24
C06  40070465.894   208657389.382        1792.384          30.595  
C09  41068889.000   213856539.638        2115.531          29.591  
C27  21733133.765   113170110.367        -393.016          33.626  
C28  24878447.409   129548597.544       -2348.944          36.890  
C30  22607441.294   117722816.987        2349.471          27.031  
C33  25151989.140   130973011.376       -2304.876          33.320  
E07                                                                  25538868.909   134207687.070        1328.640          32.837    25538877.603   100220053.031         992.241          38.007  
E08                                                                  27449055.314                       -1241.130          28.315  
E13                                                                  27947887.780   146867140.263       -1982.799          30.679    27947897.673   109673546.995       -1480.621          31.029  
E24                                                                  27211109.441                        1524.684          21.723  
E33                                                                  23983454.500                        1384.282          22.495  
G01  21393404.754   112423119.602        2643.414          30.051    21393413.148    83952244.169        1973.976          23.660  
G08  20518226.627   107824025.201        -749.014          28.329    20518229.925    80517938.988        -559.359          28.258  
G10  22913497.316   120411204.912       -2507.944          32.102    22913506.310                       -1871.256          20.682  
G14  23640723.668   124232709.400        2046.827          24.586  
G21  20840606.049                         817.163          22.993  
G22  23330304.466   122601598.235        2766.522          23.437  
G27  22332772.044   117359517.145       -2736.691          27.245    22332791.230                       -2043.596          22.334  
G32  22843392.648   120042823.170        1517.666          37.686    22843397.445    89642382.469        1133.321          32.153  
R05  19829225.613   105998607.307         837.089          34.897  
R11  22524155.052   120361995.5411      -2211.738          23.911  
R12  23006548.998   122896820.223        1354.228          31.058  
R20  19887546.038   106347578.1671       -636.587          25.390  
R21  21053507.560   112661616.460        2996.208          33.065  
> 2022  9 17  7 30 27.0000263  0 24
C06  40070209.571   208656065.639        1792.073          30.567  
C09  41068572.119   213854892.669        2115.298          29.430  
C27  21733300.149   113170972.231        -393.534          33.931  
C28  24878991.233   129551415.126       -2349.253          36.993  
C30  22607081.243   117720936.220        2349.096          27.053  
C33  25152520.372   130975785.056       -2305.351          33.547  
E07                                                                  25538700.725   134206831.583        1328.113          32.821    25538714.516   100219414.247         991.720          37.980  
E08                                                                  27449382.088   144247475.7131      -1241.284          28.374  
E13                                                                  27948355.156   146869595.854       -1982.965          30.419    27948365.049   109675380.722       -1480.792          30.996  
E24                                                                  27210908.880   142994195.6521       1524.759          22.757  
E33                                                                  23983279.721   126033011.3781       1383.692          22.848  
G01  21392991.340   112420949.227        2643.001          30.027    21393000.634                        1973.943          23.554  
G08  20518458.367   107825247.579        -749.752          28.403    20518461.365    80518851.882        -559.959          28.180  
G10  22914072.018   120414185.929       -2508.391          32.345  
G14  23640425.974   124231135.814        2046.212          24.861  
G21  20840541.893                         816.532          23.540  
G22  23329866.170                        2762.798          22.479  
G27  22333386.918   117362726.997       -2737.226          27.682    22333400.708                       -2044.279          21.884  
G32  22843193.586   120041778.870        1516.926          37.872    22843198.383    89641602.631        1132.773          32.069  
R05  19829173.149   105998252.102         835.974          34.695  
R11  22524627.825   120364688.768       -2212.627          24.803  
R12  23006379.315   122895947.319        1353.335          31.166  
R20  19887762.489   106348696.245        -637.141          25.368  
R21  21053036.286   112659101.875        2995.860          32.883  
> 2022  9 17  7 30 28.0000265  0 24
C06  40069925.068   208654585.955        1791.904          30.635  
C09  41068227.658   213853089.704        2115.184          29.329  
C27  21733438.354   113171678.337        -393.886          33.891  
C28  24879503.578   129554076.746       -2349.400          37.221  
C30  22606691.213   117718899.650        2348.789          27.097  
C33  25153021.925   130978402.964       -2305.688          33.367  
E07                                                                  25538514.554   134205819.135        1327.532          32.795    25538522.049   100218658.159         991.378          38.030  
E08                                                                  27449677.684   144249032.415       -1241.619          28.187  
E13                                                                  27948791.354   146871893.926       -1982.988          30.539    27948802.147   109677096.767       -1480.756          31.353  
E24                                                                  27210676.541   142992986.519        1524.216          23.206  
E33                                                                  23983074.963                        1382.990          22.116  
G01  21392545.849   112418621.645        2642.666          29.757    21392557.541                        1972.846          23.334  
G08  20518664.624   107826313.078        -750.415          28.767    20518664.624    80519647.442        -560.270          28.576  
G10  22914595.156   120417009.721       -2508.708          32.132    22914609.846                       -1871.123          21.957  
G14  23640103.697                        2045.030          24.747  
G21  20840448.658                         816.361          24.455  
G22  23329399.992                        2764.798          22.004  
G27  22333963.719   117365779.578       -2737.497          27.307    22333981.107    87643297.2181      -2044.109          21.312  
G32  22842969.042   120040577.564        1516.389          37.978    22842969.941    89640705.534        1132.388          32.037  
R05  19829061.027   105997737.553         835.061          34.596  
R11  22525119.184   120367222.447       -2213.279          25.243  
R12  23006184.150   122894915.141        1352.466          31.294  
R20  19887930.372                        -637.928          25.751  
R21  21052539.230   112656427.036        2995.689          33.272  
> 2022  9 17  7 30 29.0000267  0 24
C06  40069642.364   208653106.483        1791.691          30.584  
C09  41067880.198   213851286.941        2114.982          29.148  
C27  21733573.260   113172384.900        -394.344          33.975  
C28  24880014.125   129556738.617       -2349.651          37.240  
C30  22606300.584   117716863.310        2348.560          27.312  
C33  25153525.577   130981021.265       -2306.082          33.047  
E07                                                                  25538320.589   134204807.147        1327.072          32.646    25538329.882   100217902.518         990.930          37.874  
E08                                                                  27449974.778   144250589.709       -1242.210          28.251  
E13                                                                  27949231.749   146874192.139       -1983.129          30.623    27949238.645   109678812.981       -1480.924          31.328  
E24                                                                  27210451.097   142991777.901        1523.702          23.243  
E33                                                                  23982867.506                        1382.826          21.053  
G01  21392103.655   112416294.445        2642.283          29.661    21392114.148                        1972.936          23.555  
G08  20518870.581   107827379.080        -750.918          29.138    20518866.684    80520443.525        -560.793          28.952  
G10  22915139.579   120419833.860       -2509.055          31.920    22915146.774                       -1874.011          21.650  
G14  23639776.323   124227675.5071       2044.918          24.313  
G21  20840359.319                         815.372          24.496  
G22  23328938.012                        2764.669          22.110  
G27  22334539.320   117368832.577       -2737.915          27.023    22334559.106                       -2045.293          22.252  
G32  22842736.103   120039376.974        1515.675          37.849    22842740.600    89639808.978        1131.846          32.260  
R05  19828973.487   105997224.080         833.985          34.454  
R11  22525587.161   120369756.725       -2213.878          25.372  
R12  23005991.983   122893883.939        1351.490          31.167  
R20  19888105.451   106350613.1231       -638.095          25.629  
R21  21052040.076   112653752.536        2995.350          32.778  
> 2022  9 17  7 30 30.0000270  0 24
C06  40069387.840   208651783.455        1791.358          30.647  
C09  41067563.018   213849640.496        2114.775          29.289  
C27  21733742.343   113173248.081        -394.852          34.125  
C28  24880554.351   129559556.935       -2349.988          37.424  
C30  22605938.734   117714983.574        2348.066          27.633  
C33  25154056.509   130983796.176       -2306.581          33.438  
E07                                                                  25538156.902   134203953.380        1326.393          32.956    25538167.095   100217264.946         990.508          37.946  
E08                                                                  27450301.851   144252305.086       -1242.750          28.353  
E13                                                                  27949699.426   146876648.100       -1983.335          30.710    27949708.120   109680646.948       -1481.032          31.176  
E24                                                                  27210244.839   142990727.469        1523.059          23.494  
E33                                                                  23982695.725                        1382.892          21.227  
G01  21391689.941   112414125.223        2641.849          29.648    21391702.233    83945527.4871       1972.886          23.783  
G08  20519103.220   107828603.346        -751.640          29.416    20519099.623    80521357.724        -561.264          28.815  
G10  22915706.786   120422815.996       -2509.510          31.632    22915714.881                       -1874.483          21.565  
G14  23639466.938   124226104.021        2044.112          24.402  
G21  20840292.766   109516446.4311        815.484          24.420  
G22  23328506.311                        2768.253          22.195  
G27  22335156.593   117372043.583       -2738.380          27.352    22335172.182                       -2044.682          22.427  
G32  22842540.039   120038334.616        1514.984          37.653    22842542.437    89639030.620        1131.293          32.177  
R05  19828906.634   105996871.915         832.934          34.386  
R11  22526089.613   120372452.105       -2214.780          25.099  
R12  23005830.095   122893013.824        1350.545          31.221  
R20  19888329.696   106351732.750        -638.690          25.969  
R21  21051560.108   112651238.862        2994.949          32.861  
> 2022  9 17  7 30 31.0000272  0 24
C06  40069105.136   208650304.329        1791.345          30.719  
C09  41067217.357   213847837.853        2114.863          29.227  
C27  21733874.252   113173955.349        -395.048          34.047  
C28  24881066.396   129562219.171       -2350.016          37.480  
C30  22605549.604   117712947.711        2348.082          28.059  
C33  25154564.058   130986415.070       -2306.674          33.223  
E07                                                                  25537964.135   134202942.362        1326.102          32.558    25537974.628   100216509.952         990.284          38.036  
E08                                                                  27450599.246   144253863.090       -1242.920          28.456  
E13                                                                  27950136.523   146878946.312       -1983.128          31.044    27950144.018   109682363.137       -1480.899          31.290  
E24                                                                  27210016.697                        1522.687          22.910  
E33                                                                  23982488.569                        1381.805          21.092  
G01  21391245.349   112411798.634        2641.673          29.562    21391260.039    83943790.160        1972.617          24.151  
G08  20519309.478   107829670.471        -752.041          29.513    20519302.882    80522154.546        -561.532          28.513  
G10                                                                  22916253.008                       -1873.953          22.457  
G14  23639142.862                        2042.910          25.209  
G21  20840193.834                         814.878          24.306  
G22  23328022.746                        2766.586          22.112  
G27  22335736.691   117375097.225       -2738.558          27.828    22335751.381                       -2045.086          22.605  
G32  22842313.096   120037135.113        1514.587          37.848    22842314.894    89638134.877        1131.033          32.308  
R05  19828807.102   105996360.305         832.123          34.371  
R11  22526564.484   120374987.555       -2215.050          25.465  
R12  23005636.130   122891984.204        1349.908          31.136  
R20  19888512.869   106352692.307        -638.933          25.907  
R21  21051075.344   112648564.791        2994.921          32.990  
