     3.03           OBSERVATION DATA    M: Mixed            RINEX VERSION / TYPE
Geo++ RINEX Logger  Geo++               20220917 061610 UTC PGM / RUN BY / DATE
************************************************************COMMENT
This file was generated by the Geo++ RINEX Logger App       COMMENT
for Android devices (Version 2.1.6). If you encounter       COMMENT
any issues, please send an email to android@geopp.de        COMMENT
Filtering Mode: BEST                                        COMMENT
************************************************************COMMENT
Geo++                                                       MARKER NAME
GEODETIC                                                    MARKER TYPE
Geo++               Geo++                                   OBSERVER / AGENCY
unknown             Xiaomi              MI 8                REC # / TYPE / VERS
unknown             MI 8                                    ANT # / TYPE
  4410317.3782   193656.3768  4588676.2725                  APPROX POSITION XYZ
        0.0000        0.0000        0.0000                  ANTENNA: DELTA H/E/N
G    8 C1C L1C D1C S1C C5Q L5Q D5Q S5Q                      SYS / # / OBS TYPES
R    4 C1C L1C D1C S1C                                      SYS / # / OBS TYPES
E   12 C1B L1B D1B S1B C1C L1C D1C S1C C5Q L5Q D5Q S5Q      SYS / # / OBS TYPES
C    4 C2I L2I D2I S2I                                      SYS / # / OBS TYPES
J    8 C1C L1C D1C S1C C5Q L5Q D5Q S5Q                      SYS / # / OBS TYPES
  2022     9    17     6    16   28.9997832     GPS         TIME OF FIRST OBS
 24 R01  1 R02 -4 R03  5 R04  6 R05  1 R06 -4 R07  5 R08  6 GLONASS SLOT / FRQ #
    R09 -2 R10 -5 R11  0 R12 -1 R13 -2 R14 -7 R15  0 R16 -1 GLONASS SLOT / FRQ #
    R17  4 R18 -3 R19  3 R20  2 R21  4 R22 -3 R23  3 R24  2 GLONASS SLOT / FRQ #
G L1C                                                       SYS / PHASE SHIFT
G L5Q -0.25000                                              SYS / PHASE SHIFT
R L1C                                                       SYS / PHASE SHIFT
E L1B                                                       SYS / PHASE SHIFT
E L1C +0.50000                                              SYS / PHASE SHIFT
E L5Q -0.25000                                              SYS / PHASE SHIFT
C L2I                                                       SYS / PHASE SHIFT
J L1C                                                       SYS / PHASE SHIFT
J L5Q -0.25000                                              SYS / PHASE SHIFT
 C1C    0.000 C1P    0.000 C2C    0.000 C2P    0.000        GLONASS COD/PHS/BIS
                                                            END OF HEADER
> 2022  9 17  6 16 28.9997832  2  0
> 2022  9 17  6 16 28.9997832  0 23
C13  40880098.896                        -504.276          23.770  
C14  24756044.547                       -1461.105          30.122  
C27  21722197.635                        1231.894          19.669  
C28  22927362.717   119388793.3611      -1268.617          38.116  
C30  24613994.486   128171528.2191       3165.134          27.981  
C33  23671251.534                         -49.630          28.420  
C36  25241522.158                         482.278          18.701  
E08                                                                  26939445.010   141567739.2901       1016.856          32.489  
E13                                                                  26018621.983   136728781.6271      -1638.260          30.715  
E26                                                                  23850980.110   125337746.5721        252.060          24.717  
E31                                                                  25498398.726   133994990.1801       1422.007          32.158    25498397.527   100061187.8961       1061.767          25.760  
E33                                                                  25145579.577                        2295.785          24.135    25145585.274                        1722.124          19.733  
G08  20570203.444   108097147.7451       1718.531          32.507    20570207.042    80721910.4141       1283.340          27.697  
G10  21223175.102                        -316.540          29.818    21223184.995    83284336.3441       -235.787          36.479  
G21  21754479.587                        2299.969          21.958  
G23  22799734.172                       -2147.535          26.454  
G27  20418426.917   107299557.0071       -748.967          33.158  
G32  24652181.150   129548085.5331       3378.722          29.837  
R03  23108210.419   123700059.5141      -2474.401          32.817  
R04  20765962.523   111200785.9021        923.114          30.101  
R05  21740958.947   116217885.3551       4339.740          32.588  
R11  21804193.271                        1633.589          22.023  
R19  21592712.176                       -1976.748          17.890  
> 2022  9 17  6 16 29.9997836  0 23
C13  40880310.550   212874529.3981       -502.492          24.828  
C14  24756444.770   128913306.0061      -1461.238          29.591  
C27  21722079.817                        1235.741          15.731  
C28  22927724.866   119390686.201       -1268.401          38.642  
C30  24613509.122   128168986.950        3165.709          28.785  
C33  23671381.044   123263092.1781        -49.503          27.728  
C36  25241553.936                         482.720          18.305  
E07                                                                  27078855.099                        3055.347          33.033  
E08                                                                  26939371.561   141567352.631        1016.827          32.987    26939370.962                         759.052          25.385  
E13                                                                  26019054.583   136731049.732       -1637.937          30.089  
E26                                                                  23851051.161                         252.916          23.950  
E31                                                                  25498247.331   133994198.333        1422.015          32.165    25498248.530   100060596.560        1061.916          26.902  
E33                                                                  25145271.391                        2295.422          24.297    25145270.491                        1711.792          18.170  
G08  20569999.586   108096059.319        1718.594          30.506    20570002.284    80721097.627        1283.367          27.973  
G10  21223353.778   111529483.4231       -315.810          29.394    21223364.870    83285042.785        -235.861          37.362  
G23  22800263.006                       -2147.636          25.526  
G27  20418686.837   107300936.096        -748.921          34.372  
G32  24651655.314   129545336.826        3378.875          30.116    24651652.316    96738378.1921       2523.186          26.764  
R03  23108793.215   123703175.976       -2474.537          32.564  
R04  20765900.766   111200505.461         922.591          31.487  
R05  21740268.525   116214186.588        4339.792          32.292  
R11  21804012.796                        1630.864          22.324  
R19  21593189.446                       -1972.516          17.549  
> 2022  9 17  6 16 30.9997840  0 23
C13  40880528.199                        -502.470          24.365  
C14  24756846.192   128915392.264       -1461.818          29.451  
C27  21721963.198                        1239.184          13.861  
C28  22928088.814   119392579.445       -1268.805          38.119  
C30  24613021.060   128166445.986        3165.403          29.087  
C33  23671510.254                         -50.370          26.610  
E07                                                                  27078388.921   142297919.3821       3055.051          32.953  
E08                                                                  26939296.913   141566966.609        1016.189          32.705    26939297.512   105715588.6571        758.914          25.781  
E13                                                                  26019486.284   136733318.020       -1638.119          30.331    26019495.578   102106088.6511      -1223.221          22.783  
E26                                                                  23851121.612   125338501.9341        252.231          23.986  
E31                                                                  25498096.835   133993407.151        1421.350          32.110    25498096.835                        1061.787          26.892  
E33                                                                  25144951.812   132137580.9421       2295.736          24.122    25144953.911                        1715.645          18.779  
G08  20569795.127   108094971.449        1718.038          30.691    20569793.628    80720285.240        1282.967          27.584  
G10  21223534.553   111530430.239        -316.648          29.075    21223544.746    83285749.881        -236.516          37.134  
G21  21753845.226   114317224.7391       2298.265          25.562  
G23  22800796.937                       -2148.651          24.657  
G27  20418946.158   107302315.905        -749.641          34.914  
G32  24651133.975   129542588.909        3378.085          30.455    24651127.679    96736325.730        2523.043          25.732  
R03  23109373.314   123706293.225       -2475.325          32.451  
R04  20765851.300   111200226.121         921.490          31.858  
R05  21739571.208   116210488.478        4339.135          32.815  
R11  21803835.319                        1627.350          21.429  
R19  21593698.194                       -1969.920          17.796  
> 2022  9 17  6 16 31.9997843  0 23
C13  40880717.968   212876628.0131       -503.204          25.181  
C14  24757219.134   128917323.436       -1462.843          28.837  
C27  21721824.394                        1229.533          18.163  
C28  22928424.282   119394317.386       -1269.612          38.140  
C30  24612503.019   128163749.553        3164.762          29.450  
C33  23671600.792                         -52.102          25.317  
E07                                                                  27077904.457   142295337.270        3054.738          32.571  
E08                                                                  26939193.185   141566424.127        1015.108          32.234    26939194.384                         758.213          25.015  
E13                                                                  26019888.006   136735429.459       -1638.814          30.974    26019895.201                       -1224.076          23.658  
E26                                                                  23851165.382   125338722.985         251.574          23.750    23851173.176                         188.316          24.415  
E31                                                                  25497913.362   133992459.442        1420.335          32.514    25497915.161   100059297.9051       1060.638          25.478  
E33                                                                  25144603.153   132135758.522        2295.046          23.480    25144603.753                        1714.003          19.015  
G08  20569557.392   108093727.206        1716.869          32.152    20569556.492    80719356.084        1282.091          29.192  
G10  21223682.051                        -318.545          27.722    21223695.242    83286340.128        -237.312          37.147  
G21  21753492.970                        2299.034          24.232  
G23  22801296.691                       -2155.418          22.776  
G27  20419183.893   107303539.202        -750.671          35.425  
G32  24650581.757   129539683.700        3377.836          30.091    24650575.762                        2522.328          24.800  
R03  23109927.330   123709251.159       -2476.489          31.937  
R04  20765771.256   111199787.760         919.974          32.187  
R05  21738850.807   116206631.054        4338.193          32.840  
R11  21803622.466                        1626.520          20.579  
R19  21594203.644                       -1973.649          15.802  
> 2022  9 17  6 16 32.9997847  0 24
C13  40880932.919   212877756.300        -503.847          25.647  
C14  24757617.558   128919411.277       -1463.402          28.625  
C27  21721707.775                        1220.932          20.647  
C28  22928785.532   119396212.334       -1270.508          38.014  
C30  24612014.357   128161210.031        3163.961          29.075  
C33  23671732.700                         -53.998          25.203  
C36  25241601.603                         491.411          14.462  
E07                                                                  27077446.674   142292914.079        3053.359          32.237  
E08                                                                  26939119.436   141566040.284        1014.011          31.440    26939123.033                         757.141          23.336  
E13                                                                  26020318.209   136737699.150       -1639.523          30.844    26020324.804                       -1224.379          25.160  
E26                                                                  23851235.833   125339102.682         250.471          22.698    23851247.525    93597409.4471        187.050          24.875  
E31                                                                  25497763.765   133991670.458        1419.152          32.881    25497766.464   100058708.790        1059.694          26.048  
E33                                                                  25144287.772                        2293.848          23.500    25144289.870                        1715.758          19.576  
G08  20569351.434   108092641.483        1715.891          33.139    20569349.636    80718545.344        1281.319          30.460  
G10  21223859.528   111532170.0481       -319.117          25.576    21223875.717    83287048.998        -238.290          37.683  
G21  21753178.788                        2296.472          25.638  
G23  22801827.923                       -2152.115          22.508  
G27  20419446.511   107304921.092        -751.721          35.146  
G32  24650058.020   129536936.831        3377.037          29.286    24650053.223    96732104.9931       2521.772          26.913  
R03  23110505.930   123712370.965       -2477.881          32.296  
R04  20765720.591   111199511.640         918.269          32.309  
R05  21738155.288   116202935.067        4337.012          32.471  
R11  21803417.408                        1631.807          22.044  
R19  21594673.718                       -1975.657          15.558  
> 2022  9 17  6 16 33.9997850  0 23
C13  40881120.889   212878728.477        -503.848          25.786  
C14  24757986.003   128921344.160       -1464.554          28.920  
C27  21721560.277                        1227.047          20.275  
C28  22929119.801   119397951.408       -1270.745          38.127  
C30  24611496.016   128158514.399        3163.962          28.982  
C33  23671835.529                         -54.898          25.374  
C36  25241599.504                         492.641          13.402  
E07                                                                  27076953.515   142290333.519        3053.186          32.216  
E08                                                                  26939014.508   141565499.366        1013.545          31.814    26939017.806                         757.289          22.492  
E13                                                                  26020719.631   136739811.328       -1639.552          30.872    26020730.423                       -1224.156          25.435  
E26                                                                  23851276.605                         250.548          23.067    23851288.297                         187.213          25.400  
E31                                                                  25497582.991   133990724.375        1418.709          33.286    25497585.689   100058002.324        1059.401          25.906  
E33                                                                  25143939.113                        2294.165          23.509    25143942.411                        1714.909          17.876  
G08  20569113.999   108091398.702        1715.408          33.192    20569112.800    80717617.368        1280.912          31.351  
G10  21224012.122                        -319.417          25.158    21224026.212    83287640.742        -238.809          37.318  
G21  21752835.226   114311909.9921       2296.187          25.780  
G23  22802323.480                       -2149.926          21.295  
G27  20419679.450   107306146.059        -752.341          34.573  
G32  24649509.999   129534032.594        3376.863          28.738    24649500.406    96729936.243        2521.685          27.302  
R03  23111059.047   123715330.841       -2478.432          32.699  
R04  20765645.343   111199075.892         917.361          31.825  
R05  21737444.181   116199079.259        4336.576          32.047  
R11  21803193.463                        1626.596          22.394  
> 2022  9 17  6 16 34.9997854  0 23
C13  40881338.838   212879856.723        -503.807          25.814  
C14  24758388.025   128923433.503       -1464.903          29.382  
C27  21721448.754                        1227.724          20.866  
C28  22929483.749   119399846.854       -1271.007          37.845  
C30  24611010.352   128155975.005        3163.833          29.059  
C33  23671968.937   123266163.8751        -53.858          25.573  
C36  25241623.188                         481.647          14.827  
E07                                                                  27076490.935   142287910.759        3052.928          32.171  
E08                                                                  26938943.458   141565116.587        1012.947          32.207    26938948.254                         755.826          22.153  
E13                                                                  26021153.131   136742081.175       -1639.679          30.984    26021161.825   102112632.5171      -1224.488          24.927  
E26                                                                  23851346.157                         249.412          23.200    23851362.645                         186.341          25.247  
E31                                                                  25497432.195   133989936.430        1418.113          33.387    25497435.193   100057413.884        1059.021          26.059  
E33                                                                  25143622.532   132130609.6081       2293.752          23.024    25143621.333                        1713.811          17.219  
G08  20568907.741   108090313.963        1714.906          33.333    20568906.243    80716807.279        1280.669          31.561  
G10  21224189.599   111533912.9991       -320.469          25.366    21224207.287    83288350.606        -239.284          37.254  
G21  21752516.246   114310244.328        2295.832          25.195  
G23  22802856.811                       -2152.385          20.691  
G27  20419943.267   107307529.010        -752.783          34.756  
G32  24648986.861   129531286.111        3376.651          28.679    24648977.568    96727885.277        2521.546          27.597  
R03  23111636.447   123718451.840       -2479.074          32.852  
R04  20765591.380   111198801.728         916.313          31.536  
R05  21736742.966   116195384.226        4336.058          31.890  
R11  21802967.120                        1620.273          22.850  
> 2022  9 17  6 16 35.9997857  0 23
C13  40881525.309   212880828.552        -503.499          25.436  
C14  24758760.367   128925366.824       -1464.992          29.335  
C27  21721302.155                        1229.793          21.201  
C28  22929818.317   119401586.139       -1270.955          37.539  
C30  24610494.409   128153279.263        3164.071          28.504  
C33  23672063.072   123266686.354         -54.150          25.641  
C36  25241599.804                         478.144          13.310  
E07                                                                  27075999.875   142285330.348        3053.037          32.042    27076007.370   106252068.3271       2279.643          27.376  
E08                                                                  26938839.130   141564576.403        1012.810          31.766    26938844.226   105713803.9431        756.252          22.194  
E13                                                                  26021554.553   136744193.198       -1639.397          31.227    26021562.047   102114209.657       -1224.206          23.272  
E26                                                                  23851390.526   125339927.2091        250.320          23.125    23851404.616                         186.670          24.660  
E31                                                                  25497252.619   133988991.094        1417.962          33.809    25497258.016   100056707.864        1058.955          25.326  
E33                                                                  25143278.670                        2293.149          22.880    25143275.672                        1714.824          17.675  
G08  20568673.304   108089071.805        1714.784          33.164    20568672.105    80715879.740        1280.474          30.934  
G10  21224341.894                        -320.320          25.690    21224358.382    83288942.957        -239.416          37.007  
G21  21752170.885                        2295.132          25.464  
G23  22803344.273                       -2153.229          20.773  
G27  20420176.206   107308754.621        -752.985          34.857  
G32  24648434.044   129528381.851        3376.886          28.698    24648425.050    96725716.555        2521.657          27.016  
R03  23112193.162   123721412.629       -2479.346          32.648  
R04  20765499.344   111198367.526         915.814          31.040  
R05  21736021.366   116191529.061        4335.934          32.226  
R11  21802771.355                        1621.262          22.088  
> 2022  9 17  6 16 36.9997861  0 22
C13  40881735.763                        -501.583          25.344  
C14  24759161.789   128927457.438       -1466.175          29.485  
C27  21721190.033                        1229.687          24.528  
C28  22930180.766   119403481.364       -1270.786          35.323  
C30  24610005.748                        3166.392          25.995  
C33  23672198.578   123267365.100         -54.306          29.712  
E07                                                                  27075537.595   142282906.861        3053.655          32.526    27075544.790   106250257.980        2280.927          27.611  
E08                                                                  26938767.479                        1014.302          32.865    26938773.775                         756.344          25.087  
E13                                                                  26021985.954   136746460.828       -1637.461          30.530    26021989.551                       -1221.949          23.191  
E26                                                                  23851469.072                         261.268          23.976    23851473.868                         186.834          22.920  
E31                                                                  25497102.123   133988201.245        1420.017          32.357    25497107.820   100056118.097        1060.347          25.143  
E33                                                                  25142953.695                        2289.347          23.988    25142957.593                        1713.409          20.833  
G08  20568466.147                        1714.157          33.151    20568465.847    80715069.612        1280.708          29.578  
G10  21224524.168                        -321.040          27.382    21224541.556    83289652.025        -238.488          34.719  
G21  21751852.506   114306754.5161       2296.954          23.966  
G23  22803879.703   119835183.6521      -2150.361          27.928  
G27  20420439.724   107310136.890        -752.102          33.067  
G32  24647903.112                        3377.287          33.752    24647902.812                        2519.989          26.842  
R03  23112781.654   123724534.268       -2479.714          32.015  
R04  20765443.283                         915.135          33.140  
R05  21735335.740   116187833.656        4336.430          32.326  
R11  21802609.168                        1623.178          23.639  
> 2022  9 17  6 16 37.9997865  0 21
C13  40881950.115                        -502.711          26.734  
C14  24759566.209                       -1465.179          29.382  
C27  21721062.621                        1227.039          26.452  
C28  22930549.511   119405376.566       -1270.763          35.221  
C30  24609515.587                        3164.340          23.801  
C33  23672331.986   123268044.418         -54.879          32.057  
E07                                                                  27075077.114   142280484.044        3052.985          30.224    27075080.712   106248448.273        2280.288          27.569  
E08                                                                  26938693.131   141563810.9251       1012.920          34.682  
E13                                                                  26022417.056   136748729.666       -1638.670          35.794    26022423.951   102117598.5341      -1223.612          27.303  
E26                                                                  23851542.820                         251.613          25.172    23851540.122                         187.222          24.038  
E31                                                                  25496955.525                        1417.138          30.145    25496958.523   100055529.412        1059.265          23.492  
E33                                                                  25142644.609                        2292.288          24.756    25142638.613    98665018.3551       1713.402          26.485  
G08  20568252.695   108086901.8961       1714.814          37.141    20568257.492                        1280.089          31.286  
G10  21224727.127                        -321.953          33.225  
G21  21751532.028                        2299.146          20.742  
G23  22804410.335                       -2150.180          26.335  
G27                                                                  20420706.839    80135239.3951       -562.016          31.611  
G32  24647379.374   129522887.7411       3377.443          32.006  
R04  20765388.421   111197820.3611        914.893          32.064  
R05  21734642.320                        4336.117          31.908  
R11  21802407.707                        1622.252          26.692  
> 2022  9 17  6 16 38.9997868  0 22
C13  40882133.588   212884053.8811       -502.864          25.432  
C14  24759939.451                       -1466.361          30.121  
C27  21720911.826   113106489.1931       1227.792          28.447  
C28  22930883.180   119407116.024       -1271.128          34.214  
C30  24609001.443                        3164.064          18.890  
C33  23672436.014   123268567.723         -54.976          31.072  
E07                                                                  27074585.754   142277903.566        3053.104          27.573    27074589.652   106246521.452        2279.755          24.920  
E08                                                                  26938589.702   141563271.669        1011.883          31.512    26938604.092   105712829.3461        755.593          27.352  
E13                                                                  26022818.178   136750841.388       -1639.096          35.318    26022825.972   102119175.467       -1223.998          29.015  
E26                                                                  23851582.993                         251.609          23.458  
E31                                                                  25496775.350   133986468.7281       1417.066          29.666    25496777.748   100054824.170        1058.177          25.217  
E33                                                                  25142298.349                        2291.812          25.805    25142291.154    98663658.341        1712.949          26.194  
G08  20568017.658   108085660.528        1713.994          37.470    20568021.855    80713332.7501       1279.903          31.537  
G10  21224870.728   111537403.5311       -322.022          30.653    21224868.329    83290956.0421       -240.447          34.213  
G21  21751195.960                        2292.820          19.383  
G23  22804909.190                       -2152.849          26.855  
G27                                                                  20420939.178    80136155.251        -562.921          34.064  
G32  24646827.157   129519983.456        3376.911          29.856  
R03  23113940.352                       -2485.012          23.825  
R04  20765304.779   111197388.470         913.504          32.018  
R05  21733919.221   116180283.9031       4335.032          31.398  
R11  21802217.939                        1620.756          25.615  
> 2022  9 17  6 16 39.9997872  0 23
C13  40882348.839   212885180.559        -502.239          25.957  
C14  24760340.273   128933576.3281      -1465.846          29.662  
C27  21720795.506   113105886.098        1227.534          28.003  
C28  22931248.927   119409011.163       -1270.699          34.258  
C30  24608515.779                        3163.662          16.404  
C33  23672565.824   123269247.478         -55.315          31.383  
C36  25241708.929   131440105.9801        482.114          25.363  
E07                                                                  27074124.674                        3052.751          25.995    27074130.669   106244711.966        2280.066          23.078  
E08                                                                  26938518.052   141562889.805        1012.032          31.069    26938530.044   105712544.186         755.740          26.994  
E13                                                                  26023252.577   136753110.081       -1638.525          35.027    26023256.175   102120869.534       -1223.487          29.185  
E26                                                                  23851653.144   125341269.3501        250.416          23.948  
E31                                                                  25496627.252   133985681.647        1417.249          30.074    25496629.950   100054236.340        1058.410          25.795  
E33                                                                  25141979.070                        2291.915          25.744    25141975.473    98662415.557        1713.364          25.221  
G08  20567814.398   108084576.472        1714.224          37.555    20567815.298    80712523.245        1280.085          31.464  
G10  21225056.899   111538355.643        -321.944          29.024    21225049.404    83291667.001        -240.378          34.320  
G21  21750877.581                        2291.999          18.897  
G23  22805443.720                       -2151.986          27.548  
G27  20421196.999                        -761.297          20.260    20421202.096    80137188.664        -562.833          33.744  
G32  24646305.818   129517236.290        3377.334          28.993    24646313.912    96717394.9831       2521.950          28.169  
R03  23114523.448                       -2482.279          22.058  
R04  20765261.309   111197117.388         913.232          32.053  
R05  21733234.195   116176589.656        4335.272          31.499  
R11  21802035.365                        1620.420          25.224  
> 2022  9 17  6 16 40.9997875  0 23
C13  40882537.108   212886150.127        -501.239          25.701  
C14  24760711.416   128935509.890       -1465.232          30.346  
C27  21720650.107   113105126.156        1228.271          27.705  
C28  22931581.097   119410749.516       -1270.024          34.372  
C30  24607992.941                        3161.417          14.257  
C33  23672665.655   123269770.919         -55.112          30.832  
C36  25241704.132   131440091.815         482.495          25.591  
E07                                                                  27073636.911   142272899.0621       3054.111          26.549    27073637.811   106242784.164        2280.737          24.494  
E08                                                                  26938414.624   141562349.946        1012.485          30.913    26938428.114   105712140.998         756.123          27.113  
E13                                                                  26023651.601   136755220.385       -1637.677          35.158    26023658.496   102122445.429       -1222.960          29.539  
E26                                                                  23851695.715                         251.391          23.291  
E31                                                                  25496445.878   133984736.613        1417.660          29.949    25496449.775   100053530.599        1058.676          25.995  
E33                                                                  25141635.208   132120182.2461       2295.074          25.405    25141627.713                        1713.592          24.778  
G08  20567578.462   108083334.433        1714.665          37.181    20567578.762    80711595.756        1280.424          31.271  
G10  21225207.694                        -321.460          28.603    21225200.499    83292260.151        -240.215          34.270  
G21  21750535.817                        2296.544          19.183  
G23  22805943.174   119846003.0021      -2151.268          27.412  
G27  20421426.940                        -761.428          17.355    20421435.634    80138104.129        -562.530          34.157  
G32  24645749.103   129514330.857        3378.059          28.510    24645760.195    96715225.319        2522.598          28.447  
R03  23115050.184                       -2477.705          20.969  
R04  20765178.866   111196685.830         913.170          31.700  
R05  21732510.196   116172734.675        4335.749          31.328  
R11  21801829.108   116502364.3981       1620.894          25.046  
> 2022  9 17  6 16 41.9997879  0 22
C13  40882751.460   212887275.466        -500.899          26.234  
C14  24761114.337   128937599.755       -1465.426          30.386  
C27  21720536.785   113104522.304        1228.292          27.653  
C28  22931945.045   119412643.883       -1269.927          33.683  
C33  23672797.863   123270450.596         -55.238          31.159  
C36  25241732.312   131440233.905         482.349          26.951  
E07                                                                  27073179.428   142270475.015        3054.215          25.938    27073177.329                        2280.854          24.921  
E08                                                                  26938341.174   141561967.816        1012.298          28.884    26938353.466   105711855.620         755.958          27.444  
E13                                                                  26024083.302   136757487.922       -1637.370          34.641    26024089.598   102124138.693       -1222.684          30.080  
E26                                                                  23851770.963                         251.234          23.172    23851768.264                         182.757          18.910  
E31                                                                  25496295.682   133983949.214        1417.566          29.840    25496298.680   100052942.717        1058.462          26.393  
E33                                                                  25141318.028   132118516.995        2295.419          24.802    25141310.233    98659811.1081       1714.143          25.247  
G08  20567370.406   108082249.988        1714.613          37.475    20567374.003    80710786.016        1280.319          30.954  
G10  21225382.174   111540102.0161       -322.013          28.089    21225381.274    83292971.121        -240.390          34.473  
G21  21750196.452                        2298.629          19.374  
G23  22806469.310   119848784.563       -2151.393          28.769  
G27                                                                  20421699.751    80139137.262        -562.553          33.881  
G32  24645224.466   129511582.672        3378.354          27.705    24645237.057    96713173.072        2522.828          28.657  
R03  23115656.664                       -2481.404          21.680  
R04  20765126.102   111196415.256         912.724          31.679  
R05  21731814.078   116169040.018        4335.683          31.479  
R11  21801634.842   116501384.833        1620.365          25.177  
> 2022  9 17  6 16 42.9997882  0 23
C13  40882942.728   212888244.925        -501.130          25.964  
C14  24761482.183   128939534.223       -1466.139          30.675  
C27  21720388.088   113103762.918        1227.716          27.494  
C28  22932282.012   119414382.658       -1270.446          33.123  
C30  24606977.844                        3173.677          16.851  
C33  23672899.792   123270975.149         -56.223          30.639  
C36  25241726.916   131440220.729         481.505          27.219  
E07                                                                  27072686.269   142267893.940        3053.701          25.997    27072686.269   106239046.6911       2280.310          24.863  
E08                                                                  26938238.945   141561428.790        1011.652          27.978    26938253.335   105711453.225         755.330          27.677  
E13                                                                  26024485.324   136759598.240       -1637.692          35.034    26024492.219   102125714.653       -1223.024          30.303  
E26                                                                  23851811.435   125342091.3341        250.895          23.863    23851809.636                         188.648          18.387  
E31                                                                  25496116.406   133983005.035        1416.805          29.782    25496119.404   100052237.560        1058.092          26.212  
E33                                                                  25140972.067                        2294.372          25.330    25140964.872                        1713.450          25.016  
G08  20567132.970   108081008.348        1714.266          37.477    20567136.568    80709859.101        1279.850          30.882  
G10  21225535.368   111540897.442        -322.799          28.600    21225532.669    83293565.079        -241.023          34.533  
G21  21749863.982                        2302.467          18.817  
G23  22806967.565   119851409.259       -2152.070          27.952  
G27                                                                  20421933.290    80140053.352        -563.155          33.997  
G32  24644673.148                        3377.580          27.741    24644683.641    96711003.585        2522.422          29.014  
R03  23116217.276                       -2480.496          22.286  
R04  20765044.859   111195985.446         911.423          31.521  
R05  21731093.377   116165185.862        4334.925          31.003  
R11  21801425.287   116500246.240        1619.193          25.132  
> 2022  9 17  6 16 43.9997886  0 23
C13  40883157.679   212889370.678        -501.314          26.416  
C14  24761885.403   128941625.525       -1466.863          31.019  
C27  21720274.467   113103160.252        1227.105          27.243  
C28  22932642.362   119416278.066       -1270.968          32.723  
C30  24606496.977                        3164.103          19.712  
C33  23673028.104   123271656.613         -57.025          30.753  
C36  25241755.696   131440364.553         480.615          26.972  
E07                                                                  27072222.191   142265470.942        3053.166          25.673    27072226.687   106237237.295        2279.976          25.675  
E08                                                                  26938166.096   141561048.308        1010.651          27.085    26938182.584   105711168.906         754.899          27.334  
E13                                                                  26024916.425   136761866.491       -1638.082          35.194    26024923.920   102127408.466       -1223.233          30.213  
E26                                                                  23851883.385   125342471.266         250.236          24.142    23851877.089                         191.589          17.789  
E31                                                                  25495966.210   133982219.201        1416.002          30.096    25495968.908   100051650.899        1057.241          26.622  
E33                                                                  25140656.985   132115030.6601       2294.290          25.197    25140646.493    98657207.7311       1713.260          24.279  
G08  20566927.912   108079925.397        1713.119          37.561    20566930.910    80709050.461        1279.220          30.670  
G10  21225715.543   111541851.329        -323.720          28.880    21225714.044    83294277.395        -241.736          34.718  
G21  21749539.907                        2299.675          18.920  
G23  22807495.799                       -2153.846          27.234  
G27                                                                  20422196.508    80141087.684        -563.752          34.106  
G32  24644151.509   129505930.1841       3377.390          28.272    24644162.002    96708952.055        2522.110          28.843  
R03  23116763.498                       -2482.866          22.644  
R04  20764999.290   111195717.467         910.128          31.722  
R05  21730402.955   116161492.714        4334.173          31.296  
R11  21801240.315                        1617.267          25.003  
> 2022  9 17  6 16 44.9997890  0 23
C13  40883373.529   212890496.535        -501.418          26.245  
C14  24762287.425   128943717.343       -1467.379          31.308  
C27  21720158.447   113102557.841        1226.850          26.598  
C28  22933011.706   119418173.785       -1271.280          32.463  
C30  24606013.711                        3160.905          18.404  
C33  23673160.012   123272338.692         -57.640          30.776  
C36  25241781.478   131440508.969         480.022          26.474  
E07                                                                  27071760.810   142263048.173        3052.937          25.442    27071765.906   106235428.051        2279.825          25.954  
E08                                                                  26938091.747   141560668.206        1010.269          26.303    26938107.336   105710885.129         754.356          27.657  
E13                                                                  26025348.726   136764134.804       -1638.145          35.459    26025354.422   102129102.305       -1223.260          30.191  
E26                                                                  23851958.033   125342851.348         250.086          23.867  
E31                                                                  25495815.714   133981433.859        1415.511          30.016    25495820.811   100051064.299        1057.181          25.843  
E33                                                                  25140339.805                        2294.840          24.384    25140332.010    98655965.054        1713.258          25.172  
G08  20566721.355   108078842.968        1712.597          37.607    20566724.953    80708242.149        1278.892          30.511  
G10  21225897.517   111542805.817        -324.319          28.871    21225896.018    83294990.153        -242.178          34.778  
G21  21749226.024                        2294.794          20.890  
G23  22808029.730   119856975.6871      -2153.211          27.042  
G27  20422444.436                        -756.833          16.037    20422460.625    80142122.388        -564.124          34.283  
G32  24643629.570   129503183.119        3377.233          28.892    24643640.063    96706900.653        2521.981          29.121  
R03  23117368.479                       -2484.650          22.772  
R04  20764954.321   111195450.388         909.230          31.681  
R05  21729709.535   116157800.105        4333.633          31.163  
R11  21801042.153                        1617.707          24.454  
> 2022  9 17  6 16 45.9997893  0 23
C13  40883558.202   212891466.432        -501.568          26.558  
C14  24762657.069   128945653.665       -1467.992          31.204  
C27  21720015.146   113101799.714        1226.456          26.744  
C28  22933340.279   119419913.677       -1271.562          33.156  
C30  24605489.374                        3161.726          18.020  
C33  23673260.443   123272865.389         -58.367          31.193  
C36  25241781.478                         478.859          26.589  
E07                                                                  27071267.951   142260468.074        3052.724          25.779    27071271.549                        2279.075          26.191  
E08                                                                  26937998.212   141560131.074        1009.759          27.555    26938005.107   105710484.046         754.018          27.936  
E13                                                                  26025750.448   136766245.755       -1638.325          35.189    26025756.144   102130678.660       -1223.419          30.020  
E26                                                                  23852002.402   125343074.201         249.773          23.850    23851996.706                         186.887          17.595  
E31                                                                  25495637.937   133980491.560        1414.925          30.030    25495641.535   100050360.734        1056.500          25.871  
E33                                                                  25139987.549                        2293.173          24.701    25139986.050                        1712.653          25.146  
G08  20566486.618   108077603.478        1712.116          37.630    20566489.616    80707316.540        1278.544          30.739  
G10  21226049.811   111543603.455        -325.012          28.803    21226048.013    83295585.844        -242.757          34.968  
G21  21748894.154                        2294.814          20.401  
G23  22808525.586   119859602.062       -2153.749          26.992  
G27                                                                  20422693.563    80143039.825        -564.502          34.304  
G32  24643075.254   129500278.738        3377.008          28.495    24643086.646    96704731.819        2521.769          29.237  
R03  23117936.586                       -2483.846          22.331  
R04  20764869.480   111195023.867         908.133          31.584  
R05  21728987.635   116153947.757        4333.117          31.226  
R11  21800840.692                        1615.260          24.782  
> 2022  9 17  6 16 46.9997897  0 23
C13  40883778.249                        -501.969          26.197  
C14  24763058.791   128947746.915       -1468.811          31.048  
C27  21719898.227   113101198.634        1225.520          26.568  
C28  22933708.424   119421810.372       -1272.256          33.336  
C30  24605003.111                        3161.331          18.820  
C33  23673390.253   123273549.226         -59.398          31.154  
C36  25241809.359   131440644.0391        478.274          25.970  
E07                                                                  27070805.671                        3051.806          25.852    27070810.768   106231692.9321       2279.075          26.626  
E08                                                                  26937919.067   141559752.549        1008.693          29.032    26937932.857   105710201.387         753.239          27.887  
E13                                                                  26026181.849   136768514.800       -1638.877          35.118    26026187.245   102132373.063       -1223.824          29.976  
E26                                                                  23852072.554                         248.028          23.628    23852070.455                         188.767          18.560  
E31                                                                  25495489.240   133979707.740        1413.987          29.961    25495492.538   100049775.411        1055.903          25.940  
E33                                                                  25139672.467   132109882.3191       2293.199          24.859    25139668.869    98653363.1681       1712.449          25.828  
G08  20566279.461   108076522.490        1711.156          37.402    20566283.658    80706509.287        1277.833          30.688  
G10  21226233.284   111544559.786        -326.163          28.881    21226229.387    83296299.947        -243.522          34.676  
G21  21748571.277                        2296.406          20.565  
G23  22809052.921   119862386.895       -2154.665          26.711  
G27  20422954.683                        -755.775          19.945    20422957.681                        -570.041          34.259  
G32  24642555.114   129497532.594        3376.312          28.465    24642565.307    96702681.112        2521.287          29.069  
R03  23118519.382                       -2481.207          22.247  
R04  20764824.811   111194759.361         906.656          31.835  
R05  21728301.110   116150256.620        4332.162          31.243  
R11  21800661.716                        1613.978          24.252  
> 2022  9 17  6 16 47.9997900  0 23
C13  40883958.425                        -501.894          26.129  
C14  24763432.333   128949684.956       -1469.712          30.889  
C27  21719754.327   113100441.938        1225.025          27.177  
C28  22934038.196   119423551.621       -1272.920          34.349  
C30  24604484.770                        3160.648          18.452  
C33  23673492.182   123274077.934         -60.378          31.609  
C36  25241808.160   131440634.866         477.503          25.923  
E07                                                                  27070314.911   142255467.6531       3051.307          25.876    27070322.706   106229767.316        2278.551          25.196  
E08                                                                  26937821.934   141559217.317        1007.858          30.662    26937831.527   105709801.690         752.632          27.233  
E13                                                                  26026583.871   136770626.710       -1639.284          35.435    26026589.267   102133950.152       -1224.154          29.791  
E26                                                                  23852113.026                         248.273          23.320    23852111.827                         186.928          18.249  
E31                                                                  25495309.964   133978767.277        1413.090          30.403    25495313.861   100049073.088        1055.258          24.977  
E33                                                                  25139329.804   132108062.169        2292.776          24.553    25139321.710                        1712.167          25.187  
G08  20566045.923   108075284.782        1710.334          37.839    20566047.721    80705584.992        1277.229          30.340  
G10  21226384.680   111545359.484        -327.072          29.307    21226381.982    83296897.131        -244.250          33.986  
G21  21748230.114                        2290.204          21.465  
G23  22809557.772   119865014.954       -2155.434          25.328  
G27  20423181.626                        -760.389          19.063    20423192.418    80144994.4841       -565.939          33.742  
G32  24642002.597   129494629.418        3375.801          28.383    24642011.590    96700513.116        2520.930          29.653  
R03  23119038.922                       -2487.721          21.952  
R04  20764744.167   111194335.565         905.408          31.349  
R05  21727574.413   116146406.058        4331.331          31.445  
R11  21800445.266                        1609.882          24.109  
> 2022  9 17  6 16 48.9997904  0 23
C13  40884173.376                        -501.301          24.999  
C14  24763834.054   128951779.378       -1469.982          30.500  
C27  21719638.907   113099841.250        1225.127          25.886  
C28  22934404.842   119425448.971       -1272.910          34.867  
C30  24604000.905                        3162.607          20.084  
C33  23673624.091   123274763.036         -60.663          33.270  
C36  25241836.041   131440782.187         477.118          25.470  
E07                                                                  27069856.228   142253046.410        3051.410          26.694    27069860.426   106227959.311        2278.585          27.413  
E08                                                                  26937752.082   141558839.855        1007.631          31.178    26937758.378   105709519.856         752.414          28.231  
E13                                                                  26027015.572   136772895.996       -1639.118          36.294    26027021.268   102135644.721       -1223.988          29.094  
E26                                                                  23852180.479   125344061.2101        248.491          24.451    23852186.175                         183.829          18.175  
E31                                                                  25495161.567   133977984.507        1412.937          28.825    25495164.565   100048488.615        1055.053          25.130  
E33                                                                  25139012.024                        2292.945          25.013  
G08  20565839.965   108074204.823        1710.127          37.107    20565842.663    80704778.571        1277.001          31.356  
G10  21226568.452   111546317.279        -327.627          32.437    21226565.155    83297612.328        -244.616          34.056  
G21  21747908.736                        2289.067          21.500  
G23  22810087.505                       -2156.250          24.623  
G27  20423463.730                        -758.311          19.300    20423456.535    80146031.145        -566.081          34.342  
G32  24641479.159   129491883.520        3376.066          27.623    24641488.752    96698462.770        2520.927          28.739  
R03  23119626.216                       -2486.433          21.729  
R04  20764689.005   111194072.907         904.808          30.640  
R05  21726900.480   116142715.908        4331.176          30.557  
R11  21800259.394   116494078.4571       1612.935          25.568  
> 2022  9 17  6 16 49.9997907  0 22
C13  40884365.842                        -499.816          25.675  
C14  24764206.996                       -1470.879          29.272  
C27  21719489.011                        1224.546          26.223  
C28  22934735.813                       -1270.651          34.029  
C30  24603476.867                        3162.824          22.216  
C33  23673725.721                         -63.054          34.670  
C36  25241833.043                         478.252          25.955  
E07                                                                  27069361.271   142250467.404        3051.632          34.141    27069369.665   106226032.423        2279.823          28.544  
E08                                                                  26937648.354   141558305.105        1007.375          32.435    26937654.650   105709120.336         752.455          28.020  
E13                                                                  26027414.896                       -1642.162          34.227    26027419.692   102137221.161       -1223.505          27.300  
E26                                                                  23852222.150                         247.204          25.093    23852233.243                         183.255          21.156  
E31                                                                  25494975.396                        1410.715          28.860    25494984.689                        1052.457          25.144  
G08  20565599.532   108072967.985        1709.464          34.231    20565607.027    80703854.644        1276.862          30.111  
G10  21226720.747                        -325.470          32.428  
G21  21747549.585                        2289.394          23.119  
G23  22810586.959   119870429.1161      -2155.697          33.425  
G27  20423685.277                        -755.723          30.620    20423689.474                        -563.987          31.505  
G32  24640929.040   129488980.085        3376.061          35.294    24640930.839                        2523.571          27.197  
R03  23120183.530                       -2484.063          27.839  
R04  20764629.046                         902.929          33.593  
R05  21726174.982                        4331.010          29.896  
R11  21800051.039                        1611.298          25.464  
> 2022  9 17  6 16 50.9997911  0 18
C13  40884581.693                        -497.034          22.128  
C14  24764608.418   128955814.2271      -1471.565          30.846  
C27  21719379.287                        1226.974          22.118  
C28  22935098.562   119429087.7791      -1274.054          36.218  
C30  24602996.000   128114215.4411       3163.691          26.135  
E07                                                                  27068903.188   142248047.378        3050.194          33.520    27068910.983   106224225.188        2277.815          29.126  
E08                                                                  26937575.804   141557929.381        1005.892          31.349    26937578.502                         752.792          23.817  
E13                                                                  26027852.593   136777278.1461      -1640.172          32.046  
E26                                                                  23852298.897                         246.971          25.316    23852306.092                         186.467          22.585  
E31                                                                  25494836.892                        1409.322          31.350    25494834.793   100047203.3071       1053.764          24.917  
G08  20565401.069   108071889.704        1708.449          32.711    20565401.669    80703049.327        1275.897          29.470  
G10  21226897.924                        -330.447          28.319  
G21  21747235.102                        2293.445          21.388  
G27  20423949.694   107328598.5801       -759.895          31.457    20423959.287                        -570.764          27.096  
G32  24640413.996   129486235.463        3374.790          32.607  
R03  23120775.320   123767326.9881      -2488.087          32.353  
R05  21725484.560   116135178.2161       4329.417          33.974  
R11  21799839.985                        1608.508          21.371  
> 2022  9 17  6 16 51.9997915  0 19
C13  40884798.443                        -497.013          18.922  
C14  24765008.641   128957910.520       -1471.854          30.769  
C27  21719265.066                        1227.866          16.883  
C28  22935467.007   119430986.337       -1274.119          36.088  
C30  24602510.936   128111676.627        3163.253          27.662  
E07                                                                  27068444.806   142245627.359        3050.187          33.381    27068451.101   106222418.024        2277.744          28.858  
E08                                                                  26937506.552   141557553.907        1005.642          31.495    26937506.552   105708559.7221        750.999          23.263  
E13                                                                  26028280.696   136779548.195       -1639.881          31.284  
E26                                                                  23852372.646                         246.546          25.882    23852379.841    93601865.9191        184.634          23.923  
E31                                                                  25494685.796   133975478.0841       1410.875          31.994    25494686.995   100046620.252        1053.635          25.742  
G08  20565201.707   108070811.732        1708.140          32.126    20565198.409    80702244.305        1275.603          30.433  
G10  21227076.301   111549037.2581       -329.818          27.248    21227086.794    83299644.3111       -246.401          35.956  
G21  21746912.226                        2293.121          20.630  
G23  22811652.122   119876004.0111      -2157.427          28.615  
G27  20424213.511   107329988.750        -760.003          32.362    20424215.910                        -568.470          24.432  
G32                                                                  24639885.162    96692195.0891       2520.139          29.644  
R03  23121353.620   123770457.461       -2488.548          33.935  
R04  20764526.817                         900.688          26.407  
R05  21724791.140   116131490.061        4329.181          34.736  
> 2022  9 17  6 16 52.9997918  0 21
C13  40884985.214                        -500.025          16.535  
C14  24765381.883   128959851.120       -1472.271          30.912  
C27  21719126.562                        1228.790          14.818  
C28  22935798.577   119432728.989       -1274.323          36.235  
C30  24601992.895   128108981.675        3163.282          27.496  
C33  23674088.470   123277200.1971        -63.472          26.600  
E07                                                                  27067956.144   142243049.950        3050.035          33.075    27067960.341   106220493.313        2277.646          28.811  
E08                                                                  26937405.522   141557021.422        1005.111          31.330  
E13                                                                  26028683.317   136781660.666       -1639.845          30.941  
E26                                                                  23852415.217   125345274.9601        247.091          24.975    23852422.112    93602034.297         184.557          23.275  
E31                                                                  25494508.019   133974540.257        1410.454          32.098    25494507.720   100045919.988        1053.199          24.835  
G08  20564959.175   108069576.518        1707.840          32.794    20564961.573    80701321.958        1275.282          30.140  
G10  21227234.291   111549840.403        -330.519          27.060    21227240.887    83300243.998        -246.752          35.560  
G21  21746556.073                        2290.040          19.481  
G23  22812151.576   119878634.458       -2157.821          28.270  
G27  20424449.448   107331221.807        -760.430          32.681  
G32  24639336.842   129480588.7131       3374.740          30.564    24639333.544    96690027.906        2520.119          30.158  
R03  23121915.731   123773428.040       -2489.135          34.095  
R04  20764456.066                         904.037          24.456  
R05  21724077.934   116127642.022        4328.807          34.635  
R11  21799422.374                        1601.466          15.845  
> 2022  9 17  6 16 53.9997922  0 19
C14  24765785.104   128961948.255       -1472.695          30.576  
C27  21719009.043                        1224.985          19.807  
C28  22936165.223   119434627.975       -1274.547          35.502  
C30  24601503.334   128106442.956        3163.158          25.416  
C33  23674217.380                         -60.269          23.579  
E07                                                                  27067494.763   142240630.318        3049.801          31.907    27067499.860   106218686.485        2277.408          28.477  
E08                                                                  26937331.773   141556646.949        1004.641          31.492    26937335.671                         750.120          22.333  
E13                                                                  26029115.318   136783930.859       -1640.026          30.696  
E26                                                                  23852489.565   125345658.333         246.794          25.386    23852497.959                         183.649          23.262  
E31                                                                  25494359.622   133973760.475        1409.949          31.481    25494359.322   100045337.725        1052.843          24.992  
G08  20564754.417   108068499.324        1707.362          32.724    20564756.815    80700517.526        1275.012          29.790  
G10  21227408.171                        -331.675          24.618    21227423.161    83300961.827        -247.249          35.058  
G21  21746248.785                        2290.641          20.840  
G23  22812675.913   119881422.837       -2158.211          25.605  
G27  20424713.565   107332612.975        -761.000          32.457  
G32  24638811.905   129477844.311        3374.570          29.782    24638810.406    96687978.530        2519.956          30.055  
R03  23122513.517   123776559.783       -2489.818          33.823  
R04  20764413.496                         902.363          23.604  
R05  21723379.417   116123954.734        4328.314          34.287  
> 2022  9 17  6 16 54.9997925  0 21
C13  40885388.435                        -505.013          18.214  
C14  24766158.945   128963889.978       -1473.395          30.408  
C27  21718868.140                        1216.159          19.200  
C28  22936498.592   119436371.397       -1275.093          35.667  
C30  24600986.192                        3159.615          25.349  
C33  23674321.708                         -64.684          23.322  
E07                                                                  27067002.504   142238053.632        3049.312          32.145    27067008.200   106216762.296        2277.125          28.638  
E08                                                                  26937228.944   141556115.638        1003.938          31.602    26937234.940   105707485.7471        749.675          23.096  
E13                                                                  26029517.940   136786043.794       -1640.308          30.780  
E26                                                                  23852531.836   125345884.590         246.369          25.116    23852538.131                         183.348          22.425  
E31                                                                  25494180.346   133972823.917        1409.184          31.488    25494180.346   100044638.338        1052.323          25.079  
G08  20564520.279   108067265.839        1706.111          32.979    20564522.078    80699596.112        1274.349          29.677  
G10  21227557.468                        -332.345          24.268    21227576.355    83301562.695        -247.933          34.917  
G21  21745902.225                        2289.870          20.664  
G23  22813174.768   119884053.924       -2158.461          25.343  
G27  20424949.801   107333846.790        -761.189          32.639    20424951.600    80151915.2001       -568.607          23.791  
G32  24638259.688   129474942.815        3374.122          29.377    24638258.489    96685811.835        2519.630          29.940  
R03  23123052.544   123779531.931       -2490.704          34.132  
R04  20764315.763                         894.047          24.397  
R05  21722667.110   116120107.937        4327.566          34.230  
R11  21799067.120                        1609.220          18.551  
> 2022  9 17  6 16 55.9997929  0 20
C13  40885614.178                        -505.076          17.718  
C14  24766560.367   128965988.607       -1474.189          30.476  
C27  21718758.416                        1213.389          15.093  
C28  22936860.742   119438271.398       -1275.562          36.240  
C30  24600500.828   128101211.2481       3162.371          25.811  
C33  23674457.214   123279112.6791        -66.039          26.512  
E07                                                                  27066546.820   142235634.899        3048.901          32.518    27066550.717   106214956.169        2276.707          28.061  
E08                                                                  26937157.894   141555742.676        1003.130          30.896    26937163.590                         749.204          24.505  
E13                                                                  26029952.339   136788314.580       -1640.618          30.387  
E26                                                                  23852601.987                         245.942          25.322    23852612.180                         183.319          23.403  
E31                                                                  25494033.148   133972045.590        1408.496          31.749    25494034.347                        1051.209          25.161  
G08  20564318.519   108066190.188        1705.820          32.894    20564317.919    80698792.765        1273.927          29.689  
G10  21227741.540   111552568.7701       -332.835          25.717    21227759.528    83302281.837        -248.562          35.044  
G21  21745583.246                        2290.707          19.889  
G23  22813708.998   119886843.687       -2159.595          25.934  
G27  20425216.017   107335239.307        -762.349          33.209    20425211.820                        -567.340          22.440  
G32  24637741.347   129472199.312        3373.671          29.652    24637736.250    96683763.144        2519.271          29.431  
R03  23123649.131   123782665.352       -2491.496          34.252  
R04  20764278.289   111191783.9051        897.170          25.169  
R05  21721973.391   116116422.081        4326.880          34.450  
> 2022  9 17  6 16 56.9997932  0 19
C14  24766935.407   128967931.180       -1474.244          29.787  
C28  22937195.610   119440015.157       -1275.430          36.374  
C30  24599979.788   128098516.820        3162.758          27.283  
C33  23674559.144                         -67.137          23.999  
E07                                                                  27066054.860   142233059.095        3048.430          33.232    27066058.158   106213032.631        2276.473          28.216  
E08                                                                  26937059.862   141555212.702        1002.600          32.148    26937062.260   105706811.5231        748.560          24.510  
E13                                                                  26030354.960   136790428.006       -1640.801          29.982  
E26                                                                  23852648.455   125346496.0451        245.439          26.355    23852655.051                         183.609          23.183  
E31                                                                  25493856.870   133971110.390        1407.826          32.187    25493853.872   100043358.7191       1051.365          23.930  
G08  20564077.186   108064957.452        1705.362          32.956    20564082.582    80697872.274        1273.426          29.200  
G10  21227896.233   111553374.971        -333.575          25.387    21227912.422    83302883.796        -249.024          36.700  
G21  21745244.780                        2285.988          22.246  
G23  22814212.349                       -2160.032          24.412  
G27  20425454.652   107336475.000        -763.067          34.404  
G32  24637190.328   129469298.478        3373.459          29.321    24637182.533    96681596.901        2519.178          27.699  
R03  23124201.049   123785639.098       -2492.302          33.260  
R04  20764203.041   111191369.624         895.894          27.962  
R05  21721245.195   116112576.625        4326.226          34.887  
R11  21798607.238                        1603.677          14.432  
> 2022  9 17  6 16 57.9997936  0 20
C13  40886012.003                        -501.048          24.094  
C14  24767340.127   128970031.085       -1475.465          29.673  
C28  22937562.556   119441916.036       -1276.440          36.511  
C30  24599490.827   128095979.300        3161.959          27.114  
C33  23674688.654                         -69.744          22.501  
E07                                                                  27065592.580   142230641.256        3048.007          33.804    27065597.976   106211227.119        2276.092          28.372  
E08                                                                  26936990.310   141554841.084        1001.786          33.043    26936991.809                         747.621          23.156  
E13                                                                  26030785.762   136792699.338       -1641.164          29.802  
E26                                                                  23852718.607   125346881.244         244.968          26.227    23852725.502                         182.545          24.357  
E31                                                                  25493706.374   133970333.448        1407.110          32.791    25493708.473   100042778.576        1050.723          25.031  
G08  20563881.421   108063883.017        1704.603          33.224    20563876.624    80697069.850        1273.004          30.026  
G10  21228078.507                        -335.181          25.438    21228095.595    83303604.158        -249.782          37.138  
G21  21744928.799                        2287.704          23.461  
G23  22814743.881                       -2161.163          24.210  
G27  20425717.870   107337868.930        -763.762          35.329  
G32  24636669.289   129466555.667        3372.979          30.124    24636661.194    96679548.720        2518.760          29.323  
R03  23124765.858   123788774.177       -2493.154          33.157  
R04  20764148.779   111191116.953         894.821          29.378  
R05  21720566.165   116108892.135        4325.514          34.534  
R11  21798458.841                        1603.179          17.102  
> 2022  9 17  6 16 58.9997940  0 20
C13  40886227.853                        -503.751          24.122  
C14  24767742.149   128972131.860       -1476.337          29.689  
C28  22937927.703   119443817.580       -1277.105          36.365  
C30  24599002.765   128093442.407        3161.332          26.834  
C33  23674832.255                         -69.665          20.868  
E07                                                                  27065131.799   142228224.000        3047.424          33.637    27065139.294   106209422.040        2275.659          28.407  
E08                                                                  26936916.261   141554470.344        1000.908          33.913    26936921.357   105706257.0751        747.452          21.823  
E13                                                                  26031219.562   136794971.178       -1641.672          29.211  
E26                                                                  23852792.955   125347267.057         244.355          25.764    23852798.651                         182.550          24.622  
E31                                                                  25493559.176   133969557.446        1406.170          32.907    25493560.975   100042199.011        1050.145          25.941  
G08  20563671.566   108062809.357        1703.829          33.264    20563672.766    80696268.216        1272.214          30.506  
G10  21228263.779   111555305.7081       -335.345          23.662    21228279.368    83304325.271        -250.532          37.164  
G21  21744606.222                        2286.941          23.925  
G23  22815270.017                       -2161.529          24.946  
G27  20425980.788   107339263.763        -764.664          35.725  
G32  24636147.950   129463813.435        3372.401          30.433    24636140.155    96677500.988        2518.312          29.803  
R03  23125367.541   123791910.187       -2494.085          33.075  
R04  20764109.206   111190865.621         893.482          30.190  
R05  21719877.242   116105208.560        4324.601          35.007  
R11  21798284.961                        1602.195          19.855  
> 2022  9 17  6 16 59.9997943  0 20
C13  40886415.524                        -503.198          24.155  
C14  24768117.489   128974076.798       -1476.609          29.608  
C28  22938261.672   119445563.081       -1277.172          36.288  
C30  24598487.122                        3161.467          26.165  
C33  23674937.482                         -68.737          21.238  
E07                                                                  27064642.538   142225649.347        3047.279          33.575    27064651.532   106207499.362        2275.613          28.259  
E08                                                                  26936815.830   141553942.409        1000.561          34.032    26936822.126                         747.411          22.544  
E13                                                                  26031621.883   136797085.262       -1641.458          28.840  
E26                                                                  23852837.624   125347495.385         244.299          25.783    23852842.721                         182.579          24.664  
E31                                                                  25493381.100   133968624.191        1405.881          32.953    25493381.699   100041502.185        1049.761          26.939  
G08  20563438.028   108061578.476        1703.507          33.256    20563439.827    80695349.031        1272.120          30.749  
G10  21228417.273                        -336.013          23.033    21228433.461    83304929.088        -250.882          37.468  
G21  21744262.960                        2288.052          23.957  
G23  22815776.367   119897694.1911      -2161.922          25.076  
G27  20426217.924   107340501.376        -764.987          35.666  
G32  24635597.231   129460913.696        3372.365          30.135    24635589.436    96675335.623        2518.300          29.445  
R03  23125914.662   123794886.232       -2494.601          32.784  
R04  20764030.061   111190454.727         892.506          30.599  
R05  21719167.034   116101365.005        4324.324          34.860  
R11  21798034.635                        1600.404          19.745  
> 2022  9 17  6 17  0.9997947  0 20
C13  40886631.374   212907447.7601       -503.664          25.179  
C14  24768519.511   128976178.599       -1477.362          29.859  
C28  22938627.119   119447465.203       -1277.682          35.897  
C30  24597996.361   128088213.1571       3161.060          26.902  
C33  23675066.992                         -72.550          21.224  
E07                                                                  27064181.157   142223232.697        3046.818          33.537    27064188.952   106205694.696        2275.246          28.887  
E08                                                                  26936749.277   141553572.786         999.791          34.126    26936751.675   105705586.9281        746.471          23.367  
E13                                                                  26032055.383   136799357.351       -1641.921          28.451    26032069.174                       -1225.123          18.208  
E26                                                                  23852912.272   125347881.779         243.773          25.744    23852915.570    93603980.9541        182.062          24.741  
E31                                                                  25493233.302   133967849.282        1405.077          33.667    25493236.300   100040923.459        1049.307          26.432  
G08  20563236.268   108060505.914        1702.730          32.759    20563235.668    80694548.064        1271.547          30.626  
G10  21228608.840                        -334.538          22.740    21228617.234    83305651.180        -251.512          36.727  
G21  21743951.476                        2286.999          24.045  
G23  22816309.398                       -2163.095          24.402  
G27  20426484.139   107341897.278        -765.734          35.674    20426478.743                        -571.545          18.481  
G32  24635073.194   129458171.886        3371.978          29.447    24635065.699                        2517.867          27.878  
R03  23126506.453   123798023.683       -2495.527          32.858  
R04  20763977.298   111190205.537         891.340          29.927  
R05  21718468.517   116097682.403        4323.627          34.735  
R11  21797874.845                        1597.587          20.733  
> 2022  9 17  6 17  1.9997950  0 20
C13  40886813.948   212908419.553        -503.464          25.553  
C14  24768895.450   128978124.664       -1477.736          29.768  
C28  22938963.786   119449211.313       -1277.781          36.017  
C30  24597480.419   128085520.311        3161.175          26.666  
C33  23675171.320                         -68.355          21.067  
E07                                                                  27063691.596   142220658.545        3046.777          33.809    27063698.491   106203772.486        2275.145          28.562  
E08                                                                  26936646.448   141553045.968         999.444          34.414    26936650.645                         746.357          22.522  
E13                                                                  26032456.505   136801471.789       -1641.812          27.905    26032475.392                       -1230.817          19.967  
E26                                                                  23852953.944   125348110.678         243.728          25.490    23852957.541                         181.914          24.449  
E31                                                                  25493057.923   133966917.141        1404.766          34.216    25493057.623                        1048.597          26.424  
G08  20563001.530   108059276.053        1702.487          32.651    20563000.631    80693629.706        1271.293          30.289  
G10  21228759.636                        -339.887          22.968    21228771.327    83306256.027        -251.912          36.813  
G21  21743610.612                        2287.060          24.040  
G23  22816803.755   119903122.0371      -2162.856          24.051  
G27  20426720.076   107343135.982        -766.078          35.646    20426711.982                        -574.928          18.726  
G32  24634520.376   129455272.646        3371.866          28.735    24634515.880    96671123.0551       2518.035          27.133  
R03  23127058.371   123801001.059       -2495.932          32.679  
R04  20763898.752   111189796.533         890.617          30.169  
R05  21717758.908   116093839.859        4323.313          34.642  
R11  21797674.284                        1596.207          20.434  
> 2022  9 17  6 17  2.9997954  0 21
C13  40887031.897                        -503.470          25.508  
C14  24769298.072   128980227.617       -1478.513          29.798  
C28  22939328.333   119451114.168       -1278.416          36.113  
C30  24596992.956   128082983.658        3161.092          26.425  
C33  23675304.128                         -70.553          21.345  
C36  25242071.677                         465.011          22.772  
E07                                                                  27063231.115   142218242.576        3046.138          33.641    27063240.708   106201968.399        2274.667          28.814  
E08                                                                  26936577.196   141552677.640         998.496          34.473    26936582.892   105704918.3191        745.700          22.020  
E13                                                                  26032891.504   136803744.284       -1642.327          27.966    26032905.894                       -1234.509          20.209  
E26                                                                  23853025.294                         242.574          25.663    23853031.290    93604440.9261        181.546          24.399  
E31                                                                  25492909.826   133966143.461        1403.848          33.860    25492911.325   100039649.6501       1048.327          26.835  
G08  20562792.875   108058204.723        1701.498          32.824    20562796.172    80692829.608        1270.678          30.633  
G10  21228940.410                        -338.914          23.087    21228955.400    83306979.254        -252.647          36.747  
G21  21743285.037   114261808.1971       2286.081          23.708  
G23  22817333.789   119905916.069       -2163.863          24.367  
G27  20426984.193   107344533.163        -767.013          35.841    20426977.598                        -573.721          18.687  
G32  24633999.637   129452531.458        3371.356          28.523    24633992.742    96669076.087        2517.548          27.047  
R03  23127641.467   123804140.059       -2497.075          32.719  
R04  20763864.875   111189549.409         889.274          30.077  
R05  21717058.593   116090158.508        4322.376          34.734  
R11  21797500.404                        1595.335          21.327  
> 2022  9 17  6 17  3.9997957  0 21
C13  40887221.066   212910520.4561       -504.351          25.534  
C14  24769670.714   128982175.497       -1479.551          29.500  
C28  22939665.300   119452861.633       -1279.135          35.722  
C30  24596476.713   128080291.940        3160.048          26.123  
C33  23675405.758                         -75.300          21.433  
C36  25242069.279                         462.814          22.843  
E07                                                                  27062741.254   142215669.783        3045.419          33.520    27062750.847   106200047.111        2274.222          29.234  
E08                                                                  26936476.765   141552152.693         997.573          34.319    26936480.063   105704526.325         744.929          22.079  
E13                                                                  26033291.727   136805859.730       -1642.820          28.152    26033307.916                       -1231.513          20.810  
E26                                                                  23853071.162   125348728.0571        242.341          25.296    23853075.959    93604612.887         180.975          24.326  
E31                                                                  25492732.349   133965213.209        1402.878          34.238    25492734.147                        1047.267          26.813  
G08  20562562.035   108056976.683        1700.666          32.726    20562563.833    80691912.614        1269.929          30.350  
G10  21229094.803   111559671.8361       -339.330          23.370    21229110.692    83307585.664        -253.475          36.750  
G21  21742932.181   114259995.371        2285.452          23.549  
G23  22817838.939   119908553.293       -2164.598          24.545  
G27  20427222.528   107345773.765        -767.976          35.580    20427213.235                        -569.510          17.959  
G32  24633443.222                        3370.287          27.712    24633440.824    96666912.010        2517.011          26.645  
R03  23128187.089   123807119.671       -2498.168          32.698  
R04  20763779.435   111189143.210         887.811          29.942  
R05  21716343.588   116086317.858        4321.419          34.586  
R11  21797283.954                        1598.208          20.482  
> 2022  9 17  6 17  4.9997961  0 21
C13  40887441.114   212911649.752        -504.857          25.255  
C14  24770073.635   128984280.448       -1480.511          29.653  
C28  22940030.148   119454766.067       -1279.996          36.096  
C30  24595991.350   128077756.940        3159.439          26.273  
C33  23675538.266                         -77.788          20.885  
C36  25242096.260                         466.352          23.167  
E07                                                                  27062281.672   142213255.352        3044.599          33.372    27062292.765   106198244.165        2273.527          28.470  
E08                                                                  26936409.012   141551786.358         996.503          34.401    26936413.509   105704252.855         744.050          22.741  
E13                                                                  26033724.927   136808133.448       -1643.550          27.756    26033738.718                       -1228.157          20.726  
E26                                                                  23853146.410                         241.128          25.985    23853150.308                         180.483          23.537  
E31                                                                  25492584.551   133964441.566        1401.811          33.712    25492586.949   100038378.7921       1046.713          26.682  
G08  20562360.274   108055907.359        1699.492          32.436    20562359.375    80691114.053        1269.141          30.774  
G10  21229286.970   111560642.602        -340.598          23.979    21229295.664    83308310.651        -254.407          37.301  
G21  21742618.299                        2283.763          23.435  
G23  22818372.270                       -2166.940          24.126  
G27  20427488.744   107347172.976        -769.043          35.867    20427483.048                        -570.881          20.259  
G32  24632922.483   129446893.6101       3369.907          26.951    24632920.384    96664866.026        2516.565          27.169  
R03  23128792.370   123810260.946       -2499.350          32.767  
R04  20763737.164   111188899.151         886.208          29.752  
R05  21715660.961   116082638.540        4320.342          34.422  
R11  21797140.054                        1594.314          22.431  
> 2022  9 17  6 17  5.9997965  0 21
C13  40887653.067                        -505.604          24.570  
C14  24770480.753   128986385.308       -1480.421          29.413  
C28  22940397.094   119456670.059       -1279.553          36.563  
C30  24595505.086   128075221.440        3159.939          25.766  
C33  23675673.173                         -71.080          20.328  
C36  25242132.235   131442258.0211        465.164          23.325  
E07                                                                  27061823.589   142210840.459        3045.062          33.079    27061831.984   106196440.817        2273.928          28.192  
E08                                                                  26936336.762   141551419.867         996.659          34.652    26936341.259                         744.344          23.606  
E13                                                                  26034154.830   136810406.580       -1642.964          28.829    26034168.620                       -1225.394          21.679  
E26                                                                  23853221.059   125349504.8931        241.942          27.053    23853225.256                         180.844          22.783  
E31                                                                  25492437.952   133963669.761        1401.973          33.263    25492442.150   100037802.444        1046.927          26.495  
G08  20562150.719   108054837.689        1699.839          33.184    20562155.516    80690315.369        1269.263          31.053  
G10  21229462.649                        -340.138          23.213    21229479.737    83309035.608        -254.378          37.894  
G21  21742307.114                        2282.141          22.227  
G23  22818905.001                       -2169.030          23.129  
G27  20427757.358   107348572.004        -768.861          35.517    20427746.865                        -578.575          21.167  
G32  24632401.443   129444153.307        3370.470          27.530    24632396.347    96662819.765        2516.841          27.804  
R03  23129375.467   123813402.186       -2499.315          32.883  
R04  20763691.895   111188655.289         886.012          29.924  
R05  21714971.138   116078959.006        4320.559          34.118  
R11  21796976.967                        1592.727          23.859  
> 2022  9 17  6 17  6.9997968  0 21
C13  40887840.437                        -503.353          23.602  
C14  24770853.395   128988333.440       -1479.803          28.871  
C28  22940733.760   119458417.213       -1278.825          36.397  
C30  24594987.345   128072528.912        3160.858          25.530  
C33  23675783.496                         -69.488          20.652  
C36  25242128.938                         465.715          23.718  
E07                                                                  27061334.628   142208267.256        3045.828          33.143    27061342.123   106194519.316        2274.436          28.445  
E08                                                                  26936236.631   141550895.377         997.116          34.436    26936240.529                         744.703          23.011  
E13                                                                  26034556.851                       -1641.875          28.772  
E26                                                                  23853268.126   125349734.770         242.749          27.183    23853266.927    93605364.6151        181.349          22.496  
E31                                                                  25492262.274   133962739.903        1402.484          33.074    25492264.073                        1047.334          25.509  
G08  20561923.477   108053609.962        1700.353          33.121    20561922.277    80689398.532        1269.772          31.072  
G10  21229611.346   111562425.6751       -339.687          23.238    21229634.130    83309642.479        -253.935          37.943  
G21  21741956.657                        2285.466          22.085  
G23  22819413.149                       -2163.470          22.990  
G27  20427989.697   107349812.917        -768.287          35.621    20427982.502                        -579.007          20.199  
G32  24631853.423   129441254.702        3371.231          27.985    24631845.928    96660655.118        2517.582          27.912  
R03  23129939.976   123816382.524       -2498.895          32.575  
R04  20763620.545   111188250.850         886.052          29.865  
R05  21714248.039   116075118.723        4321.052          33.880  
R11  21796771.309                        1593.773          23.009  
> 2022  9 17  6 17  7.9997972  0 21
C13  40888057.487                        -501.958          23.284  
C14  24771257.215   128990437.724       -1479.844          29.329  
C28  22941096.210   119460320.322       -1278.669          36.472  
C30  24594503.779                        3160.726          25.498  
C33  23675912.107                         -71.079          21.376  
C36  25242159.816   131442419.9491        465.348          23.720  
E07                                                                  27060874.446   142205851.471        3045.954          33.105    27060881.941   106192715.294        2274.602          28.484  
E08                                                                  26936166.480   141550528.490         997.055          34.309    26936171.576                         744.647          24.217  
E13                                                                  26034989.452   136814793.0251      -1641.694          28.554  
E26                                                                  23853340.076   125350122.059         242.879          27.255    23853340.076                         181.603          22.824  
E31                                                                  25492113.877   133961967.713        1402.358          33.217    25492115.076   100036531.4701       1047.173          24.853  
G08  20561717.519   108052539.865        1700.265          33.102    20561719.618    80688599.490        1269.623          31.194  
G10  21229792.421                        -341.387          23.196    21229820.001    83310367.404        -254.345          37.986  
G21  21741646.671                        2287.003          22.249  
G23  22819940.784   119919577.6671      -2164.850          24.271  
G27  20428255.913   107351211.546        -768.460          35.583  
G32  24631331.784   129438513.372        3371.499          28.269    24631324.289    96658608.063        2517.635          28.534  
R03  23130531.766   123819523.551       -2499.102          32.887  
R04  20763568.980   111188007.497         885.502          29.950  
R05  21713566.311   116071438.670        4321.078          33.943  
R11  21796576.744                        1592.803          23.290  
> 2022  9 17  6 17  8.9997975  0 21
C13  40888243.958                        -501.456          22.996  
C14  24771632.256   128992386.559       -1480.505          29.526  
C28  22941432.877   119462067.624       -1278.973          36.461  
C30  24593980.342   128067299.4441       3161.571          25.341  
C33  23676023.330                         -70.661          21.719  
C36  25242158.018                         463.636          23.609  
E07                                                                  27060383.386   142203278.393        3045.703          32.931    27060393.579   106190793.878        2274.351          28.566  
E08                                                                  26936065.750   141550004.637         996.479          34.072    26936073.544                         744.122          24.128  
E13                                                                  26035389.975   136816907.449       -1641.797          28.822    26035408.562                       -1227.269          20.459  
E26                                                                  23853385.345   125350352.081         242.604          27.304    23853385.945    93605825.5531        181.233          23.039  
E31                                                                  25491936.999   133961038.484        1401.855          33.074    25491938.798                        1046.391          24.948  
G08  20561490.576   108051312.831        1699.660          33.332    20561484.880    80687683.120        1269.304          31.390  
G10  21229955.208   111564210.6051       -341.025          23.977    21229973.795    83310974.962        -254.623          38.031  
G21  21741302.210                        2284.530          21.732  
G23  22820442.636                       -2165.856          24.853  
G27  20428489.451   107352453.190        -769.018          35.531    20428491.250                        -571.421          21.052  
G32  24630776.868   129435614.874        3371.124          28.230    24630772.071    96656443.565        2517.434          28.668  
R03  23131080.086   123822504.801       -2499.806          33.120  
R04  20763491.634   111187604.649         884.461          30.122  
R05  21712847.409   116067598.931        4320.508          33.695  
R11  21796359.394                        1587.879          22.852  
> 2022  9 17  6 17  9.9997979  0 21
C13  40888461.007                        -502.768          22.372  
C14  24772038.774   128994491.932       -1480.934          29.285  
C28  22941800.122   119463971.382       -1279.319          36.403  
C30  24593496.177   128064763.229        3160.654          24.917  
C33  23676155.239                         -69.820          22.056  
C36  25242188.596                         465.265          23.909  
E07                                                                  27059922.006   142200863.166        3045.395          32.372    27059932.499   106188990.274        2274.184          29.196  
E08                                                                  26935995.898   141549638.879         995.926          34.158    26936004.292                         743.329          24.123  
E13                                                                  26035828.871   136819179.599       -1641.983          28.570  
E26                                                                  23853457.895   125350739.989         242.259          27.630    23853457.895                         180.242          22.356  
E31                                                                  25491790.101   133960267.428        1401.224          33.014    25491792.199                        1046.335          25.520  
G08  20561282.520   108050243.747        1699.251          32.845    20561282.820    80686884.786        1268.914          31.390  
G10  21230143.178                        -341.075          23.748    21230159.067    83311700.863        -255.321          38.009  
G21  21740987.428                        2286.730          21.516  
G23  22820970.871                       -2166.308          24.694  
G27  20428759.864   107353852.913        -769.555          35.381    20428753.268                        -575.062          21.524  
G32  24630254.630   129432874.061        3370.981          27.888    24630250.732    96654396.812        2517.333          28.852  
R03  23131666.181   123825647.229       -2500.503          33.141  
R04  20763444.267   111187363.339         883.460          30.030  
R05  21712149.791   116063919.969        4319.987          33.495  
R11  21796178.020                        1593.713          22.370  
> 2022  9 17  6 17 10.9997982  0 21
C13  40888645.380                        -501.651          22.396  
C14  24772411.117   128996441.963       -1481.702          29.169  
C28  22942135.890   119465719.464       -1279.753          36.525  
C30  24592975.737   128062070.900        3160.659          25.456  
C33  23676255.969                         -78.289          22.096  
C36  25242188.896   131442588.8171        463.385          24.337  
E07                                                                  27059435.143   142198290.803        3044.989          32.162    27059443.237   106187069.400        2273.810          29.585  
E08                                                                  26935896.367   141549116.294         995.211          34.077    26935902.663                         743.091          24.530  
E13                                                                  26036226.396   136821294.451       -1642.226          29.022  
E26                                                                  23853501.664   125350970.707         241.908          27.547    23853502.564                         180.689          22.140  
E31                                                                  25491613.223   133959339.476        1400.579          32.893    25491617.121                        1046.129          26.151  
G08  20561049.881   108049017.808        1698.565          33.269    20561048.982    80685969.280        1268.441          31.353  
G10  21230302.667   111565997.9051       -342.768          24.052    21230313.760    83312309.672        -255.875          37.936  
G21  21740646.863                        2287.013          21.805  
G23  22821480.218   119927650.9331      -2166.542          24.279  
G27  20428996.400   107355095.796        -770.257          35.206    20428991.304                        -577.913          20.748  
G32  24629702.412   129429975.999        3370.688          27.773    24629698.215    96652232.714        2517.033          28.522  
R03  23132235.187   123828629.873       -2501.201          33.019  
R04  20763368.419   111186962.665         882.287          30.189  
R05  21711438.084   116060081.469        4319.269          33.275  
R11  21795960.970                        1591.934          22.113  
> 2022  9 17  6 17 11.9997986  0 21
C13  40888861.230                        -503.096          22.794  
C14  24772814.338   128998548.638       -1482.236          29.153  
C28  22942503.136   119467624.003       -1280.099          36.363  
C30  24592493.071   128059535.057        3160.282          25.591  
C33  23676390.276                         -77.353          21.879  
C36  25242224.572   131442750.664         462.591          24.236  
E07                                                                  27058976.161   142195876.365        3044.606          31.814    27058983.955   106185266.391        2273.588          29.993  
E08                                                                  26935829.213   141548751.904         994.558          33.815    26935834.310                         742.651          24.690  
E13                                                                  26036658.097   136823567.060       -1642.440          28.834  
E26                                                                  23853576.912   125351359.464         241.411          27.905    23853577.212                         180.467          21.555  
E31                                                                  25491468.424   133958569.711        1399.933          32.794    25491469.323   100033993.9481       1045.360          26.486  
G08  20560845.123   108047950.039        1697.937          32.457    20560845.423    80685171.921        1267.940          31.366  
G10  21230491.537   111566971.546        -343.473          24.806    21230498.732    83313036.630        -256.377          38.070  
G21  21740325.486                        2281.026          21.161  
G23  22822011.450   119930448.192       -2167.091          24.784  
G27  20429260.517   107356496.784        -770.820          35.257    20429255.421                        -574.721          20.960  
G32  24629178.974   129427235.871        3370.296          27.990    24629176.876    96650186.566        2516.728          28.361  
R03  23132825.478   123831773.811       -2502.013          33.066  
R04  20763322.851   111186723.647         881.167          30.442  
R05  21710745.264   116056403.821        4318.674          33.180  
R11  21795771.501                        1587.667          20.994  
> 2022  9 17  6 17 12.9997990  0 21
C13  40889076.481                        -503.358          21.955  
C14  24773219.657   129000655.776       -1482.698          28.724  
C28  22942864.685   119469528.833       -1280.391          36.005  
C30  24592005.309   128056999.287        3160.209          25.725  
C33  23676532.977                         -78.872          20.558  
C36  25242253.651                         461.403          24.408  
E07                                                                  27058514.180   142193462.182        3044.351          31.293    27058526.172   106183463.593        2273.378          30.247  
E08                                                                  26935755.764   141548387.961         994.111          33.798    26935763.859                         741.878          24.119  
E13                                                                  26037088.898   136825839.776       -1642.548          29.108  
E26                                                                  23853653.659   125351748.367         241.266          27.544    23853650.961    93606868.3121        180.049          22.033  
E31                                                                  25491318.827   133957800.397        1399.481          32.941    25491323.024   100033419.485        1045.044          26.102  
G08  20560637.667   108046882.708        1697.499          32.563    20560642.463    80684374.940        1267.561          31.274  
G10  21230676.508   111567945.041        -343.328          25.368    21230684.303    83313764.189        -256.979          37.844  
G21  21740017.299                        2285.053          21.478  
G23  22822547.479                       -2167.956          23.885  
G27  20429525.534   107357898.298        -771.346          35.160    20429523.435                        -576.653          21.432  
G32  24628659.434   129424495.925        3370.114          28.088    24628655.237    96648140.482        2516.664          28.321  
R03  23133406.776   123834918.469       -2502.733          33.134  
R04  20763285.377   111186485.514         880.283          30.255  
R05  21710062.037   116052726.660        4318.185          33.522  
R11  21795611.712                        1591.299          20.563  
> 2022  9 17  6 17 13.9997993  0 21
C13  40889263.552                        -505.121          21.976  
C14  24773591.400   129002607.436       -1483.331          28.431  
C28  22943202.551   119471277.898       -1280.736          36.243  
C30  24591486.068                        3159.728          25.239  
C33  23676636.106                         -78.691          21.448  
C36  25242254.551                         461.226          23.889  
E07                                                                  27058021.022   142190890.757        3044.051          31.453    27058036.911   106181543.382        2273.146          30.074  
E08                                                                  26935659.231   141547867.088         993.499          33.967    26935667.326                         741.478          23.733  
E13                                                                  26037495.117   136827955.078       -1642.677          29.332  
E26                                                                  23853694.431   125351980.013         240.980          27.465    23853692.932    93607041.301         179.946          21.518  
E31                                                                  25491143.748   133956874.167        1398.856          32.818    25491148.245   100032727.873        1044.547          26.471  
G08  20560407.126   108045658.412        1696.922          32.512    20560409.225    80683460.646        1267.229          31.066  
G10  21230830.002   111568762.517        -344.850          25.426    21230841.095    83314374.601        -257.477          37.983  
G21  21739673.737                        2283.817          22.075  
G23  22823046.933   119935885.9691      -2168.057          24.316  
G27  20429760.571   107359142.920        -771.995          35.261    20429761.770                        -579.482          21.673  
G32  24628107.216   129421598.720        3369.831          28.044    24628104.818    96645976.981        2516.436          28.611  
R03  23133952.998   123837903.375       -2503.462          33.646  
R04  20763203.833   111186087.957         879.169          30.697  
R05  21709353.327   116048889.828        4317.601          33.380  
R11  21795418.646                        1587.607          21.464  
> 2022  9 17  6 17 14.9997997  0 21
C13  40889483.300   212922302.0371       -503.747          23.140  
C14  24773998.518   129004716.047       -1484.172          28.454  
C28  22943567.399   119473183.749       -1281.412          36.127  
C30  24591000.105   128051772.5821       3160.023          24.418  
C33  23676774.010                         -79.329          21.090  
C36  25242290.226   131443083.4601        460.869          24.646  
E07                                                                  27057563.838   142188477.501        3043.424          31.192    27057577.029   106179741.249        2272.713          30.130  
E08                                                                  26935591.478   141547504.737         992.519          34.126    26935595.975   105701055.5831        741.142          24.183  
E13                                                                  26037927.718   136830228.505       -1643.259          29.625    26037943.307                       -1228.658          19.479  
E26                                                                  23853769.679   125352369.950         240.231          27.902    23853770.878                         178.670          20.662  
E31                                                                  25490998.649   133956106.479        1397.856          32.858    25491000.148   100032154.551        1043.902          26.132  
G08  20560204.766   108044592.551        1696.029          32.546    20560206.565    80682664.724        1266.502          30.978  
G10  21231020.071   111569738.495        -345.810          26.175    21231025.467    83315103.398        -258.217          37.917  
G21  21739352.959                        2282.241          22.501  
G23  22823581.463                       -2169.234          23.801  
G27  20430029.485   107360545.951        -772.863          34.975    20430028.286                        -575.876          20.881  
G32  24627586.776   129418859.682        3369.206          27.389    24627583.779    96643931.565        2515.997          28.806  
R03  23134554.081   123841049.756       -2504.456          33.926  
R04  20763162.762   111185852.330         877.777          31.000  
R05  21708657.209   116045214.206        4316.647          32.758  
R11  21795263.353                        1586.495          22.456  
> 2022  9 17  6 17 15.9998000  0 21
C13  40889668.272                        -500.174          22.730  
C14  24774372.359   129006669.514       -1485.138          28.268  
C28  22943906.164   119474934.221       -1282.143          36.100  
C30  24590484.162                        3158.353          24.743  
C33  23676874.441                         -81.760          19.998  
C36  25242288.427   131443092.456         459.333          25.214  
E07                                                                  27057075.776   142185907.439        3042.688          30.849    27057088.967   106177822.096        2272.088          30.048  
E08                                                                  26935491.647   141546985.826         991.537          33.909    26935500.041   105700668.048         740.470          24.442  
E13                                                                  26038329.140   136832344.928       -1643.798          29.780  
E26                                                                  23853814.948   125352603.079         239.497          27.812    23853812.549                         178.515          21.428  
E31                                                                  25490819.073   133955182.151        1396.954          32.797    25490826.868   100031464.295        1043.191          26.449  
G08  20559968.830   108043370.084        1695.092          31.990    20559974.826    80681751.851        1265.809          31.083  
G10  21231177.162                        -347.842          26.600    21231181.359    83315715.430        -259.097          37.950  
G21  21739008.498                        2279.872          22.085  
G23  22824079.718                       -2170.132          24.285  
G27  20430268.419   107361792.392        -773.815          34.994    20430267.220                        -574.708          21.358  
G32  24627035.458   129415963.785        3368.523          26.721    24627032.760    96641769.087        2515.412          29.346  
R03  23135108.698   123844036.827       -2505.628          33.785  
R04  20763084.516   111185457.607         876.335          31.175  
R05  21707923.617   116041379.207        4315.767          32.526  
R11  21795045.404                        1586.487          22.839  
> 2022  9 17  6 17 16.9998004  0 21
C13  40889885.022                        -500.791          23.009  
C14  24774773.481   129008779.910       -1485.956          28.065  
C28  22944270.412   119476841.321       -1282.661          36.162  
C30  24589998.798                        3153.119          24.425  
C33  23677015.943                         -79.212          20.434  
C36  25242322.304                         459.219          25.011  
E07                                                                  27056615.595   142183495.456        3042.151          30.900    27056628.186   106176020.943        2271.733          30.237  
E08                                                                  26935422.095   141546625.212         990.782          34.058    26935430.190   105700398.786         739.843          24.677  
E13                                                                  26038760.841   136834619.194       -1644.098          29.836    26038775.231                       -1227.284          19.299  
E26                                                                  23853891.095   125352994.211         239.036          28.005    23853889.896    93607798.7181        178.445          20.934  
E31                                                                  25490672.475   133954416.193        1396.126          32.965    25490679.670   100030892.288        1042.587          26.152  
G08  20559765.870   108042305.902        1694.350          32.191    20559771.566    80680957.138        1265.292          31.229  
G10  21231366.031   111571536.5851       -347.823          26.394    21231367.830    83316445.738        -259.728          37.845  
G21  21738696.114                        2279.603          21.325  
G23  22824612.749   119944128.6041      -2170.456          24.194  
G27  20430533.436   107363197.207        -774.646          35.034    20430531.637                        -578.704          21.618  
G32  24626506.324   129413225.824        3368.129          25.763    24626512.020    96639724.473        2515.194          29.302  
R03  23135695.092   123847185.236       -2506.484          33.940  
R04  20763055.436   111185224.641         875.116          31.153  
R05  21707247.285   116037705.218        4315.014          32.528  
R11  21794865.229                        1581.440          23.080  
> 2022  9 17  6 17 17.9998007  0 22
C13  40890074.490                        -504.622          23.049  
C14  24775152.419   129010734.401       -1486.162          27.869  
C28  22944605.580   119478592.442       -1282.791          36.040  
C30  24589479.558                        3156.985          24.366  
C33  23677118.772                         -81.232          19.752  
C36  25242325.002                         457.437          25.447  
E07                                                                  27056126.633   142180926.026        3042.056          30.325    27056139.824   106174102.198        2271.681          30.259  
E08                                                                  26935324.063   141546107.438         990.400          34.131    26935330.359                         739.098          24.069  
E13                                                                  26039162.563   136836735.955       -1644.135          30.065    26039180.251                       -1228.059          19.695  
E26                                                                  23853937.862   125353227.916         238.921          27.922    23853929.468                         179.473          21.453  
E31                                                                  25490497.396   133953493.014        1395.805          32.722    25490504.891                        1042.061          26.611  
G08  20559536.529   108041084.553        1693.975          32.364    20559539.227    80680045.080        1264.994          31.250  
G10  21231523.122   111572357.561        -348.349          26.786    21231524.621    83317058.799        -260.126          37.868  
G21  21738348.654                        2281.066          21.649  
G23  22825116.701   119946772.122       -2170.892          24.300  
G26                                                                  25426720.748                       -2328.818          19.542  
G27  20430769.373   107364444.781        -774.949          35.160    20430769.672                        -580.100          21.473  
G32  24625955.306                        3367.892          25.812    24625961.002    96637562.297        2515.111          29.404  
R03  23136254.804   123850173.658       -2506.979          34.078  
R04  20762975.091   111184832.015         874.238          30.855  
R05  21706546.371   116033871.324        4314.663          32.741  
R11  21794667.366                        1581.530          23.351  
> 2022  9 17  6 17 18.9998011  0 22
C13  40890294.238                        -505.364          22.498  
C14  24775554.441   129012845.766       -1486.926          27.960  
C28  22944971.926   119480500.149       -1283.269          36.005  
C30  24588991.795                        3158.410          24.201  
C33  23677245.884                         -82.414          19.601  
C36  25242354.981                         455.814          25.301  
E07                                                                  27055667.351   142178514.604        3041.590          29.899    27055681.741   106172301.452        2271.325          30.198  
E08                                                                  26935256.310   141545747.904         989.701          33.798    26935262.906   105699743.6051        739.088          24.011  
E13                                                                  26039596.363   136839010.498       -1644.375          30.317    26039614.650                       -1227.056          19.085  
E26                                                                  23854009.213   125353619.721         238.363          27.583    23854007.115                         178.486          21.075  
E31                                                                  25490354.994   133952728.121        1395.061          32.874    25490358.592                        1041.516          26.372  
G08  20559332.670   108040021.422        1693.299          32.187    20559336.567    80679251.218        1264.442          31.142  
G10  21231704.497   111573336.472        -348.744          26.594    21231710.193    83317790.191        -260.812          37.976  
G21  21738029.375                        2279.505          21.925  
G23  22825648.832                       -2171.176          23.543  
G26  25427452.841                       -3113.929          22.751    25427434.853                       -2334.045          19.179  
G27  20431037.687   107365850.663        -775.714          35.006    20431038.886                        -579.686          22.377  
G32  24625442.361                        3367.519          25.537    24625440.262    96635518.104        2514.773          29.475  
R03  23136844.196   123853323.386       -2507.803          34.124  
R04  20762930.722   111184601.107         873.058          31.012  
R05  21705837.062   116030198.449        4313.899          33.122  
R11  21794490.788                        1582.910          23.374  
> 2022  9 17  6 17 19.9998014  0 22
C13  40890479.510                        -503.977          22.563  
C14  24775930.980   129014801.128       -1487.032          28.113  
C28  22945308.893   119482251.607       -1283.128          35.918  
C30  24588478.551                        3158.805          24.556  
C33  23677352.910                         -81.041          18.791  
C36  25242360.078   131443447.3991        457.089          25.233  
E07                                                                  27055177.490   142175945.457        3041.773          29.855    27055191.880   106170382.970        2271.417          30.601  
E08                                                                  26935156.179   141545231.014         989.516          34.194    26935166.372                         738.830          23.953  
E13                                                                  26040000.483   136841127.244       -1644.120          30.229    26040013.973                       -1228.627          18.782  
E26                                                                  23854054.782   125353853.835         238.512          27.424    23854051.484    93608440.5851        178.035          21.849  
E31                                                                  25490176.618   133951805.844        1394.903          32.921    25490182.614   100028942.9991       1041.697          26.303  
G08  20559101.530   108038800.808        1693.239          32.299    20559105.427    80678339.709        1264.444          31.273  
G10  21231863.087   111574158.513        -349.415          26.961    21231866.984    83318404.111        -260.984          37.922  
G21  21737694.807                        2283.574          22.243  
G23  22826148.286   119952217.3751      -2171.585          23.387  
G26  25428136.367                       -3114.904          22.144    25428118.980                       -2329.875          20.061  
G27  20431275.722   107367099.113        -775.824          34.771    20431273.024                        -579.129          22.059  
G32  24624886.846   129404697.7291       3367.827          25.395    24624889.544    96633356.086        2514.953          29.897  
R03  23137407.806   123856312.924       -2508.094          34.130  
R04  20762862.969   111184210.260         872.459          31.037  
R05  21705129.551   116026365.416        4313.802          33.516  
R11  21794262.946                        1586.646          23.306  
> 2022  9 17  6 17 20.9998018  0 22
C13  40890701.057                        -502.523          21.551  
C14  24776338.098   129016913.028       -1487.462          27.949  
C28  22945676.439   119484159.417       -1283.371          36.066  
C30  24587993.187   128036100.3781       3158.358          24.468  
C33  23677477.324                         -80.486          19.446  
C36  25242391.556                         456.349          25.737  
E07                                                                  27054719.707   142173534.094        3041.530          29.612    27054734.097   106168582.284        2271.266          30.272  
E08                                                                  26935090.525   141544872.131         989.052          34.372    26935095.322   105699089.6031        738.602          23.538  
E13                                                                  26040432.184   136843401.576       -1644.164          30.277    26040444.176                       -1226.609          18.163  
E26                                                                  23854126.132   125354245.671         238.331          27.449    23854125.533                         178.224          21.731  
E31                                                                  25490033.317   133951041.499        1394.513          32.852    25490038.114   100028372.246        1041.333          26.644  
G08  20558896.172   108037738.177        1692.800          32.293    20558902.168    80677546.209        1264.080          31.314  
G10  21232047.459   111575138.795        -350.113          26.644    21232054.355    83319136.059        -261.368          38.010  
G21  21737378.526                        2278.667          21.901  
G23  22826684.015   119955019.481       -2171.938          23.385  
G26  25428850.473                       -3114.000          22.090    25428831.586                       -2326.290          20.015  
G27  20431546.435   107368505.624        -776.343          34.719    20431542.537                        -580.421          21.281  
G32  24624361.609   129401960.243        3367.655          24.348    24624370.603    96631311.851        2514.815          30.072  
R03  23137995.999   123859463.514       -2508.665          34.339  
R04  20762819.499   111183980.820         871.591          31.010  
R05  21704442.727   116022693.115        4313.326          33.700  
R11  21794113.349                        1582.891          24.094  
> 2022  9 17  6 17 21.9998022  0 22
C13  40890912.410                        -502.336          21.981  
C14  24776744.017   129019025.073       -1487.606          27.913  
C28  22946040.687   119486067.128       -1283.272          35.755  
C30  24587502.426   128033566.074        3158.743          24.360  
C33  23677617.327                         -81.248          18.324  
C36  25242425.133   131443783.3671        456.381          25.245  
E07                                                                  27054259.526   142171122.581        3041.681          29.580    27054276.014   106166781.448        2271.416          30.376  
E08                                                                  26935023.072   141544513.368         988.931          34.129    26935027.868                         738.387          23.903  
E13                                                                  26040865.684   136845675.607       -1643.863          30.258  
E26                                                                  23854201.680   125354637.355         238.484          27.568    23854202.879                         178.819          21.001  
E31                                                                  25489886.419   133950277.369        1394.298          32.689    25489892.415   100027801.666        1041.160          26.247  
G08  20558700.108   108036675.678        1692.667          32.479    20558700.108    80676752.772        1264.017          31.501  
G10  21232241.125   111576119.339        -350.376          26.491    21232239.327    83319868.250        -261.612          37.950  
G21  21737071.539                        2275.082          22.237  
G23  22827212.250                       -2171.879          23.381  
G26  25429563.080                       -3112.041          21.518    25429542.394                       -2318.355          18.905  
G27  20431811.751   107369912.178        -776.386          34.908    20431809.053                        -579.933          21.258  
G32  24623848.364                        3368.220          23.054    24623848.664    96629267.434        2514.997          30.354  
R03  23138579.695   123862614.390       -2508.951          34.366  
R04  20762774.830   111183751.986         870.983          30.720  
R05  21703751.705   116019020.886        4313.255          33.823  
R11  21793937.071   116460203.1961       1580.579          24.508  
> 2022  9 17  6 17 22.9998025  0 22
C13  40891095.883                        -506.287          23.068  
C14  24777118.458   129020981.234       -1487.831          27.843  
C28  22946380.351   119487818.740       -1283.283          35.791  
C30  24586982.286   128030875.606        3158.797          23.930  
C33  23677729.749                         -81.206          17.463  
C36  25242425.133   131443795.691         456.006          25.696  
E07                                                                  27053776.260   142168553.574        3041.633          29.577    27053786.154   106164863.081        2271.303          30.497  
E08                                                                  26934924.740   141543997.343         988.651          34.329    26934928.037   105698436.4431        738.217          24.179  
E13                                                                  26041269.204   136847792.008       -1643.775          30.740  
E26                                                                  23854245.749   125354871.517         238.465          27.636    23854243.351    93609200.5331        177.948          20.467  
E31                                                                  25489714.338   133949355.913        1394.082          32.728    25489717.636   100027113.563        1041.037          26.142  
G08  20558466.270   108035455.760        1692.544          32.605    20558467.769    80675841.860        1263.847          31.261  
G10  21232394.919   111576942.636        -350.672          26.370    21232396.418    83320483.081        -261.896          37.935  
G21  21736724.379                        2277.522          22.437  
G23  22827723.696                       -2173.073          22.920  
G26  25430231.617                       -3112.893          21.109    25430224.422                       -2320.118          18.952  
G27  20432047.688   107371161.532        -776.729          34.504    20432050.086                        -580.014          21.981  
G32  24623296.746                        3366.234          22.799    24623297.346    96627105.344        2515.026          30.268  
R03  23139141.805   123865605.124       -2509.290          34.196  
R04  20762696.884   111183363.299         870.300          30.609  
R05  21703035.201   116015188.624        4313.031          33.830  
R11  21793747.303                        1579.379          25.121  
> 2022  9 17  6 17 23.9998029  0 22
C13  40891313.832                        -504.802          22.777  
C14  24777527.075   129023093.773       -1488.100          28.167  
C28  22946745.798   119489726.541       -1283.362          35.435  
C30  24586491.226                        3160.906          23.867  
C33  23677856.261                         -81.796          19.039  
C36  25242458.110                         455.451          25.727  
E07                                                                  27053313.081   142166142.113        3041.629          29.657    27053328.670   106163062.284        2271.377          30.153  
E08                                                                  26934857.886   141543639.221         988.290          34.349    26934861.783   105698168.948         738.075          25.008  
E13                                                                  26041701.805   136850065.742       -1643.566          30.797  
E26                                                                  23854319.798   125355263.306         238.379          27.522    23854320.697                         177.867          22.060  
E31                                                                  25489565.941   133948592.380        1393.701          32.973    25489571.037   100026543.265        1040.878          26.384  
G08  20558263.011   108034393.869        1692.060          32.767    20558265.709    80675048.778        1263.662          31.074  
G10  21232578.692   111577923.965        -351.160          25.806    21232582.889    83321215.917        -262.255          37.718  
G21  21736404.500                        2283.173          21.621  
G23  22828256.727                       -2171.099          22.656  
G26  25430957.415                       -3116.626          21.546    25430940.926                       -2325.228          18.191  
G27  20432316.901   107372568.725        -777.025          34.625    20432317.801                        -580.304          22.140  
G32  24622770.311                        3366.938          21.130    24622776.606    96625060.902        2515.021          30.355  
R03  23139735.095   123868756.840       -2509.791          34.202  
R04  20762657.311   111183135.987         869.462          30.248  
R05  21702349.876   116011516.969        4312.680          33.886  
R11  21793562.930                        1579.116          24.949  
> 2022  9 17  6 17 24.9998032  0 22
C13  40891494.607                        -500.805          23.378  
C14  24777897.319   129025050.810       -1488.707          27.649  
C28  22947082.166   119491478.579       -1283.708          35.073  
C30  24585984.877                        3158.873          23.605  
C33  23677970.482                         -82.497          19.199  
C36  25242461.408   131443977.9011        454.948          25.392  
E07                                                                  27052824.419   142163573.485        3041.254          29.442    27052838.809   106161144.180        2271.038          30.237  
E08                                                                  26934758.055   141543124.129         987.718          34.187    26934762.852   105697784.354         737.528          24.857  
E13                                                                  26042105.625   136852182.213       -1643.845          31.028    26042121.514                       -1222.600          18.484  
E26                                                                  23854365.966   125355497.848         238.084          27.518    23854362.668                         177.665          22.941  
E31                                                                  25489388.464   133947671.875        1393.131          33.130    25489397.158                        1039.735          26.414  
G08  20558032.770   108033174.860        1691.635          32.797    20558034.569    80674138.587        1263.126          30.940  
G10  21232733.385   111578748.517        -351.926          26.124    21232739.980    83321831.672        -262.820          37.689  
G21  21736067.534                        2279.958          21.038  
G23  22828755.581                       -2174.492          22.748  
G26                                                                  25431622.054                       -2333.086          17.788  
G27  20432556.436   107373818.986        -777.635          34.540    20432554.337                        -580.556          21.576  
G32  24622215.695                        3368.732          20.941    24622224.988    96622899.060        2514.778          30.279  
R03  23140285.514   123871748.683       -2510.399          34.200  
R04  20762594.055   111182749.163         868.436          30.537  
R05  21701635.770   116007685.644        4312.093          34.223  
R11  21793348.879                        1578.162          25.719  
> 2022  9 17  6 17 25.9998036  0 22
C13  40891717.353                        -500.573          22.761  
C14  24778303.537   129027164.534       -1489.285          27.302  
C28  22947447.613   119493387.112       -1284.095          34.530  
C30  24585496.815   128023116.7631       3158.487          24.309  
C33  23678108.986                         -86.535          18.849  
C36  25242492.886                         453.627          24.747  
E07                                                                  27052366.336   142161162.735        3040.918          29.920    27052379.827   106159343.948        2270.813          30.497  
E08                                                                  26934690.302   141542767.196         987.101          34.326    26934694.799                         736.643          23.958  
E13                                                                  26042536.727   136854456.349       -1643.968          31.220    26042556.213                       -1226.334          18.874  
E26                                                                  23854437.916   125355890.287         237.729          27.305    23854439.115    93609961.2981        177.505          22.383  
E31                                                                  25489246.662   133946909.510        1392.533          32.746    25489250.259   100025286.6571       1039.944          26.558  
G08  20557834.307   108032114.004        1691.024          32.987    20557831.909    80673346.340        1262.828          30.616  
G10  21232918.057                        -353.204          25.671    21232928.250    83322565.607        -263.355          37.712  
G21  21735749.454                        2277.075          20.910  
G23  22829283.516                       -2176.254          21.895  
G26  25432347.552                       -3119.382          21.121    25432334.361                       -2326.866          18.775  
G27  20432824.750   107375227.306        -778.152          34.854    20432821.152    80182852.2221       -581.256          22.042  
G32  24621697.653                        3371.701          20.386    24621704.549    96620855.115        2514.525          30.295  
R03  23140882.101   123874901.852       -2511.244          34.352  
R04  20762538.893   111182523.986         867.327          30.257  
R05  21700948.646   116004015.176        4311.493          34.320  
R11  21793167.504                        1574.210          25.644  
> 2022  9 17  6 17 26.9998039  0 22
C13  40891901.126                        -503.761          22.700  
C14  24778682.775   129029122.748       -1489.884          27.432  
C28  22947786.678   119495139.899       -1284.457          34.691  
C30  24584986.868                        3158.523          24.414  
C33  23678212.415                         -89.403          17.539  
C36  25242497.682                         452.744          24.374  
E07                                                                  27051875.876   142158594.741        3040.620          29.702    27051890.866   106157426.268        2270.615          30.363  
E08                                                                  26934592.570   141542253.346         986.476          34.156    26934597.366                         736.094          24.141  
E13                                                                  26042941.147   136856573.190       -1644.215          31.330    26042954.937                       -1233.179          19.138  
E26                                                                  23854481.986   125356125.563         237.351          27.081    23854483.485                         177.338          22.376  
E31                                                                  25489073.382   133945990.202        1391.934          32.759    25489076.679   100024600.196        1039.395          26.617  
G08  20557600.469   108030896.268        1690.363          33.151    20557601.369    80672436.983        1262.292          30.556  
G10  21233076.647   111580557.8971       -353.446          25.792    21233084.442    83323182.414        -263.872          37.756  
G21  21735404.692                        2273.555          20.855  
G23  22829786.268                       -2172.985          22.142  
G26                                                                  25433015.490                       -2320.429          17.239  
G27  20433062.785   107376478.793        -778.860          35.047    20433059.787                        -582.682          22.082  
G32  24621159.826                        3366.609          22.224    24621153.530    96618693.731        2514.319          30.029  
R03  23141434.918   123877895.255       -2511.960          34.187  
R04  20762474.138   111182139.359         866.239          30.583  
R05  21700226.746   116000185.053        4310.892          34.743  
R11  21792981.633   116455035.9201       1576.209          25.446  
> 2022  9 17  6 17 27.9998043  0 22
C13  40892122.073                        -506.384          21.964  
C14  24779090.792   129031237.543       -1490.356          27.473  
C28  22948150.026   119497049.048       -1284.709          34.639  
C30  24584496.107   128017893.2011       3158.083          24.742  
C33  23678341.625                         -86.413          17.324  
C36  25242528.261                         453.596          23.983  
E07                                                                  27051417.793   142156184.627        3040.282          30.142    27051432.183   106155626.498        2270.350          30.340  
E08                                                                  26934525.716   141541897.563         985.951          34.426    26934529.613                         736.242          23.314  
E13                                                                  26043373.148   136858847.634       -1644.276          31.182    26043389.637                       -1229.973          19.556  
E26                                                                  23854557.234                         236.382          26.925    23854555.735                         176.551          22.440  
E31                                                                  25488926.783   133945229.005        1391.365          32.630    25488931.880   100024031.716        1039.060          26.807  
G08  20557397.510   108029836.470        1689.966          33.013    20557398.409    80671645.611        1261.952          30.834  
G10  21233264.017   111581542.182        -354.117          25.627    21233271.812    83323917.367        -264.374          37.627  
G21  21735089.611                        2276.804          21.831  
G23  22830316.001                       -2175.902          20.623  
G26  25433748.782                       -3110.968          20.817    25433725.398                       -2321.142          17.971  
G27  20433333.498   107377888.284        -779.323          35.172    20433329.001                        -582.392          22.760  
G32  24620642.084   129382326.1271       3366.864          23.982    24620632.491    96616650.116        2514.195          29.855  
R03  23142015.316   123881049.832       -2512.651          34.402  
R04  20762430.668   111181916.222         865.287          29.453  
R05  21699550.114   115996515.725        4310.354          35.569  
R11  21792807.154                        1574.745          25.039  
> 2022  9 17  6 17 28.9998046  0 22
C13  40892305.246                        -501.509          22.609  
C14  24779467.332   129033196.763       -1490.891          27.935  
C28  22948490.591   119498802.415       -1285.038          34.619  
C30  24583981.664                        3157.940          24.485  
C33  23678452.548                         -85.665          17.956  
C36  25242524.964                         449.683          23.306  
E07                                                                  27050930.930   142153617.185        3040.068          30.882    27050945.020   106153709.289        2270.144          29.703  
E08                                                                  26934427.684   141541384.781         985.408          34.358    26934432.181                         735.561          22.718  
E13                                                                  26043777.568   136860964.717       -1644.457          31.123    26043794.656                       -1222.734          20.852  
E26                                                                  23854603.402   125356754.5241        236.868          27.483    23854603.402    93610606.7681        176.728          22.055  
E31                                                                  25488750.505   133944310.824        1390.807          32.708    25488758.000   100023346.088        1038.563          27.331  
G08  20557168.768   108028619.698        1689.398          33.286    20557167.269    80670736.953        1261.594          30.544  
G10  21233420.209                        -355.137          25.907    21233430.402    83324535.302        -265.000          37.351  
G21  21734752.044                        2274.601          21.551  
G23  22830820.252                       -2173.819          19.835  
G26  25434429.611                       -3112.670          20.309    25434408.326                       -2325.468          18.548  
G27  20433570.334   107379140.808        -779.898          35.519    20433567.336    80185774.5381       -582.351          23.375  
G32  24620089.866   129379432.111        3366.642          25.023    24620081.772    96614489.041        2514.010          29.420  
R03  23142586.421   123884044.522       -2513.246          34.162  
R04  20762364.114                         863.598          27.863  
R05  21698830.312   115992686.619        4309.875          35.398  
R11  21792595.800                        1572.074          24.185  
> 2022  9 17  6 17 29.9998050  0 22
C13  40892521.696                        -498.503          22.818  
C14  24779871.752   129035312.608       -1491.405          27.929  
C28  22948858.736   119500712.138       -1285.283          34.511  
C30  24583492.702   128012670.2181       3157.775          24.475  
C33  23678573.665                         -84.060          18.902  
C36  25242560.639                         450.550          23.019  
E07                                                                  27050473.147   142151207.585        3039.767          30.842    27050485.139   106151909.921        2269.948          29.641  
E08                                                                  26934360.230   141541030.113         984.836          34.282    26934364.727   105696220.6171        735.439          23.432  
E13                                                                  26044210.168   136863239.442       -1644.557          31.253    26044223.359                       -1221.448          20.168  
E26                                                                  23854678.050   125357148.254         236.439          27.379    23854677.450                         176.085          22.073  
E31                                                                  25488608.104   133943550.756        1390.236          32.677    25488611.102   100022778.419        1038.250          27.578  
G08  20556967.008   108027560.913        1688.953          33.608    20556965.209    80669946.265        1261.268          30.668  
G10  21233613.875                        -356.173          25.917    21233616.273    83325271.247        -265.365          37.353  
G21  21734436.663                        2276.067          21.263  
G23  22831356.881                       -2169.606          20.760  
G26  25435133.224                       -3121.763          19.880    25435122.731                       -2331.094          18.584  
G27  20433840.147   107380551.401        -780.426          35.515    20433834.751                        -582.541          23.321  
G32  24619568.228                        3366.857          25.160    24619562.831    96612445.841        2513.780          29.686  
R03  23143180.010   123887200.374       -2513.928          34.043  
R04  20762329.338   111181312.3461        863.309          28.081  
R05  21698133.595   115989018.334        4309.310          35.339  
R11  21792433.912                        1572.104          24.275  
> 2022  9 17  6 17 30.9998054  0 22
C13  40892737.847   212939260.9331       -503.884          24.082  
C14  24780277.971   129037429.055       -1492.008          27.389  
C28  22949221.185   119502622.283       -1285.706          34.347  
C30  24583010.336                        3154.916          22.993  
C33  23678730.756                         -88.109          19.690  
C36  25242592.717   131444696.2031        451.097          23.423  
E07                                                                  27050015.064   142148798.344        3039.410          30.096    27050028.555                        2269.085          28.895  
E08                                                                  26934292.178   141540676.070         984.212          34.588    26934299.672   105695956.183         735.013          24.013  
E13                                                                  26044642.169   136865514.418       -1644.808          32.060    26044655.060                       -1229.806          22.178  
E26                                                                  23854754.497   125357542.214         236.207          26.849    23854754.497                         175.561          23.376  
E31                                                                  25488462.105   133942791.242        1389.682          32.740    25488465.702   100022211.245        1037.753          27.274  
G08  20556761.650   108026502.760        1688.321          33.048    20556763.449    80669156.207        1260.637          32.129  
G10  21233792.551   111584340.8681       -355.566          25.611    21233805.442    83326007.804        -265.978          36.353  
G21  21734124.279                        2269.848          20.109  
G23  22831888.413                       -2179.555          21.165  
G26  25435858.721                       -3116.226          19.920    25435837.136                       -2324.002          19.538  
G27  20434112.658   107381962.656        -781.086          35.620    20434109.061                        -584.197          22.167  
G32  24619048.088                        3365.122          23.948    24619042.392    96610402.808        2513.613          30.005  
R03  23143757.110   123890357.018       -2514.719          34.482  
R04  20762284.070   111181092.382         862.113          28.896  
R05  21697451.867   115985350.607        4308.752          35.068  
R11  21792260.632                        1571.665          25.928  
> 2022  9 17  6 17 31.9998057  0 22
C13  40892922.819   212940233.287        -504.025          25.855  
C14  24780656.608   129039390.218       -1492.834          27.135  
C28  22949559.650   119504376.914       -1286.302          33.985  
C30  24582488.397   128007448.2511       3157.143          25.681  
C33  23678835.383                         -90.532          19.533  
C36  25242595.715   131444714.351         450.182          25.170  
E07                                                                  27049526.103   142146232.170        3038.800          30.202    27049538.394   106148194.5641       2269.223          29.029  
E08                                                                  26934197.143   141540165.362         983.334          35.154    26934197.743   105695574.795         734.324          24.320  
E13                                                                  26045045.990   136867632.265       -1645.221          32.325    26045061.579   102206401.9281      -1228.409          22.741  
E26                                                                  23854800.066   125357779.284         235.557          27.837    23854800.965    93611372.0041        175.924          24.100  
E31                                                                  25488288.825   133941875.051        1388.817          34.549    25488291.823   100021527.169        1037.011          30.882  
G08  20556534.108   108025287.916        1687.470          33.887    20556532.609    80668248.966        1260.176          31.097  
G10  21233948.144   111585170.730        -357.236          25.242    21233963.433    83326627.410        -266.671          36.591  
G21  21733781.916                        2278.975          24.559  
G23  22832401.657                       -2180.958          22.977  
G26  25436526.659                       -3113.131          20.190    25436521.263                       -2323.839          20.955  
G27  20434346.496   107383217.141        -781.859          36.125    20434346.196                        -583.944          21.547  
G32  24618497.369   129371067.1881       3365.534          26.186    24618493.172    96608242.539        2513.204          30.496  
R03  23144326.716   123893354.124       -2515.662          34.647  
R04  20762205.224   111180713.159         860.835          28.883  
R05  21696743.157   115981523.491        4307.885          35.759  
R11  21792041.484   116450053.5961       1570.895          26.738  
> 2022  9 17  6 17 32.9998061  0 22
C13  40893140.168   212941361.056        -503.330          25.798  
C14  24781061.628   129041507.680       -1493.023          27.142  
C28  22949927.496   119506287.658       -1286.304          33.577  
C30  24582005.732   128004914.874        3157.816          25.802  
C33  23678970.890                         -90.016          18.684  
C36  25242628.992   131444888.394         450.397          25.790  
E07                                                                  27049067.720   142143823.482        3038.856          30.371    27049080.611   106146395.865        2269.279          28.790  
E08                                                                  26934129.690   141539812.393         983.137          35.611    26934131.489   105695311.313         734.062          24.261  
E13                                                                  26045479.790   136869907.427       -1644.994          32.375    26045493.880                       -1228.375          23.133  
E26                                                                  23854873.815   125358173.825         235.627          28.125    23854876.812    93611666.695         175.890          24.926  
E31                                                                  25488145.824   133941116.612        1388.607          35.254    25488147.023   100020960.816        1036.934          30.782  
G08  20556334.146   108024230.813        1687.271          34.530    20556332.947    80667459.503        1260.043          31.556  
G10  21234129.518                        -358.319          24.210    21234151.103    83327364.912        -266.922          36.683  
G21  21733466.834                        2275.853          26.046  
G23  22832937.386                       -2176.473          22.871  
G26  25437242.863                       -3107.176          20.830    25437231.471                       -2325.599          20.512  
G27  20434618.708   107384629.421        -782.112          36.133    20434611.513                        -583.233          19.713  
G32  24617976.629   129368331.661        3365.695          27.777    24617972.732    96606199.804        2513.315          30.692  
R03  23144903.517   123896512.100       -2516.051          34.282  
R04  20762143.167   111180495.050         860.260          28.366  
R05  21696058.431   115977856.820        4307.696          36.128  
R11  21791864.606                        1570.069          27.583  
> 2022  9 17  6 17 33.9998064  0 22
C13  40893324.840   212942333.058        -503.672          25.971  
C14  24781440.266   129043469.427       -1493.418          27.214  
C28  22950260.565   119508042.424       -1286.437          33.695  
C30  24581489.189   128002225.953        3157.251          27.374  
C33  23679076.716                         -91.269          19.705  
C36  25242631.390   131444907.379         449.344          26.117  
E07                                                                  27048576.660   142141257.478        3038.630          29.840    27048591.050   106144479.653        2269.146          28.544  
E08                                                                  26934033.457   141539302.356         982.663          35.184    26934032.857                         733.475          23.056  
E13                                                                  26045882.711   136872025.065       -1645.012          32.147    26045895.602   102209682.3771      -1228.499          23.095  
E26                                                                  23854917.884   125358411.109         235.342          27.595    23854921.482    93611843.785         175.845          24.355  
E31                                                                  25487971.644   133940201.097        1388.142          35.460    25487973.143   100020277.125        1036.625          31.074  
G08  20556097.910   108023016.591        1686.848          33.896    20556101.207    80666552.804        1259.635          31.194  
G10  21234297.402   111586989.5291       -357.941          25.326    21234308.794    83327985.206        -267.358          36.681  
G21  21733128.668   114208435.7331       2275.785          25.708  
G23  22833429.646                       -2176.305          21.946  
G26  25437927.589                       -3111.937          20.538    25437917.096                       -2327.743          18.727  
G27  20434856.743   107385884.600        -782.553          36.201    20434851.946                        -575.704          17.801  
G32  24617428.009   129365438.864        3365.423          27.553    24617421.414    96604039.569        2513.170          30.554  
R03  23145460.231   123899510.131       -2516.587          34.126  
R04  20762090.404   111180117.375         859.287          28.307  
R05  21695335.332   115974030.327        4307.262          36.218  
R11  21791668.242   116448035.1691       1569.451          27.158  
> 2022  9 17  6 17 34.9998068  0 22
C13  40893541.590   212943461.163        -503.666          26.635  
C14  24781845.286   129045587.730       -1493.864          27.142  
C28  22950629.610   119509953.562       -1286.698          34.057  
C30  24581003.226   127999693.212        3157.180          27.896  
C33  23679216.719                         -93.664          22.899  
C36  25242665.866   131445082.997         448.821          25.661  
E07                                                                  27048119.477   142138849.117        3038.529          29.772    27048132.368   106142681.265        2268.968          28.821  
E08                                                                  26933966.303   141538950.301         982.223          35.660    26933968.402   105694667.4861        733.473          24.700  
E13                                                                  26046313.812   136874300.281       -1645.048          31.642    26046327.603                       -1228.972          23.460  
E26                                                                  23854991.933   125358806.005         235.272          28.880    23854997.629                         175.187          22.640  
E31                                                                  25487826.845   133939443.622        1387.643          34.404    25487830.442   100019711.478        1036.227          31.239  
G08  20555898.248   108021960.316        1686.443          33.101    20555900.047    80665764.067        1259.316          31.134  
G10  21234486.871   111587978.275        -358.578          26.632    21234498.263    83328723.606        -267.820          36.754  
G21  21732814.186   114206790.579        2275.322          25.368  
G23  22833975.268                       -2177.553          21.524  
G26  25438638.397                       -3112.727          20.544    25438627.305                       -2323.334          19.755  
G27  20435125.357   107387297.752        -782.984          36.485    20435124.758                        -581.388          19.288  
G32  24616903.073   129362703.701        3365.332          27.071    24616902.473    96601997.054        2513.095          29.806  
R03  23146047.525   123902669.230       -2517.174          34.029  
R04  20762055.328   111179901.151         858.375          28.169  
R05  21694652.704   115970364.540        4306.812          36.021  
R11  21791497.660                        1567.430          25.970  
> 2022  9 17  6 17 35.9998071  0 22
C13  40893734.956   212944433.162        -503.669          25.611  
C14  24782224.523   129047550.424       -1494.365          27.994  
C28  22950964.778   119511708.811       -1286.920          33.312  
C30  24580485.184   127997004.373        3157.168          27.689  
C33  23679328.842                         -92.908          21.687  
C36  25242669.763   131445103.051         448.276          26.374  
E07                                                                  27047632.614   142136283.485        3038.258          29.164    27047644.006                        2268.640          29.054  
E08                                                                  26933870.370   141538441.203         981.724          36.344    26933869.770   105694287.303         733.118          24.732  
E13                                                                  26046717.633   136876418.039       -1645.132          31.384    26046733.222   102212962.8551      -1228.493          23.616  
E26                                                                  23855039.600   125359043.673         234.959          29.204    23855041.998    93612316.2471        175.457          22.882  
E31                                                                  25487651.466   133938529.064        1387.184          34.260    25487654.764   100019028.529        1035.884          31.252  
G08  20555667.408   108020746.863        1686.078          32.906    20555670.405    80664857.916        1259.086          31.070  
G10  21234652.656   111588810.124        -359.223          28.696    21234656.553    83329344.832        -268.292          36.620  
G21  21732476.919   114204988.081        2275.124          24.564  
G23  22834478.919                       -2181.305          20.608  
G26  25439323.723                       -3120.917          19.570    25439307.534                       -2324.615          18.944  
G27  20435361.893   107388553.830        -783.453          36.581  
G32  24616352.354   129359811.176        3365.150          27.811    24616351.754    96599837.046        2512.943          30.091  
R03  23146619.829   123905668.437       -2517.763          34.430  
R04  20761975.883   111179525.372         857.391          28.895  
R05  21693929.905   115966538.950        4306.359          35.769  
R11  21791283.308                        1567.123          24.730  
> 2022  9 17  6 17 36.9998075  0 22
C13  40893953.505                        -502.996          25.277  
C14  24782631.641   129049669.669       -1494.805          27.839  
C28  22951332.323   119513620.422       -1287.172          33.637  
C30  24580001.619   127994471.759        3157.054          27.435  
C33  23679462.849                         -93.719          21.376  
C36  25242700.942   131445279.824         447.665          27.627  
E07                                                                  27047172.432   142133875.650        3038.003          28.886    27047187.722   106138967.2361       2268.680          29.043  
E08                                                                  26933802.616   141538090.110         981.261          36.292    26933803.216   105694025.132         732.751          24.603  
E13                                                                  26047150.533   136878693.440       -1645.234          31.643    26047166.422                       -1228.852          23.693  
E26                                                                  23855114.548   125359439.123         234.718          29.734    23855117.246    93612611.562         175.265          23.360  
E31                                                                  25487510.564   133937772.545        1386.688          34.526    25487510.863   100018463.572        1035.537          31.162  
G08  20555466.247   108019691.531        1685.500          32.668    20555469.844    80664069.839        1258.657          31.024  
G10  21234837.028   111589799.684        -359.392          28.708    21234843.923    83330084.095        -268.683          36.604  
G21  21732164.536   114203342.924        2275.325          24.762  
G23  22835016.747                       -2179.659          20.203  
G26  25440032.132                       -3118.032          18.018    25440022.539                       -2328.989          19.415  
G27  20435633.505   107389968.014        -784.016          36.761  
G32  24615834.013   129357076.331        3365.013          27.733    24615831.914    96597794.798        2512.828          30.059  
R03  23147217.315   123908828.798       -2518.436          35.039  
R04  20761934.212   111179311.027         856.495          29.151  
R05  21693239.783   115962874.148        4305.827          35.457  
R11  21791112.727   116445094.3041       1566.819          25.475  
> 2022  9 17  6 17 37.9998078  0 22
C13  40894137.578   212946533.6791       -503.715          25.577  
C14  24783007.281   129051633.277       -1495.279          27.744  
C28  22951668.990   119515376.177       -1287.426          33.266  
C30  24579486.875   127991783.279        3156.809          26.545  
C33  23679571.973                         -91.755          20.212  
C36  25242704.839   131445300.993         447.161          27.998  
E07                                                                  27046683.471   142131310.419        3037.857          28.275    27046698.760   106137051.703        2268.468          29.180  
E08                                                                  26933706.683   141537582.043         980.693          36.349    26933706.983                         732.041          24.464  
E13                                                                  26047554.054   136880811.345       -1645.278          31.679    26047567.244   102216243.5541      -1228.579          24.219  
E26                                                                  23855158.018   125359677.295         234.454          29.555    23855164.613                         175.187          23.658  
E31                                                                  25487333.986   133936858.961        1386.210          34.109    25487336.684   100017781.393        1035.114          30.752  
G08  20555236.006   108018479.079        1685.078          32.909    20555237.805    80663164.451        1258.324          31.000  
G10  21234999.816   111590632.858        -360.548          29.648    21235002.514    83330706.255        -269.225          36.642  
G21  21731820.074   114201541.276        2274.274          24.587  
G23  22835518.300                       -2183.138          20.875  
G26  25440713.860                       -3114.544          19.311    25440702.768                       -2326.639          18.422  
G27  20435870.641   107391225.078        -784.438          37.018  
G32  24615280.596                        3364.815          27.219    24615280.296    96595635.084        2512.649          29.936  
R03  23147774.029   123911829.258       -2519.017          34.552  
R04  20761865.560   111178937.154         855.486          29.373  
R05  21692534.971   115959049.541        4305.376          35.560  
R11  21790929.853                        1565.286          24.874  
> 2022  9 17  6 17 38.9998082  0 22
C13  40894347.133   212947661.404        -503.286          24.907  
C14  24783411.102   129053753.526       -1495.809          27.914  
C28  22952032.638   119517288.444       -1287.827          33.023  
C30  24578994.316   127989250.988        3156.730          26.223  
C33  23679709.878                         -95.833          19.622  
C36  25242740.514   131445479.000         446.433          28.041  
E07                                                                  27046224.488   142128903.204        3037.382          28.210    27046240.977   106135254.042        2268.241          29.097  
E08                                                                  26933639.230   141537232.137         980.074          36.308    26933638.030                         731.424          23.715  
E13                                                                  26047986.054   136883087.035       -1645.522          31.522    26047999.245   102217942.920       -1228.786          24.352  
E26                                                                  23855234.465   125360073.321         234.142          29.697    23855238.362                         174.758          24.009  
E31                                                                  25487191.584   133936103.589        1385.540          34.396    25487193.083   100017217.318        1034.654          30.675  
G08  20555039.342   108017424.790        1684.457          33.086    20555037.244    80662377.141        1257.889          31.052  
G10  21235186.286   111591624.330        -361.304          29.641    21235190.783    83331446.670        -269.835          36.462  
G21  21731510.089   114199897.477        2273.966          25.145  
G23  22836048.632                       -2181.725          21.597  
G26  25441421.071                       -3110.875          18.927    25441413.276                       -2322.565          17.295  
G27  20436142.853   107392640.398        -785.152          37.149  
G32  24614761.655   129351449.8591       3364.489          27.029    24614760.756    96593593.214        2512.450          29.699  
R03  23148357.426   123914990.975       -2519.792          34.360  
R04  20761836.180   111178724.912         854.392          29.839  
R05  21691849.945   115955385.848        4304.717          35.534  
R11  21790752.676                        1564.690          24.580  
> 2022  9 17  6 17 39.9998086  0 22
C13  40894568.679                        -506.236          24.158  
C14  24783822.417   129055874.371       -1496.406          27.355  
C28  22952401.683   119519201.025       -1288.142          32.385  
C30  24578512.250                        3156.228          25.985  
C33  23679845.684                         -90.697          18.833  
C36  25242775.890   131445657.582         445.857          27.946  
E07                                                                  27045767.305   142126496.196        3037.176          27.634    27045784.093   106133456.621        2268.001          29.227  
E08                                                                  26933572.076   141536882.777         979.528          36.155    26933572.076   105693123.5311        731.514          24.222  
E13                                                                  26048419.554   136885362.839       -1645.636          31.657    26048434.544   102219642.363       -1228.864          24.332  
E26                                                                  23855309.413   125360469.607         233.883          29.585    23855311.811                         174.561          24.322  
E31                                                                  25487044.986   133935348.753        1385.004          34.399    25487049.183   100016653.606        1034.292          30.458  
G08  20554837.282   108016370.968        1683.990          33.164    20554836.683    80661590.159        1257.562          31.126  
G10  21235374.556   111592616.391        -361.893          29.756    21235379.952    83332187.451        -270.201          36.586  
G21  21731198.304                        2273.533          24.873  
G23  22836575.368                       -2181.181          21.861  
G26  25442149.866                       -3108.406          19.396    25442126.782                       -2326.638          18.255  
G27  20436410.268   107394056.186        -785.620          37.199  
G32  24614244.213   129348715.772        3364.256          26.366    24614240.616    96591551.552        2512.243          29.415  
R03  23148955.212   123918153.285       -2520.385          33.881  
R04  20761801.104   111178513.575         853.486          30.105  
R05  21691160.422   115951722.634        4304.239          35.254  
R11  21790566.805   116442161.9361       1563.858          26.129  
> 2022  9 17  6 17 40.9998089  0 22
C13  40894758.448                        -510.330          23.818  
C14  24784199.855                       -1497.614          26.749  
C28  22952738.650   119520957.652       -1288.298          32.370  
C30  24577996.007   127984031.3211       3156.395          25.695  
C33  23679956.307                         -91.889          17.897  
C36  25242778.588   131445680.614         445.297          28.176  
E07                                                                  27045277.144   142123931.933        3036.889          27.143    27045294.832   106131541.737        2267.818          29.253  
E08                                                                  26933477.042   141536376.351         979.051          36.215    26933476.142   105692745.371         731.095          23.804  
E13                                                                  26048822.475   136887481.169       -1645.704          31.672    26048835.367                       -1229.788          24.975  
E26                                                                  23855354.981   125360708.589         233.644          29.636    23855360.078    93613559.4701        174.523          24.352  
E31                                                                  25486874.704   133934436.831        1384.548          34.448    25486876.203   100015972.644        1033.896          30.533  
G08  20554604.643   108015160.054        1683.540          32.745    20554605.243    80660685.954        1257.140          30.615  
G10  21235532.847   111593451.585        -362.567          30.105    21235538.842    83332811.143        -270.757          36.446  
G21  21730854.443   114196453.8611       2273.281          25.089  
G23  22837078.420                       -2178.975          20.818  
G26  25442830.995                       -3115.040          19.157    25442812.707                       -2326.453          17.911  
G27  20436653.699   107395314.926        -786.114          37.310  
G32  24613698.891   129345824.329        3364.068          25.852    24613688.998    96589392.330        2512.157          29.366  
R03  23149505.931   123921155.746       -2521.017          33.952  
R04  20761740.246   111178142.741         852.447          29.734  
R05  21690444.518   115947899.637        4303.766          35.216  
R11  21790357.250   116441079.565        1562.971          25.822  
> 2022  9 17  6 17 41.9998093  0 22
C13  40894975.498   212950890.6081       -503.930          23.983  
C14  24784606.374   129059961.4991      -1497.444          27.268  
C28  22953107.694   119522870.911       -1288.819          32.188  
C30  24577511.543                        3156.244          26.017  
C33  23680083.719                        -100.022          18.430  
C36  25242813.664   131445860.570         444.484          27.964  
E07                                                                  27044819.061   142121525.597        3036.504          27.338    27044836.749   106129744.822        2267.495          29.058  
E08                                                                  26933410.788   141536028.184         978.336          36.016    26933409.589                         730.381          23.972  
E13                                                                  26049253.877   136889757.320       -1645.983          31.668    26049267.967   102222923.8951      -1228.968          25.708  
E26                                                                  23855430.229   125361105.558         233.199          29.628    23855436.525                         173.970          23.242  
E31                                                                  25486731.103   133933683.162        1383.837          34.527    25486731.403   100015409.808        1033.417          30.183  
G08  20554403.483   108014107.360        1682.862          33.029    20554405.881    80659899.880        1256.654          30.814  
G10  21235722.615   111594445.078        -363.326          30.223    21235727.712    83333553.064        -271.341          36.577  
G21  21730538.761   114194811.271        2272.758          25.330  
G23  22837623.742                       -2178.974          21.545  
G26  25443534.608                       -3116.584          20.336    25443522.916                       -2324.394          19.154  
G27  20436923.212   107396731.911        -786.817          37.480  
G32  24613176.053   129343090.819        3363.678          25.228    24613167.359    96587350.988        2511.921          28.838  
R03  23150105.515   123924319.588       -2521.917          33.693  
R04  20761698.275   111177933.548         851.343          29.683  
R05  21689765.488   115944237.555        4303.106          35.110  
R11  21790192.064                        1558.698          24.829  
> 2022  9 17  6 17 42.9998096  0 22
C13  40895158.971   212951862.403        -503.465          24.454  
C14  24784983.813   129061927.475       -1497.646          27.237  
C28  22953449.757   119524627.819       -1288.579          32.130  
C30  24576994.101   127978811.4371       3156.434          26.014  
C33  23680193.743                         -99.535          19.231  
C36  25242820.559   131445884.488         444.411          27.507  
E07                                                                  27044332.198   142118961.511        3036.712          27.039    27044350.786   106127830.035        2267.722          28.785  
E08                                                                  26933313.355   141535522.536         978.274          36.044    26933313.055   105692107.7771        730.502          23.856  
E13                                                                  26049657.697   136891875.608       -1645.662          31.666    26049673.886   102224505.811       -1228.981          24.474  
E26                                                                  23855474.299   125361344.814         233.371          29.816    23855482.093                         174.130          23.121  
E31                                                                  25486557.823   133932772.029        1383.759          34.673    25486558.723   100014729.418        1033.324          29.990  
G08  20554174.741   108012897.236        1682.750          32.759    20554175.940    80658996.242        1256.573          31.092  
G10  21235886.602   111595281.218        -363.513          30.393    21235886.901    83334177.464        -271.465          36.437  
G21  21730200.895   114193010.574        2273.323          26.160  
G23  22838124.995                       -2188.051          19.933  
G26  25444224.730                       -3114.769          19.910    25444203.444                       -2321.194          19.390  
G27  20437164.545   107397991.370        -786.833          37.395  
G32  24612619.938   129340199.409        3364.036          24.913    24612617.839    96585191.884        2512.040          29.218  
R03  23150657.733   123927323.102       -2522.071          33.005  
R04  20761615.832   111177564.404         850.756          29.434  
R05  21689048.084   115940415.262        4303.063          35.219  
R11  21789988.805                        1559.138          23.353  
> 2022  9 17  6 17 43.9998100  0 22
C13  40895370.924                        -503.223          24.235  
C14  24785392.730   129064049.578       -1497.664          27.032  
C28  22953812.206   119526540.907       -1288.649          31.674  
C30  24576511.135   127976279.211        3156.665          24.916  
C33  23680348.736                         -93.413          18.239  
C36  25242856.234   131446064.867         444.061          27.879  
E07                                                                  27043875.015   142116554.954        3036.726          27.062    27043891.503   106126033.013        2267.602          28.749  
E08                                                                  26933246.202   141535174.685         978.019          35.861    26933250.399                         729.677          24.679  
E13                                                                  26050089.998   136894151.188       -1645.412          31.252    26050103.189   102226205.124       -1228.734          25.251  
E26                                                                  23855549.547   125361741.625         233.356          29.845    23855554.943                         173.574          22.337  
E31                                                                  25486414.223   133932018.659        1383.538          34.260    25486416.321   100014166.898        1033.100          29.319  
G08  20553972.381   108011844.789        1682.616          32.492    20553975.379    80658210.292        1256.530          30.658  
G10  21236073.073   111596275.363        -363.977          30.748    21236076.070    83334919.823        -271.779          36.179  
G21  21729886.413                        2272.109          25.553  
G23  22838655.328                       -2189.215          19.937  
G26  25444928.942                       -3110.176          19.559    25444916.951                       -2322.379          17.247  
G27  20437433.459   107399408.669        -787.131          37.525  
G32  24612101.297                        3364.154          25.031    24612097.100    96583150.337        2512.127          28.902  
R03  23151247.125   123930487.416       -2522.388          33.623  
R04  20761580.757   111177356.451         850.104          29.608  
R05  21688368.755   115936753.515        4302.772          35.680  
R11  21789808.030                        1562.158          24.561  
> 2022  9 17  6 17 44.9998103  0 22
C13  40895562.791                        -504.818          24.019  
C14  24785769.869   129066016.278       -1498.370          27.075  
C28  22954146.475   119528298.309       -1289.073          31.215  
C30  24575987.998                        3154.676          24.499  
C33  23680458.460                         -93.427          20.038  
C36  25242861.631   131446089.942         443.254          27.896  
E07                                                                  27043386.353   142113991.248        3036.332          26.028    27043403.741   106124118.559        2267.390          28.038  
E08                                                                  26933151.467   141534669.973         977.338          36.380    26933151.467   105691471.0861        729.889          24.140  
E13                                                                  26050493.219   136896269.555       -1645.741          31.223    26050508.508   102227786.910       -1228.850          24.863  
E26                                                                  23855596.314   125361981.329         232.922          29.690    23855601.711    93614509.8891        174.020          23.970  
E31                                                                  25486242.442   133931108.448        1382.837          35.086    25486242.741   100013487.130        1032.704          30.368  
G08  20553745.738   108010635.453        1681.962          32.936    20553746.038    80657307.233        1255.995          30.324  
G10  21236232.862   111597112.632        -364.644          30.683    21236235.560    83335545.106        -272.348          36.469  
G21  21729547.947   114189568.7921       2272.348          26.196  
G23  22839168.273                       -2183.504          22.074  
G26  25445615.767                       -3106.967          19.315    25445603.475                       -2319.596          17.814  
G27  20437671.195   107400669.073        -787.778          37.268  
G32  24611546.681                        3365.131          23.433    24611547.880    96580991.446        2511.826          29.481  
R03  23151808.936   123933492.073       -2523.214          33.963  
R04  20761517.201   111176989.125         848.938          29.276  
R05  21687642.657   115932932.169        4302.114          35.635  
R11  21789620.060                        1561.774          24.668  
> 2022  9 17  6 17 45.9998107  0 22
C13  40895776.543                        -500.699          23.224  
C14  24786176.087   129068139.825       -1499.108          27.988  
C28  22954515.220   119530212.262       -1289.514          30.830  
C30  24575504.432                        3153.723          25.903  
C33  23680594.865                         -97.307          20.811  
C36  25242894.308   131446271.771         442.610          27.307  
E07                                                                  27042927.371   142111585.640        3035.776          26.954    27042946.558   106122322.095        2267.043          27.813  
E08                                                                  26933084.614   141534323.515         976.626          36.330    26933086.412                         729.496          23.994  
E13                                                                  26050925.520   136898545.740       -1646.017          31.134    26050940.809   102229486.408       -1228.918          23.257  
E26                                                                  23855672.761   125362378.900         232.597          29.536    23855674.860                         175.316          23.226  
E31                                                                  25486099.141   133930356.575        1382.041          34.286    25486099.740   100012925.635        1032.075          30.672  
G08  20553537.982   108009584.287        1681.334          31.784    20553546.376    80656522.285        1255.527          29.145  
G10  21236423.230   111598108.500        -365.700          30.990    21236425.628    83336288.769        -273.082          35.702  
G21  21729231.066                        2271.187          23.141  
G23  22839698.606                       -2181.165          23.108  
G26  25446325.675                       -3118.033          19.379    25446315.482                       -2319.897          18.436  
G27  20437943.106   107402087.747        -788.506          36.626    20437941.907    80202840.0061       -588.694          23.932  
G32  24611032.837                        3361.697          23.482    24611026.241    96578950.528        2511.498          29.156  
R03  23152404.924   123936658.059       -2524.060          34.168  
R04  20761479.427                         847.556          27.210  
R05  21686962.728   115929271.802        4301.393          35.000  
R11  21789428.493                        1557.569          25.390  
> 2022  9 17  6 17 46.9998110  0 22
C13  40895958.217                        -500.491          22.537  
C14  24786555.924   129070107.856       -1499.701          30.014  
C28  22954857.283   119531970.451       -1289.860          29.550  
C30  24574986.691                        3156.292          25.277  
C33  23680689.900                         -97.097          23.006  
C36  25242903.302                         441.046          26.412  
E07                                                                  27042438.110   142109022.596        3035.670          27.369    27042459.395   106120408.156        2266.874          27.735  
E08                                                                  26932988.680   141533820.112         976.029          35.012    26932991.078   105690836.4291        728.903          23.615  
E13                                                                  26051328.141   136900664.492       -1646.126          31.094    26051342.531                       -1229.213          22.893  
E26                                                                  23855721.628   125362619.323         232.204          28.718    23855718.330                         173.871          23.318  
E31                                                                  25485925.861   133929447.558        1381.643          34.059    25485926.160   100012246.883        1031.687          29.289  
G08  20553308.641   108008376.273        1680.640          31.150    20553317.934                        1255.080          27.512  
G10  21236579.122   111598947.427        -366.301          32.303    21236585.718    83336915.161        -273.457          35.060  
G21  21728888.104                        2271.186          23.446  
G23  22840205.855                       -2181.039          23.070  
G26                                                                  25446991.215                       -2328.542          17.163  
G27  20438179.643   107403349.404        -789.031          35.417    20438176.945                        -589.149          23.113  
G32  24610481.218                        3362.042          25.225    24610476.422    96576792.187        2511.276          29.997  
R03  23152972.431   123939664.252       -2524.750          34.237  
R04  20761411.074                         845.674          28.011  
R05  21686242.327   115925451.739        4300.832          34.062  
R11  21789238.124                        1556.813          24.203  
> 2022  9 17  6 17 47.9998114  0 22
C13  40896176.466                        -508.555          22.607  
C14  24786962.143   129072232.379       -1500.084          28.619  
C28  22955223.330   119533884.987       -1290.097          30.227  
C30  24574513.918                        3152.973          21.746  
C33  23680830.202                         -96.845          22.853  
C36  25242938.677   131446481.8421        441.373          26.702  
E07                                                                  27041981.526   142106617.512        3035.252          28.003    27041999.513   106118612.184        2266.552          28.389  
E08                                                                  26932922.726   141533474.749         975.531          35.563    26932928.422   105690578.586         728.423          26.241  
E13                                                                  26051761.041   136902940.954       -1646.294          29.773    26051774.832                       -1229.629          23.977  
E26                                                                  23855795.676   125363017.536         231.955          29.177    23855795.377    93615283.5861        173.257          20.463  
E31                                                                  25485781.361   133928696.664        1381.062          32.284    25485782.860   100011686.064        1031.399          27.853  
G08  20553111.677   108007326.123        1680.318          31.617    20553114.075    80654835.9671       1254.778          27.412  
G10  21236770.390   111599944.474        -366.879          31.880    21236773.088    83337659.788        -274.047          34.216  
G21  21728576.919                        2270.442          25.739  
G23  22840738.286                       -2186.308          22.523  
G26  25447726.605                       -3110.231          18.793  
G27  20438448.556   107404769.215        -789.643          36.718    20438452.754    80204842.2011       -589.527          23.482  
G32  24609957.181                        3360.315          21.734    24609955.982    96574751.458        2511.309          29.037  
R03  23153566.619   123942831.433       -2525.256          33.995  
R04  20761363.407   111176214.6831        845.893          29.347  
R05  21685566.295   115921792.358        4300.406          35.520  
R11  21789079.234                        1555.942          23.849  
> 2022  9 17  6 17 48.9998118  0 23
C13  40896398.612                        -504.317          23.320  
C14  24787366.263   129074357.419       -1500.600          27.942  
C27  21712054.457                        1201.716          16.245  
C28  22955591.475   119535799.783       -1290.357          30.858  
C30  24574012.965                        3155.283          20.950  
C33  23680977.700                         -99.680          21.467  
C36  25242976.751   131446665.456         440.826          26.690  
E07                                                                  27041525.242   142104212.582        3035.098          27.980    27041543.529   106116816.335        2266.429          27.982  
E08                                                                  26932856.172   141533129.905         975.012          35.487    26932859.170                         728.442          24.036  
E13                                                                  26052193.042   136905217.507       -1646.385          30.353    26052210.730   102234467.8991      -1229.373          25.058  
E26                                                                  23855870.924   125363416.017         231.686          29.098    23855872.723                         169.753          19.750  
E31                                                                  25485640.458   133927946.355        1380.477          32.727    25485640.158   100011125.818        1030.825          25.521  
G08  20552909.317   108006276.497        1679.794          32.216    20552914.713    80654052.074        1254.473          29.305  
G10  21236959.559   111600942.259        -367.616          31.217    21236964.056    83338404.870        -274.502          35.081  
G21  21728266.034   114182836.9001       2271.177          27.041  
G23  22841279.411                       -2183.311          22.485  
G26  25448439.812                       -3107.612          17.893  
G27  20438720.768   107406189.424        -790.041          36.906    20438716.871    80205903.070        -590.289          22.285  
G32  24609435.842                        3361.856          20.690    24609435.242    96572710.939        2511.099          29.043  
R03  23154160.808   123945999.358       -2526.000          33.920  
R04  20761328.032   111176012.196         844.637          29.049  
R05  21684873.474   115918133.525        4299.858          35.258  
R11  21788938.032                        1554.083          21.625  
> 2022  9 17  6 17 49.9998121  0 23
C13  40896581.786                        -506.229          22.233  
C14  24787746.700   129076326.957       -1501.209          27.622  
C27  21711913.555                        1202.599          15.341  
C28  22955930.240   119537558.901       -1290.789          31.555  
C30  24573495.223                        3156.973          22.636  
C33  23681083.527                        -101.337          19.271  
C36  25242979.149   131446693.798         439.987          26.003  
E07                                                                  27041038.079   142101650.631        3034.577          27.381    27041055.467   106114903.115        2266.156          28.634  
E08                                                                  26932762.037   141532628.203         974.328          35.870    26932762.936   105689946.3831        727.610          24.576  
E13                                                                  26052595.663   136907336.716       -1646.582          30.201    26052614.550   102236050.335       -1229.501          25.393  
E26                                                                  23855916.792   125363657.290         231.353          28.893    23855918.291    93615761.4641        172.757          20.628  
E31                                                                  25485468.677   133927039.102        1379.879          32.569    25485467.478                        1029.561          23.327  
G08  20552682.374   108005070.000        1679.123          32.277    20552685.072    80653151.158        1253.851          28.768  
G10  21237121.747   111601783.144        -368.260          30.839    21237123.246    83339032.829        -275.024          35.518  
G21  21727926.070   114181039.438        2270.088          26.676  
G23  22841784.562                       -2183.835          22.310  
G26  25449125.437                       -3109.874          18.881  
G27  20438959.103   107407452.797        -790.747          36.690    20438961.801                        -590.757          23.346  
G32  24608889.320                        3363.926          21.064    24608885.723    96570553.098        2510.776          29.335  
R03  23154726.516   123949007.624       -2526.822          33.604  
R04  20761253.983   111175650.029         843.779          29.339  
R05  21684168.662   115914315.014        4299.280          35.237  
R11  21788731.475                        1543.210          18.777  
> 2022  9 17  6 17 50.9998125  0 23
C13  40896803.332                        -504.059          23.350  
C14  24788152.319   129078453.066       -1501.670          28.008  
C27  21711798.735                        1201.517          19.902  
C28  22956299.884   119539474.308       -1290.968          32.389  
C30  24573010.759   127958088.0631       3155.782          25.454  
C33  23681218.134                        -105.117          18.787  
C36  25243014.824                         439.250          25.260  
E07                                                                  27040580.296   142099246.296        3034.503          27.810    27040597.384   106113107.679        2266.016          28.101  
E08                                                                  26932697.581   141532284.489         973.882          36.104    26932698.181                         726.266          22.947  
E13                                                                  26053028.863   136909613.517       -1646.634          29.788    26053045.352                       -1229.121          25.073  
E26                                                                  23855993.240   125364056.350         231.109          28.960  
E31                                                                  25485325.676   133926289.859        1379.411          32.101    25485321.479                        1029.823          21.484  
G08  20552484.511   108004021.512        1678.655          32.000    20552484.811    80652368.110        1253.628          28.789  
G10  21237310.016   111602782.278        -368.966          30.881    21237315.712    83339778.953        -275.544          35.446  
G21  21727611.887   114179399.758        2269.848          25.901  
G23  22842313.995                       -2179.472          19.045  
G26  25449832.647                       -3110.212          17.579  
G27  20439228.616   107408874.155        -791.190          36.146  
G32                                                                  24608364.384    96568513.068        2510.611          27.921  
R03  23155304.216   123952176.883       -2527.334          33.119  
R04  20761222.205   111175449.482         842.697          29.401  
R05  21683483.936   115910657.269        4298.770          35.645  
R11  21788504.532                        1538.547          16.676  
> 2022  9 17  6 17 51.9998128  0 23
C13  40896986.505                        -501.833          23.481  
C14  24788529.758   129080423.547       -1502.152          27.725  
C27  21711667.126                        1202.646          20.281  
C28  22956636.851   119541233.843       -1291.206          32.839  
C30  24572499.313   127955401.193        3155.200          26.057  
C33  23681318.265                        -106.127          17.840  
C36  25243022.319   131446908.1751        438.906          25.537  
E07                                                                  27040092.833   142096684.687        3034.235          28.240    27040108.722   106111194.770        2265.844          27.476  
E08                                                                  26932601.648   141531783.726         973.389          36.184    26932604.046   105689315.7501        727.078          21.903  
E13                                                                  26053430.585   136911732.793       -1646.650          29.566    26053449.172   102239333.2071      -1229.708          25.389  
E26                                                                  23856040.007   125364298.053         230.922          29.112    23856042.106                         177.252          19.671  
E31                                                                  25485149.998   133925383.534        1378.951          32.394    25485151.797                        1029.507          20.833  
G08  20552257.268   108002815.879        1678.259          32.022    20552256.369    80651467.812        1253.232          28.563  
G10  21237467.407   111603624.409        -369.506          30.768    21237474.302    83340407.848        -275.959          35.218  
G21  21727271.923   114177602.784        2269.600          25.720  
G23  22842818.546                       -2175.331          16.420  
G26  25450521.271                       -3109.814          16.472  
G27  20439470.849   107410138.426        -791.645          36.159    20439469.050    80208852.0521       -591.186          21.936  
G32  24607821.460                        3363.626          22.367    24607815.164    96566355.378        2510.625          27.843  
R03  23155866.028   123955186.321       -2527.994          32.688  
R04  20761161.347   111175089.198         841.897          29.477  
R05  21682761.137   115906839.673        4298.365          35.713  
R11  21788353.137                        1538.579          15.848  
> 2022  9 17  6 17 52.9998132  0 23
C13  40897202.356                        -506.544          23.358  
C14  24788936.576   129082550.161       -1502.175          27.695  
C27  21711549.307                        1202.017          18.761  
C28  22957005.896   119543149.398       -1291.115          32.487  
C30  24572013.049   127952870.179        3155.453          25.804  
C33  23681461.266                        -102.225          18.078  
C36  25243059.194                         439.246          25.217  
E07                                                                  27039638.648   142094280.500        3034.355          28.466    27039653.637   106109399.449        2265.900          28.069  
E08                                                                  26932538.991   141531440.673         973.221          35.923    26932536.893                         727.129          22.303  
E13                                                                  26053864.085   136914009.412       -1646.451          29.816    26053881.773   102241033.258       -1229.471          26.307  
E26                                                                  23856115.855   125364697.260         230.961          28.784    23856115.255                         166.725          19.151  
E31                                                                  25485011.793   133924634.906        1378.796          31.959    25485007.297                        1028.700          20.838  
G08  20552058.206   108001767.913        1678.135          31.986    20552057.307    80650685.186        1253.207          28.116  
G10  21237661.973   111604624.396        -369.819          30.577    21237664.970    83341154.559        -276.131          35.302  
G21  21726955.941                        2270.705          25.179  
G23  22843360.870                       -2179.513          16.191  
G26  25451239.873                       -3111.602          17.492  
G27  20439738.563   107411560.386        -791.792          35.862    20439739.463    80209913.771        -591.139          23.457  
G32  24607309.414                        3361.724          22.250    24607297.123    96564315.322        2510.636          27.780  
R03  23156456.619   123958356.410       -2528.164          32.825  
R04  20761113.080   111174890.135         841.213          29.879  
R05  21682086.904   115903182.490        4298.207          35.701  
R11  21788140.284                        1547.939          15.210  
> 2022  9 17  6 17 53.9998135  0 23
C13  40897391.825                        -502.947          23.591  
C14  24789318.212   129084520.302       -1501.811          27.486  
C27  21711413.501                        1199.354          17.332  
C28  22957344.661   119544908.179       -1290.452          32.963  
C30  24571498.006   127950182.270        3156.239          25.962  
C33  23681561.096                         -99.143          17.892  
C36  25243063.990   131447123.0271        439.106          25.061  
E07                                                                  27039144.590   142091718.051        3035.075          27.840    27039166.475   106107485.947        2266.438          27.358  
E08                                                                  26932442.158   141530939.601         973.698          35.889    26932441.259   105688685.4551        727.065          22.811  
E13                                                                  26054268.505   136916127.589       -1645.552          29.938    26054283.795   102242615.017       -1228.825          26.449  
E26                                                                  23856161.123   125364938.192         231.695          29.202  
E31                                                                  25484837.014   133923728.372        1379.160          31.801    25484837.014                        1024.019          19.137  
G08  20551828.865   108000561.898        1678.641          31.998    20551827.666    80649784.745        1253.376          28.108  
G10  21237822.362   111605466.556        -369.534          30.185    21237825.959    83341783.447        -275.953          35.281  
G21  21726612.379   114174166.3711       2270.077          24.605  
G23  22843867.220                       -2188.477          18.305  
G26  25451911.109                       -3116.005          18.609  
G27  20439980.496   107412824.344        -791.332          36.023    20439983.494                        -591.110          23.702  
G32  24606766.490                        3364.516          21.854    24606746.404    96562157.022        2511.234          28.821  
R03  23157016.331   123961365.742       -2527.889          32.966  
R04  20761043.529   111174530.515         841.233          30.165  
R05  21681378.794   115899364.587        4298.672          35.814  
R11  21787952.914                        1550.987          16.788  
> 2022  9 17  6 17 54.9998139  0 23
C13  40897605.277                        -504.312          24.301  
C14  24789728.328   129086647.984       -1503.243          27.925  
C27  21711325.962                        1204.594          16.383  
C28  22957712.806   119546824.306       -1291.687          32.298  
C30  24571009.644                        3155.562          25.683  
C33  23681709.194                        -102.081          15.177  
C36  25243099.066                         436.955          25.348  
E07                                                                  27038690.404   142089314.382        3033.837          28.284    27038707.492                        2264.632          27.597  
E08                                                                  26932376.804   141530597.638         972.131          35.849    26932378.302   105688430.112         725.923          24.226  
E13                                                                  26054702.905   136918404.404       -1646.646          30.191    26054716.395   102244315.209       -1229.611          26.396  
E26                                                                  23856236.971   125365337.869         230.491          29.107  
E31                                                                  25484696.412   133922980.787        1377.753          31.631    25484697.911                        1027.799          20.499  
G08  20551631.002   107999514.901        1677.165          31.919    20551628.903    80649002.809        1252.516          28.253  
G10  21238010.331   111606467.874        -371.150          30.883    21238016.027    83342531.126        -277.098          35.382  
G21  21726305.692                        2267.847          24.935  
G23  22844414.641                       -2191.632          19.497  
G26  25452619.818                       -3113.685          17.529  
G27  20440250.009   107414247.378        -792.865          36.505    20440253.007    80211920.2681       -592.057          24.268  
G32  24606245.451                        3364.306          22.453    24606227.163    96560117.162        2510.441          29.261  
R03  23157610.520   123964537.225       -2529.558          33.030  
R04  20761014.149                         837.569          29.156  
R05  21680691.969   115895708.494        4297.118          35.435  
R11  21787771.839                        1550.197          16.060  
> 2022  9 17  6 17 55.9998142  0 22
C13  40897794.446                        -505.832          23.775  
C14  24790109.664   129088621.337       -1505.024          28.196  
C27  21711177.864                        1203.672          14.339  
C28  22958049.773   119548585.904       -1293.269          31.783  
C30  24570496.399                        3153.585          25.282  
C36  25243103.263                         434.644          24.665  
E07                                                                  27038205.040   142086754.717        3032.292          27.946    27038220.629   106103779.5841       2264.361          27.663  
E08                                                                  26932280.270   141530099.948         970.315          35.533    26932282.369                         725.165          23.539  
E13                                                                  26055107.624   136920525.143       -1648.113          30.360    26055121.115   102245898.838       -1230.694          26.034  
E26                                                                  23856283.738   125365581.691         228.804          28.738  
E31                                                                  25484523.731   133922077.569        1375.844          31.383    25484525.830                        1027.937          21.626  
G08  20551398.663   107998312.245        1675.282          31.773    20551399.262    80648104.743        1251.001          27.760  
G10  21238173.119   111607313.557        -373.057          30.556    21238176.117    83343162.727        -278.666          36.045  
G21  21725965.127                        2268.034          23.769  
G23  22844928.485                       -2185.999          19.345  
G26  25453308.141                       -3112.224          17.117  
G27  20440494.040   107415514.709        -794.705          36.527    20440493.741                        -593.106          25.103  
G32  24605684.239                        3359.165          21.815    24605678.243    96557960.908        2509.188          29.987  
R03  23158176.828   123967550.222       -2531.553          32.915  
R04  20760944.897   111173978.2381        836.841          28.730  
R05  21679981.461   115891893.941        4295.321          35.660  
R11  21787669.610                        1542.410          16.553  
> 2022  9 17  6 17 56.9998146  0 21
C13  40898005.800                        -504.771          23.158  
C14  24790514.084   129090750.502       -1504.726          28.391  
C28  22958418.817   119550503.009       -1292.666          31.443  
C30  24570006.239   127942435.9481       3154.999          25.269  
C36  25243142.236                         434.315          24.562  
E07                                                                  27037745.458   142084352.060        3032.825          28.006    27037763.446   106101985.384        2264.780          28.060  
E08                                                                  26932218.213   141529759.442         970.674          35.898    26932216.415                         724.666          23.988  
E13                                                                  26055540.525   136922802.592       -1647.281          30.459    26055556.114   102247599.593       -1230.175          25.785  
E26                                                                  23856359.586   125365982.344         229.516          28.514  
E31                                                                  25484385.227   133921331.531        1376.206          31.399    25484380.730                        1027.649          22.150  
G08  20551200.200   107997266.597        1675.816          31.477    20551200.800    80647323.867        1251.456          27.832  
G10  21238363.487   111608316.636        -372.911          30.662    21238367.084    83343911.691        -278.384          36.125  
G21  21725645.549   114169095.6651       2267.613          23.379  
G23  22845442.629                       -2182.035          19.455  
G26  25454014.752                       -3114.015          16.282  
G27  20440766.552   107416939.231        -794.354          36.754    20440767.751    80213930.4321       -593.179          25.425  
G32  24605180.888                        3357.627          21.369    24605158.703    96555921.770        2509.719          30.065  
R03  23158767.419   123970723.395       -2531.248          33.204  
R04  20760920.314   111173783.468         836.921          28.864  
R05  21679292.838   115888239.269        4295.697          35.927  
R11  21787414.787                        1538.369          14.975  
> 2022  9 17  6 17 57.9998150  0 21
C13  40898223.749                        -505.462          22.757  
C14  24790922.102   129092879.669       -1504.728          27.877  
C28  22958785.464   119552419.985       -1292.537          31.115  
C30  24569521.774   127939905.491        3154.896          25.026  
C36  25243176.413   131447719.9311        435.699          24.366  
E07                                                                  27037290.074   142081949.177        3033.051          28.043    27037306.562                        2264.636          28.264  
E08                                                                  26932153.758   141529419.040         970.570          36.097    26932152.259                         724.847          23.269  
E13                                                                  26055979.121   136925079.701       -1646.941          30.605    26055988.115                       -1230.252          25.366  
E26                                                                  23856436.633   125366382.833         229.679          28.414  
E31                                                                  25484240.128   133920585.528        1376.171          31.192    25484241.627                        1027.266          21.153  
G08  20551003.536   107996221.090        1675.676          31.613    20551000.538    80646543.174        1251.273          28.102  
G10  21238556.853   111609319.853        -373.049          30.486    21238558.352    83344660.846        -278.575          35.975  
G21  21725332.265   114167458.069        2267.765          23.095  
G23  22845983.755                       -2188.894          20.019  
G26  25454732.156                       -3110.042          16.869  
G27  20441038.164   107418363.798        -794.399          36.646    20441035.466    80214994.233        -593.221          25.552  
G32  24604658.050                        3364.577          21.312    24604639.463    96553882.475        2509.874          30.178  
R03  23159355.012   123973896.806       -2531.487          32.990  
R04  20760875.945   111173589.412         836.206          28.836  
R05  21678605.414   115884584.641        4295.654          35.747  
R11  21787225.917                        1545.598          17.391  
> 2022  9 17  6 17 58.9998153  0 20
C13  40898409.320                        -505.227          21.939  
C14  24791303.138   129094854.023       -1506.025          28.235  
C28  22959124.229   119554181.919       -1293.604          30.790  
C30  24568999.835   127937219.991        3153.830          24.839  
C36  25243183.608                         433.170          24.507  
E07                                                                  27036802.911   142079389.836        3031.967          28.331    27036821.198   106098279.8701       2264.056          27.926  
E08                                                                  26932056.925   141528922.477         969.189          35.969    26932059.024   105687179.2091        723.667          23.462  
E13                                                                  26056377.845   136927200.226       -1647.899          30.540    26056393.134   102250883.5501      -1230.668          25.252  
E26                                                                  23856482.801   125366626.871         228.588          28.214    23856490.295                         171.025          19.015  
E31                                                                  25484068.946   133919683.382        1374.772          31.423    25484067.447   100004955.4551       1026.505          21.664  
G08  20550774.195   107995019.380        1674.336          31.734    20550772.396                        1249.942          28.245  
G10  21238715.443   111610167.050        -374.571          30.474    21238719.640    83345293.545        -279.763          36.119  
G21  21724994.100                        2264.703          22.721  
G23  22846499.398                       -2197.091          18.920  
G26  25455413.584                       -3108.511          17.367  
G27  20441278.897   107419632.141        -795.717          36.967    20441279.796    80215941.415        -594.247          25.267  
G32  24604101.035                        3360.648          21.444    24604089.643    96551726.306        2509.104          30.652  
R03  23159922.219   123976911.161       -2532.911          32.916  
R04  20760806.393   111173236.568         834.456          29.180  
R05  21677896.405   115880771.126        4294.283          35.607  
> 2022  9 17  6 17 59.9998157  0 20
C13  40898621.274                        -502.370          22.310  
C14  24791713.254   129096984.936       -1506.473          28.115  
C28  22959492.674   119556100.255       -1293.897          30.891  
C30  24568517.169   127934690.705        3153.724          25.407  
C36  25243220.782                         431.229          24.240  
E07                                                                  27036346.926   142076988.304        3031.700          28.544    27036363.715   106096486.462        2263.988          27.666  
E08                                                                  26931993.069   141528583.939         968.706          36.091    26931992.769   105686926.357         723.432          23.867  
E13                                                                  26056811.944   136929478.386       -1647.992          30.886    26056824.236   102252584.726       -1230.595          25.658  
E26                                                                  23856558.348   125367028.742         228.297          28.361    23856561.646                         171.064          19.716  
E31                                                                  25483930.442   133918939.262        1374.289          31.398    25483928.943   100004399.729        1026.306          21.426  
G08  20550576.332   107993975.610        1673.938          31.704    20550575.732    80644866.3741       1249.965          28.064  
G10  21238904.912   111611172.424        -375.207          30.551    21238911.807    83346044.262        -280.137          36.044  
G21  21724677.819                        2267.331          22.743  
G23  22847033.028                       -2197.346          18.318  
G26  25456134.885                       -3108.624          17.249  
G27  20441551.708   107421058.583        -796.274          36.954    20441546.012    80217006.557        -594.562          24.905  
G32  24603577.298                        3357.341          21.821    24603569.203    96549687.884        2509.002          29.915  
R03  23160512.511   123980086.639       -2533.553          33.175  
R04  20760782.110   111173045.234         833.485          29.541  
R05  21677207.482   115877118.347        4293.805          35.487  
> 2022  9 17  6 18  0.9998160  0 22
C13  40898810.742                        -502.286          21.739  
C14  24792091.892   129098960.021       -1506.755          28.380  
C27  21710583.376                        1199.128          18.542  
C28  22959830.540   119557862.428       -1293.843          30.524  
C30  24567999.428                        3151.020          24.989  
C36  25243227.377   131447979.4131        433.457          23.912  
E07                                                                  27035859.164   142074429.146        3031.785          28.405    27035875.953   106094575.396        2264.001          28.043  
E08                                                                  26931899.234   141528088.080         968.485          36.382    26931899.534                         723.073          23.337  
E13                                                                  26057216.664   136931598.769       -1647.757          30.855    26057227.757   102254168.151       -1230.490          26.314  
E26                                                                  23856605.416   125367273.002         228.366          28.638  
E31                                                                  25483758.961   133918037.890        1373.998          30.950    25483755.663                        1017.144          19.525  
G08  20550349.389   107992774.578        1673.658          32.073    20550344.892    80643969.478        1249.831          28.431  
G10  21239066.500   111612020.562        -375.512          29.991    21239072.796    83346677.711        -280.514          35.297  
G21  21724336.055   114162233.9181       2266.738          23.469  
G23  22847547.472                       -2197.680          15.304  
G26  25456810.017                       -3115.255          15.692  
G27  20441796.039   107422327.650        -796.441          36.575    20441790.643    80217954.343        -594.851          25.556  
G32  24603044.267                        3357.485          19.874    24603021.483    96547531.853        2508.966          29.885  
R03  23161079.718   123983101.988       -2533.906          33.344  
R04  20760719.753   111172694.025         832.821          30.612  
R05  21676496.674   115873305.557        4293.558          35.947  
R11  21786693.186                        1542.557          16.271  
> 2022  9 17  6 18  1.9998164  0 22
C13  40899029.291                        -502.767          22.513  
C14  24792501.408   129101091.694       -1507.235          28.552  
C27  21710459.562                        1204.609          19.015  
C28  22960197.186   119559781.015       -1294.148          30.591  
C30  24567512.865   127929476.2741       3153.757          25.057  
C36  25243260.055                         435.415          24.322  
E07                                                                  27035402.880   142072027.823        3031.491          28.471    27035418.769   106092782.251        2263.725          28.031  
E08                                                                  26931834.179   141527750.331         967.917          36.326    26931835.678                         722.619          23.229  
E13                                                                  26057650.764   136933876.872       -1647.934          31.019    26057661.556   102255869.273       -1230.542          27.273  
E26                                                                  23856684.861   125367675.045         228.126          28.645    23856689.058                         166.627          17.960  
E31                                                                  25483615.060   133917294.461        1373.597          30.451    25483613.561                        1025.321          18.605  
G08  20550151.226   107991731.614        1673.132          32.116    20550146.130    80643190.635        1249.422          27.441  
G10  21239259.267   111613026.934        -376.204          30.458    21239264.663    83347429.184        -280.892          35.283  
G21  21724024.571                        2265.715          23.459  
G23  22848046.926                       -2193.048          16.743  
G26  25457505.236                       -3117.987          15.494  
G27  20442067.351   107423754.834        -797.017          36.669    20442063.754    80219020.062        -595.138          24.853  
G32  24602519.030                        3363.518          20.696    24602500.743    96545493.537        2508.896          29.819  
R03  23161684.699   123986278.538       -2534.625          33.212  
R04  20760678.082   111172504.367         831.808          30.907  
R05  21675802.054   115869653.530        4293.052          36.228  
R11  21786518.107                        1538.165          16.471  
> 2022  9 17  6 18  2.9998167  0 22
C13  40899219.060                        -504.671          22.830  
C14  24792881.545   129103067.594       -1507.570          28.357  
C27  21710309.965                        1197.263          19.608  
C28  22960538.350   119561543.689       -1294.345          30.244  
C30  24567000.819   127926790.315        3154.288          24.981  
C36  25243266.950                         431.691          24.220  
E07                                                                  27034918.715   142069469.154        3031.295          28.705    27034934.005   106090871.571        2263.615          27.860  
E08                                                                  26931739.745   141527255.429         967.528          36.226    26931740.944                         723.137          23.896  
E13                                                                  26058053.685   136935997.436       -1647.938          30.796    26058064.477   102257452.808       -1230.599          27.171  
E26                                                                  23856728.930   125367919.794         227.877          28.316    23856733.727                         167.889          18.731  
E31                                                                  25483444.778   133916394.053        1373.033          30.361    25483444.778                        1027.908          20.856  
G08  20549920.386   107990531.493        1672.747          31.813    20549917.688    80642294.459        1249.111          27.105  
G10  21239422.354   111613876.320        -376.760          30.610    21239425.052    83348063.483        -281.364          35.532  
G21  21723680.709   114158805.8751       2265.602          23.090  
G23  22848557.173                       -2182.544          15.564  
G26  25458187.264                       -3112.861          16.053  
G27  20442304.187   107425024.944        -797.484          37.068    20442302.688                        -596.047          25.944  
G32  24601938.033                        3365.416          19.380    24601949.425    96543337.708        2508.764          28.331  
R03  23162242.313   123989295.036       -2535.054          33.154  
R04  20760618.423   111172155.087         830.893          29.923  
R05  21675100.840   115865841.695        4292.603          35.890  
R11  21786326.540                        1534.778          15.669  
> 2022  9 17  6 18  3.9998171  0 21
C13  40899436.409                        -506.861          22.671  
C14  24793291.062   129105200.211       -1508.178          28.843  
C27  21710206.237                        1195.592          19.098  
C30  24566509.459   127924261.195        3153.559          25.276  
C36  25243297.829                         431.379          24.259  
E07                                                                  27034459.733   142067068.315        3031.007          29.176    27034478.020   106089078.715        2263.437          27.537  
E08                                                                  26931677.088   141526918.691         966.906          36.211    26931678.887                         721.337          22.538  
E13                                                                  26058487.784   136938275.637       -1648.033          30.720    26058497.677   102259154.085       -1230.698          27.389  
E26                                                                  23856805.677   125368322.391         227.571          28.387    23856810.174                         169.692          18.692  
E31                                                                  25483304.475   133915651.712        1372.509          30.315    25483301.178                        1025.562          21.229  
G08  20549723.123   107989489.477        1672.184          31.585    20549719.825    80641516.290        1248.749          26.817  
G10  21239612.422   111614883.944        -377.456          30.802    21239616.919    83348815.908        -281.845          35.661  
G21  21723367.126   114157170.906        2265.137          23.755  
G23  22849067.120                       -2182.402          13.912  
G26  25458909.164                       -3100.701          15.569  
G27  20442576.998   107426453.061        -797.949          36.834    20442576.399    80221034.9891       -595.896          25.815  
G32  24601416.694                        3358.258          17.365    24601430.484    96541299.696        2508.592          27.821  
R03  23162845.196   123992472.781       -2535.819          33.257  
R04  20760577.351   111171967.317         829.920          29.747  
R05  21674417.313   115862190.684        4292.037          35.842  
R11  21786179.941                        1542.462          16.298  
> 2022  9 17  6 18  4.9998174  0 20
C13  40899624.379                        -503.970          22.824  
C14  24793672.398   129107177.338       -1508.798          28.678  
C28  22961242.862   119565226.1391      -1295.021          30.188  
C30  24565995.315                        3150.399          24.296  
C36  25243308.921   131448436.9181        431.083          24.446  
E07                                                                  27033973.769   142064510.303        3030.638          29.367    27033989.658   106087168.494        2263.155          27.204  
E08                                                                  26931581.754   141526425.063         966.254          36.175    26931582.354   105685314.2971        721.529          23.462  
E13                                                                  26058891.305   136940396.568       -1648.305          30.906    26058901.198   102260737.885       -1230.865          27.831  
E26                                                                  23856853.644   125368567.745         227.272          28.499    23856856.942                         169.916          18.210  
E31                                                                  25483130.896   133914752.458        1371.880          30.406    25483129.996                        1026.032          21.850  
G08  20549492.582   107988290.510        1671.593          31.504    20549491.683    80640621.016        1248.209          26.242  
G10  21239772.811   111615734.818        -378.248          30.902    21239779.407    83349451.283        -282.440          35.406  
G21  21723031.059                        2264.111          23.157  
G26  25459618.473                       -3107.082          15.889  
G27  20442816.233   107427724.289        -798.602          36.558    20442816.533    80221984.311        -596.386          25.873  
G32                                                                  24600881.564    96539144.308        2508.323          27.262  
R03  23163392.017   123995490.803       -2536.579          33.146  
R04  20760510.198   111171620.086         828.843          29.848  
R05  21673699.610   115858380.020        4291.433          35.479  
R11  21785893.040                        1533.197          17.169  
> 2022  9 17  6 18  5.9998178  0 21
C13  40899837.532                        -505.978          22.916  
C14  24794081.015   129109310.969       -1509.192          28.574  
C27  21709958.309                        1200.238          19.407  
C28  22961610.408   119567145.858       -1295.280          30.111  
C30  24565509.951                        3155.397          24.296  
C36  25243346.695   131448630.929         430.428          23.421  
E07                                                                  27033517.785   142062110.018        3030.452          29.420    27033536.372   106085376.194        2262.880          26.710  
E08                                                                  26931516.699   141526089.465         965.766          36.056    26931517.598   105685063.568         721.309          22.917  
E13                                                                  26059324.205   136942675.042       -1648.306          31.636    26059334.698   102262439.400       -1230.935          27.702  
E26                                                                  23856928.292   125368970.938         226.975          28.648  
E31                                                                  25482990.593   133914011.247        1371.379          30.296    25482988.794                        1021.179          21.897  
G08  20549293.220   107987249.506        1671.172          31.027    20549294.120    80639843.587        1248.009          27.336  
G10  21239968.276   111616743.812        -378.826          30.102    21239970.374    83350204.795        -282.932          35.525  
G21  21722715.377                        2265.503          22.529  
G26  25460342.172                       -3117.748          15.794  
G27  20443089.044   107429153.604        -799.147          36.274    20443090.843                        -596.788          25.634  
G32  24600331.745                        3353.679          11.826    24600362.324    96537106.614        2508.274          27.115  
R03  23163994.900   123998669.942       -2537.213          33.384  
R04  20760489.812   111171434.464         827.772          30.565  
R05  21673016.683   115854730.090        4290.955          35.965  
R11  21785798.605                        1523.465          16.494  
> 2022  9 17  6 18  6.9998181  0 20
C13  40900026.701                        -505.212          22.905  
C14  24794461.152   129111288.864       -1509.566          28.652  
C27  21709812.609                        1194.541          19.110  
C28  22961947.974   119568909.553       -1295.366          29.899  
C30  24564994.908                        3153.175          25.186  
C36  25243349.693                         428.547          23.345  
E07                                                                  27033030.323   142059552.326        3030.319          29.256    27033046.212   106083466.269        2262.861          26.231  
E08                                                                  26931424.063   141525596.636         965.455          36.056    26931424.663   105684695.571         720.932          23.490  
E13                                                                  26059728.925   136944795.954       -1648.286          32.021    26059737.919   102264023.162       -1230.827          28.016  
E26                                                                  23856975.060   125369216.572         226.992          28.511  
E31                                                                  25482819.711   133913112.869        1371.005          30.337    25482820.311                        1021.906          21.945  
G08  20549063.280   107986051.283        1670.850          30.823    20549065.078    80638948.840        1247.682          27.419  
G10  21240126.866   111617595.759        -379.321          29.907    21240133.162    83350841.005        -283.275          35.379  
G26  25460987.625                       -3119.067          15.397  
G27  20443331.276   107430425.627        -799.397          35.934    20443330.976    80224001.5961       -597.070          25.799  
G32                                                                  24599812.204    96534951.395        2508.154          26.977  
R03  23164559.409   124001688.956       -2537.570          33.498  
R04  20760417.262   111171089.010         827.066          30.319  
R05  21672308.273   115850920.215        4290.644          36.254  
R11  21785625.026                        1531.447          17.452  
> 2022  9 17  6 18  7.9998185  0 20
C13  40900241.652                        -504.785          23.039  
C14  24794871.568   129113423.269       -1509.966          28.816  
C28  22962317.319   119570829.573       -1295.581          29.716  
C30  24564509.844   127913834.0511       3153.272          25.099  
C36  25243392.563                         428.010          23.525  
E07                                                                  27032575.837   142057152.334        3030.159          29.335    27032591.127                        2262.849          25.786  
E08                                                                  26931360.507   141525261.824         964.980          36.344    26931361.406   105684445.550         720.600          23.056  
E13                                                                  26060163.324   136947074.459       -1648.336          32.036    26060172.018   102265724.631       -1230.889          27.900  
E26                                                                  23857051.507   125369620.021         226.719          28.612    23857057.803                         168.175          18.897  
E31                                                                  25482679.108   133912372.408        1370.629          30.550    25482677.010                        1021.680          21.855  
G08  20548864.517   107985010.976        1670.474          30.682    20548867.815    80638171.983        1247.437          27.209  
G10  21240321.132   111618605.848        -379.921          29.806    21240325.329    83351595.230        -283.645          35.588  
G21  21722062.129                        2263.933          23.723  
G26  25461710.724                       -3104.098          14.602  
G27  20443602.289   107431855.708        -799.913          35.611    20443602.588    80225069.424        -597.249          25.330  
G32                                                                  24599291.765                        2507.890          27.072  
R03  23165150.300   124004869.086       -2538.206          33.554  
R04  20760381.887   111170905.049         826.111          28.995  
R05  21671625.346   115847271.053        4290.187          36.144  
R11  21785406.177                        1539.159          15.763  
> 2022  9 17  6 18  8.9998189  0 20
C13  40900457.203                        -504.009          22.507  
C14  24795281.084   129115558.242       -1510.534          29.154  
C27  21709593.461                        1197.325          19.177  
C28  22962686.363   119572749.920       -1295.908          29.011  
C30  24564024.780   127911304.906        3153.584          24.883  
C36  25243431.536                         430.321          23.530  
E07                                                                  27032117.454   142054752.690        3029.812          29.520    27032132.444                        2262.217          25.476  
E08                                                                  26931298.150   141524927.558         964.434          36.699    26931297.251   105684195.998         720.132          23.285  
E13                                                                  26060596.225   136949353.019       -1648.393          32.292    26060605.218   102267426.153       -1230.942          27.663  
E26                                                                  23857126.755   125370023.784         226.405          27.806    23857137.547                         166.248          18.140  
E31                                                                  25482537.906   133911632.587        1369.989          30.730    25482535.808                        1023.687          22.176  
G08  20548667.853   107983971.257        1669.887          30.324    20548669.652    80637395.532        1247.031          27.232  
G10  21240510.301   111619616.597        -380.581          29.690    21240518.095    83352350.024        -284.213          35.568  
G21  21721756.641   114148685.9571       2263.568          23.534  
G27  20443870.603   107433286.319        -800.443          35.549    20443875.400    80226137.797        -597.792          25.373  
G32                                                                  24598774.023    96530876.6141       2507.839          27.906  
R03  23165749.885   124008049.819       -2538.807          33.405  
R04  20760351.907   111170722.042         825.158          28.199  
R05  21670944.517   115843622.430        4289.648          36.364  
R11  21785245.488                        1543.623          11.479  
> 2022  9 17  6 18  9.9998192  0 22
C13  40900651.168                        -505.532          22.017  
C14  24795663.020   129117537.513       -1510.941          29.143  
C27  21709454.058                        1203.730          16.985  
C28  22963028.126   119574514.361       -1296.112          28.558  
C30  24563512.134                        3152.927          24.458  
C36  25243432.735                         430.096          23.650  
E07                                                                  27031632.390   142052195.675        3029.642          29.791    27031645.881   106077972.5361       2262.407          25.812  
E08                                                                  26931204.315   141524436.265         963.918          36.455    26931202.816                         719.411          23.143  
E13                                                                  26060999.146   136951474.188       -1648.543          32.415    26061008.139                       -1230.807          27.514  
E26                                                                  23857173.522   125370270.223         226.187          28.032    23857182.216                         168.543          19.457  
E31                                                                  25482366.725   133910735.675        1369.538          30.091    25482364.026    99998273.7341       1022.627          21.653  
G08  20548439.711   107982774.418        1669.465          30.429    20548441.510    80636501.815        1246.652          27.172  
G10  21240675.187   111620470.464        -381.241          29.615    21240679.683    83352987.607        -284.648          35.348  
G21  21721412.179                        2262.603          23.654  
G23  22852231.130                       -2192.124          13.220  
G26  25463051.097                       -3102.098          15.275  
G27  20444112.535   107434559.882        -800.937          35.139    20444118.531    80227088.612        -597.880          25.709  
G32                                                                  24598224.204    96528721.691        2507.858          28.537  
R03  23166314.094   124011070.756       -2539.493          33.403  
R04  20760274.561   111170379.558         824.096          28.217  
R05  21670236.408   115839814.042        4289.157          36.728  
R11  21785084.200                        1541.982          12.528  
> 2022  9 17  6 18 10.9998196  0 20
C13  40900861.922                        -502.105          21.511  
C14  24796075.834   129119673.445       -1511.493          29.452  
C27  21709340.137                        1200.345          17.242  
C28  22963395.372   119576435.311       -1296.510          28.331  
C30  24563021.374   127906092.2851       3152.907          24.059  
C36  25243472.907                         427.410          23.776  
E07                                                                  27031176.706   142049796.586        3029.256          29.870    27031189.597   106076180.955        2262.161          26.346  
E08                                                                  26931140.759   141524103.148         963.286          36.565    26931140.759                         718.974          22.864  
E13                                                                  26061433.545   136953753.082       -1648.726          32.720    26061443.438   102270711.9081      -1231.221          27.728  
E26                                                                  23857249.070                         225.601          27.880    23857257.764                         168.536          19.326  
E31                                                                  25482226.722   133909996.951        1368.892          29.916    25482224.923                        1021.621          20.428  
G08  20548242.148   107981735.659        1668.927          30.282    20548244.546    80635726.118        1246.277          27.587  
G10  21240867.653   111621482.530        -381.898          29.629    21240872.450    83353743.367        -285.181          35.551  
G21  21721110.288   114145262.9741       2262.726          24.035  
G23  22852763.561                       -2190.955          13.338  
G27  20444385.946   107435991.622        -801.572          34.934    20444392.841    80228157.922        -598.730          26.166  
G32                                                                  24597707.062    96526684.679        2507.592          28.438  
R03  23166909.482   124014252.893       -2540.213          33.188  
R04  20760251.177   111170198.556         823.152          28.282  
R05  21669547.784   115836166.535        4288.532          36.535  
> 2022  9 17  6 18 11.9998199  0 20
C13  40901041.798                        -503.841          20.926  
C14  24796452.673   129121654.149       -1512.374          29.596  
C27  21709206.429                        1194.207          18.131  
C28  22963729.341                       -1297.965          27.659  
C30  24562509.628   127903408.429        3152.185          24.155  
C36  25243481.901   131449337.8291        426.754          23.846  
E07                                                                  27030690.742   142047240.540        3028.672          29.800    27030702.134                        2261.071          25.880  
E08                                                                  26931048.723   141523613.323         962.451          36.721    26931046.325                         718.013          22.597  
E13                                                                  26061837.066   136955874.849       -1649.141          32.614    26061846.659   102272296.363       -1231.520          27.748  
E26                                                                  23857296.437   125370921.9141        225.268          27.918    23857305.431                         164.871          18.859  
E31                                                                  25482057.039   133909101.483        1368.093          30.356    25482054.341                        1021.284          21.648  
G08  20548014.905   107980540.260        1668.025          30.368    20548017.304    80634833.464        1245.590          27.823  
G10  21241031.640   111622338.123        -382.967          29.766    21241036.137    83354382.289        -285.986          35.703  
G21  21720769.124   114143473.426        2262.174          24.708  
G23  22853270.810                       -2196.006          13.373  
G27  20444631.176   107437266.651        -802.403          35.010    20444632.975    80229109.922        -599.065          26.339  
G32                                                                  24597157.242    96524530.524        2507.090          28.628  
R03  23167476.090   124017275.569       -2541.232          33.338  
R04  20760188.820   111169858.460         821.709          27.945  
R05  21668837.576   115832359.622        4287.682          36.483  
> 2022  9 17  6 18 12.9998203  0 21
C13  40901259.147                        -507.576          20.467  
C14  24796865.487   129123791.922       -1513.334          29.409  
C27  21709106.598                        1191.269          17.708  
C28  22964099.585   119580123.0731      -1297.875          27.553  
C30  24562031.759                        3150.407          24.768  
C36  25243521.474                         424.664          23.540  
E07                                                                  27030234.458   142044842.821        3027.887          29.937    27030246.450                        2260.409          25.254  
E08                                                                  26930982.769   141523282.145         961.345          36.820    26930984.567   105682967.2271        717.965          22.868  
E13                                                                  26062269.966   136958154.821       -1649.803          32.767    26062281.058   102273998.923       -1231.980          27.703  
E26                                                                  23857372.585   125371327.668         224.413          27.524    23857380.679                         166.211          19.276  
E31                                                                  25481915.837   133908364.672        1366.980          30.129    25481917.036    99996503.2391       1020.669          21.678  
G08  20547814.644   107979503.380        1667.048          30.493    20547819.141    80634059.151        1244.893          27.255  
G10  21241228.004   111623352.442        -384.151          29.855    21241227.704    83355139.758        -286.889          35.010  
G21  21720454.942   114141841.905        2261.689          25.377  
G23  22853801.742                       -2199.341          13.323  
G27  20444901.589   107438700.285        -803.466          34.923    20444905.486                        -599.732          25.523  
G32  24596615.517                        3357.021          14.602    24596637.702    96522494.551        2506.552          27.850  
R03  23168062.784   124020459.899       -2542.405          33.541  
R04  20760144.451   111169680.346         820.264          28.107  
R05  21668152.850   115828714.034        4286.612          36.486  
R11  21784518.791                        1540.123          12.726  
> 2022  9 17  6 18 13.9998206  0 20
C13  40901449.816                        -505.812          20.910  
C14  24797244.725   129125774.398       -1514.147          29.203  
C27  21708965.696                        1189.137          17.863  
C28  22964438.650   119581889.849       -1298.446          27.491  
C30  24561509.821                        3152.042          24.133  
C36  25243530.468                         420.914          22.696  
E07                                                                  27029747.295   142042288.045        3027.402          29.796    27029760.786                        2260.360          24.587  
E08                                                                  26930892.531   141522794.125         960.647          36.929    26930891.931                         717.038          23.680  
E13                                                                  26062674.686   136960277.553       -1650.106          32.978    26062683.080   102275584.032       -1232.173          28.471  
E26                                                                  23857418.753   125371576.254         224.040          27.958    23857426.547                         167.270          20.059  
E31                                                                  25481748.253   133907470.998        1366.299          30.310    25481743.456                        1020.388          21.649  
G08  20547589.800   107978309.717        1666.288          30.155    20547592.798    80633167.839        1244.247          26.949  
G10  21241388.393   111624209.998        -384.930          29.964    21241391.391    83355780.150        -287.457          34.685  
G21  21720120.973   114140053.917        2260.614          26.604  
G27  20445145.320   107439977.077        -804.166          35.216    20445146.520                        -600.916          24.038  
G32  24596077.690                        3357.519          15.542    24596091.780    96520341.222        2506.264          27.080  
R03  23168624.595   124023484.540       -2543.197          33.644  
R04  20760076.398   111169343.008         818.950          27.857  
R05  21667448.338   115824908.898        4285.905          36.338  
R11  21784323.926                        1530.325          12.873  
> 2022  9 17  6 18 14.9998210  0 19
C13  40901657.871                        -507.603          20.961  
C14  24797659.038   129127913.529       -1514.691          29.262  
C27  21708841.282                        1188.138          19.155  
C28  22964809.493   119583813.160       -1298.872          27.464  
C30  24561019.360   127895670.9611       3151.639          25.066  
C36  25243568.241                         424.694          22.921  
E07                                                                  27029291.611   142039891.210        3027.004          29.607    27029303.902   106068784.2101       2260.364          24.492  
E08                                                                  26930829.275   141522464.348         959.945          36.884    26930826.577   105682356.5711        716.800          22.854  
E13                                                                  26063108.785   136962558.059       -1650.338          32.922    26063117.779   102277286.996       -1232.384          28.963  
E26                                                                  23857496.099   125371982.866         223.556          27.719    23857506.292                         169.932          20.232  
E31                                                                  25481605.552   133906735.628        1365.538          29.703    25481604.352                        1019.413          21.295  
G08  20547395.234   107977274.214        1665.671          30.909    20547396.433    80632394.519        1243.900          26.964  
G10  21241581.759   111625225.868        -385.702          30.537    21241586.256    83356538.779        -288.049          34.974  
G21  21719806.491   114138424.089        2259.997          26.152  
G27  20445421.729   107441412.078        -804.833          35.028    20445422.928    80232205.5541       -600.915          24.815  
G32  24595555.751                        3355.047          19.632    24595571.340    96518305.754        2506.048          27.582  
R03  23169217.584   124026670.502       -2544.037          33.208  
R04  20760055.413   111169167.259         817.899          27.579  
R05  21666756.117   115821264.687        4285.237          36.704  
> 2022  9 17  6 18 15.9998213  0 20
C13  40901850.638                        -508.634          20.069  
C14  24798039.475   129129896.245       -1514.387          29.146  
C27  21708708.474                        1194.754          19.290  
C28  22965147.959                       -1297.977          26.859  
C30  24560504.017                        3152.335          24.635  
C36  25243581.132                         425.208          23.433  
E07                                                                  27028805.647   142037336.278        3027.558          29.552    27028817.339                        2261.051          25.061  
E08                                                                  26930736.039   141521976.763         960.211          36.925    26930735.740                         716.520          22.686  
E13                                                                  26063512.006   136964680.406       -1649.722          32.632    26063521.000   102278871.851       -1231.920          28.891  
E26                                                                  23857544.066   125372231.360         224.132          27.763    23857547.663                         166.229          20.813  
E31                                                                  25481436.469   133905842.431        1365.824          29.482    25481433.171                        1020.003          20.775  
G08  20547167.692   107976080.854        1665.986          30.948    20547168.591    80631503.319        1244.135          27.093  
G10  21241745.745   111626084.125        -385.631          30.801    21241747.544    83357179.653        -287.939          34.764  
G21  21719468.925   114136636.131        2260.584          25.406  
G27  20445661.563   107442689.246        -804.542          34.967    20445666.360    80233159.336        -600.847          24.842  
G32                                                                  24595025.118                        2506.461          27.459  
R03  23169795.884   124029695.738       -2543.793          33.441  
R04  20759995.154   111168831.140         817.732          27.445  
R05  21666051.904   115817459.893        4285.563          36.835  
R11  21783927.901                        1523.506          12.200  
> 2022  9 17  6 18 16.9998217  0 19
C13  40902078.180                        -505.373          20.279  
C14  24798450.790   129132035.260       -1514.575          29.461  
C27  21708597.251                        1199.202          18.975  
C28  22965519.702   119587502.4091      -1298.244          27.186  
C30  24560022.850   127890460.5621       3151.978          25.471  
C36  25243612.311                         426.600          23.056  
E07                                                                  27028348.464   142034938.809        3027.637          29.891    27028362.854   106065085.9001       2260.897          25.034  
E08                                                                  26930672.483   141521646.877         960.054          36.986    26930673.383   105681746.1181        716.907          23.301  
E13                                                                  26063945.806   136966959.937       -1649.363          32.492    26063955.399   102280574.099       -1231.668          29.359  
E26                                                                  23857620.813   125372637.343         224.185          27.719    23857626.809                         165.918          20.857  
E31                                                                  25481297.065   133905106.843        1365.756          29.179    25481292.868                        1019.301          19.457  
G08  20546969.529   107975045.170        1665.852          30.917    20546971.628    80630729.982        1243.917          27.393  
G10  21241937.613   111627100.172        -385.879          30.845    21241940.611    83357938.372        -288.139          34.834  
G21  21719161.637   114135005.760        2260.539          25.238  
G27  20445934.974   107444124.153        -804.739          35.338    20445937.672    80234230.883        -600.967          25.221  
G32  24594513.672                        3357.392          22.745    24594505.578    96514116.3081       2506.546          28.018  
R03  23170389.773   124032881.763       -2544.099          33.215  
R04  20759954.982   111168656.189         817.101          27.476  
R05  21665366.879   115813815.517        4285.401          36.737  
> 2022  9 17  6 18 17.9998220  0 20
C13  40902258.056                        -502.672          21.218  
C14  24798829.428   129134018.669       -1515.080          29.696  
C27  21708434.164                        1194.825          17.740  
C28  22965859.966   119589269.244       -1298.505          27.145  
C30  24559509.905   127887777.091        3151.800          26.252  
C36  25243625.202                         423.339          23.429  
E07                                                                  27027863.100   142032384.080        3027.356          30.055    27027878.089                        2260.469          24.303  
E08                                                                  26930580.747   141521160.007         959.496          37.116    26930581.047                         716.627          23.511  
E13                                                                  26064350.226   136969082.110       -1649.546          32.384    26064358.020   102282158.842       -1231.808          29.119  
E26                                                                  23857670.578   125372886.024         223.945          27.637    23857677.773                         168.062          19.338  
E31                                                                  25481126.183   133904214.345        1365.124          29.184    25481125.884                        1018.568          20.922  
G08  20546740.188   107973852.400        1665.396          31.252    20546744.685    80629839.265        1243.652          27.494  
G10  21242103.098   111627959.364        -386.565          30.770    21242104.897    83358580.015        -288.708          34.737  
G21  21718826.769   114133218.229        2260.157          25.366  
G23  22856388.951                       -2190.720          15.712  
G27  20446179.604   107445402.054        -805.275          35.201    20446181.403                        -601.751          25.404  
G32  24593972.547                        3355.681          22.591    24593955.459    96511962.913        2506.330          28.315  
R03  23170944.689   124035908.013       -2544.807          33.288  
R04  20759899.820   111168321.683         816.118          27.738  
R05  21664644.978   115810011.426        4284.859          36.578  
> 2022  9 17  6 18 18.9998224  0 20
C13  40902467.911                        -500.978          20.996  
C14  24799241.942   129136158.625       -1515.517          29.625  
C27  21708345.725                        1189.596          17.056  
C28  22966230.210   119591192.487       -1298.804          27.302  
C30  24559026.939                        3151.562          26.322  
C36  25243658.779                         422.743          23.319  
E07                                                                  27027409.214   142029987.176        3027.072          30.007    27027420.606   106061388.2601       2260.486          23.625  
E08                                                                  26930519.889   141520831.187         958.989          36.924    26930518.390                         715.900          22.767  
E13                                                                  26064784.625   136971361.899       -1649.622          32.602    26064792.120   102283861.281       -1231.859          29.223  
E26                                                                  23857745.826   125373292.509         223.683          27.485    23857757.518                         168.173          18.430  
E31                                                                  25480984.681   133903479.852        1364.661          29.585    25480984.382    99992855.4491       1019.042          21.820  
G08  20546544.723   107972817.753        1664.815          30.820    20546548.620    80629066.611        1243.234          28.125  
G10  21242295.865   111628976.748        -387.216          30.714    21242298.563    83359339.738        -289.143          34.489  
G21  21718512.287   114131588.565        2259.832          25.606  
G23  22856958.557                       -2195.302          19.750  
G27  20446450.317   107446837.934        -805.713          35.276    20446456.912    80236257.4211       -601.695          25.425  
G32  24593454.506                        3356.441          23.159    24593437.717    96509927.203        2506.290          28.772  
R03  23171535.580   124039095.323       -2545.385          33.296  
R04  20759865.044   111168148.682         815.151          27.411  
R05  21663970.445   115806368.104        4284.347          36.542  
> 2022  9 17  6 18 19.9998227  0 20
C13  40902656.780                        -502.185          20.399  
C14  24799622.379   129138143.169       -1516.214          29.755  
C27  21708202.724                        1193.537          18.031  
C28  22966574.971   119592960.000       -1299.184          27.145  
C30  24558513.095   127882566.7111       3151.483          26.315  
C36  25243671.970                         424.821          23.321  
E07                                                                  27026921.152   142027433.019        3026.783          30.058    27026932.244                        2259.624          23.800  
E08                                                                  26930425.754   141520345.469         958.344          37.187    26930424.555                         715.871          22.651  
E13                                                                  26065187.246   136973484.368       -1649.843          32.388    26065195.641   102285446.224       -1232.009          29.131  
E26                                                                  23857794.393   125373541.918         223.217          27.374    23857798.890                         167.257          20.378  
E31                                                                  25480815.898   133902588.482        1363.996          29.079    25480813.500                        1018.033          21.106  
G08  20546317.480   107971626.064        1664.314          31.165    20546321.677                        1242.415          27.720  
G10  21242461.350   111629837.303        -387.929          30.860    21242462.549    83359982.406        -289.733          34.770  
G21  21718173.222   114129801.761        2259.429          26.125  
G23  22857476.598                       -2193.763          19.800  
G27  20446694.648   107448116.938        -806.378          35.361    20446701.543    80237212.494        -602.137          25.846  
G32  24592907.085                        3357.663          21.831    24592890.596    96507774.214        2505.924          29.276  
R03  23172115.079   124042122.910       -2546.143          33.369  
R04  20759799.090                         813.174          27.333  
R05  21663260.537   115802565.121        4283.752          36.925  
> 2022  9 17  6 18 20.9998231  0 20
C13  40902876.228                        -502.402          21.330  
C14  24800035.493   129140284.072       -1516.464          29.679  
C27  21708085.505                        1195.637          17.988  
C28  22966941.018   119594883.660       -1299.221          27.668  
C30  24558027.132   127880039.175        3151.976          25.830  
C36  25243714.540                         422.226          23.612  
E07                                                                  27026464.568   142025036.557        3026.630          30.346    27026480.757   106057691.3501       2260.256          23.703  
E08                                                                  26930364.597   141520017.638         957.999          37.007    26930364.297                         715.138          23.010  
E13                                                                  26065620.147   136975764.315       -1649.779          32.235    26065629.140   102287148.736       -1231.932          29.170  
E26                                                                  23857870.840   125373948.846         223.240          27.237    23857875.337                         166.575          18.929  
E31                                                                  25480674.096   133901855.015        1363.636          29.385    25480672.897    99991642.0451       1018.334          21.242  
G08  20546121.116   107970592.272        1663.960          31.042    20546124.114    80627404.7051       1242.651          27.042  
G10  21242654.416   111630855.982        -388.512          30.760    21242655.616    83360743.042        -290.056          34.831  
G21  21717866.534   114128172.793        2259.136          26.294  
G23  22858010.828                       -2201.564          18.893  
G27  20446971.956   107449553.899        -806.793          35.286    20446971.056                        -602.557          25.755  
G32  24592392.041                        3356.439          22.286    24592369.857    96505738.809        2505.984          28.912  
R03  23172710.466   124045311.448       -2546.613          33.172  
R04  20759764.914   111167645.1601        813.315          26.802  
R05  21662578.509   115798922.716        4283.430          36.683  
> 2022  9 17  6 18 21.9998235  0 20
C13  40903089.081                        -508.029          20.672  
C14  24800445.609   129142425.489       -1516.978          29.926  
C27  21707976.680                        1195.971          16.054  
C28  22967308.263   119596807.719       -1299.620          27.449  
C30  24557535.772                        3151.041          25.088  
C36  25243757.111                         420.781          24.141  
E07                                                                  27026008.584   142022640.438        3026.287          30.208  
E08                                                                  26930302.240   141519690.438         957.368          36.809    26930300.441                         714.404          22.494  
E13                                                                  26066053.647   136978044.412       -1649.929          32.899    26066063.839                       -1232.100          28.643  
E26                                                                  23857952.383   125374356.151         222.863          27.153    23857955.681                         164.478          18.223  
E31                                                                  25480534.093   133901122.104        1363.079          29.058    25480534.993                        1017.528          21.073  
G08  20545928.650   107969559.109        1663.332          30.672    20545926.851    80626633.280        1242.005          27.336  
G10  21242851.080   111631875.282        -389.131          30.587    21242849.581    83361504.225        -290.604          35.014  
G21  21717555.649                        2258.280          26.354  
G23  22858536.964                       -2206.238          19.962  
G27  20447243.568   107450991.367        -807.300          35.727    20447245.067    80239358.9451       -602.823          26.297  
G32  24591870.402                        3351.881          22.244    24591853.014    96503703.659        2505.730          29.835  
R03  23173297.460   124048500.725       -2547.352          33.090  
R04  20759731.037                         810.778          25.902  
R05  21661896.781   115795280.971        4282.769          36.636  
> 2022  9 17  6 18 22.9998238  0 20
C13  40903276.751                        -506.332          20.303  
C14  24800825.146   129144411.390       -1517.571          29.803  
C27  21707830.981                        1192.668          16.865  
C28  22967645.230   119598575.941       -1299.892          27.569  
C30  24557024.925                        3151.329          25.047  
C36  25243761.008                         419.650          23.914  
E07                                                                  27025524.119   142020086.958        3026.105          30.339    27025534.012                        2259.376          24.336  
E08                                                                  26930211.403   141519206.163         956.901          36.772    26930208.405   105679923.4841        714.602          22.086  
E13                                                                  26066457.167   136980167.045       -1650.007          32.948    26066468.859   102290436.5091      -1232.157          28.875  
E26                                                                  23857998.551   125374606.170         222.607          26.936    23858007.545                         160.808          17.823  
E31                                                                  25480363.212   133900232.224        1362.506          29.009    25480366.809                        1016.417          20.949  
G08  20545702.306   107968368.806        1662.929          30.603    20545702.306    80625744.307        1241.908          27.429  
G10  21243015.366   111632737.715        -389.807          30.548    21243013.568    83362148.225        -291.065          34.988  
G21  21717221.680   114124758.7961       2258.482          26.543  
G23  22859062.800                       -2202.633          20.869  
G27  20447491.196   107452271.773        -807.780          35.717    20447489.398    80240315.207        -603.327          26.395  
G32  24591322.682                        3352.195          23.244    24591303.795    96501551.021        2505.573          30.144  
R03  23173877.259   124051530.163       -2547.994          32.979  
R04  20759673.177   111167145.4831        811.270          25.671  
R05  21661183.575   115791479.427        4282.313          36.240  
> 2022  9 17  6 18 23.9998242  0 20
C13  40903483.008                        -502.041          19.982  
C14  24801235.262   129146553.812       -1517.983          29.741  
C27  21707732.949                        1190.542          16.203  
C28  22968016.673   119600500.467       -1300.087          27.846  
C30  24556545.557                        3151.009          25.070  
C36  25243797.583                         420.268          24.159  
E07                                                                  27025066.636   142017691.328        3025.798          30.029    27025081.026   106052206.3021       2259.554          24.551  
E08                                                                  26930147.847   141518879.976         956.355          37.054    26930146.348                         715.231          22.460  
E13                                                                  26066891.866   136982447.339       -1650.126          32.927    26066901.759   102292139.348       -1232.260          28.829  
E26                                                                  23858074.399   125375013.906         222.432          26.947  
E31                                                                  25480223.808   133899500.342        1362.049          29.096    25480226.806                        1017.942          21.162  
G08  20545504.143   107967336.578        1662.396          30.428    20545504.143    80624973.515        1241.372          27.451  
G10  21243208.733   111633758.293        -390.410          30.326    21243208.433    83362910.390        -291.585          34.883  
G21  21716907.498   114123130.875        2258.089          26.473  
G23  22859602.726                       -2200.270          21.381  
G27  20447762.808   107453710.326        -808.385          35.589    20447763.108    80241389.372        -603.585          26.248  
G32  24590811.835                        3355.787          23.678    24590785.453    96499516.143        2505.458          30.265  
R03  23174469.349   124054720.675       -2548.587          33.027  
R04  20759629.108   111166977.464         810.169          25.013  
R05  21660509.341   115787838.652        4281.800          36.118  
> 2022  9 17  6 18 24.9998245  0 20
C13  40903680.271                        -502.377          19.649  
C14  24801617.198   129148540.427       -1518.285          29.808  
C27  21707594.445                        1185.688          17.978  
C28  22968358.436   119602269.038       -1300.241          27.630  
C30  24556028.115                        3150.116          25.360  
C36  25243808.975   131451024.5551        419.515          23.872  
E07                                                                  27024580.672   142015138.123        3025.831          29.902    27024594.762   106050299.739        2259.499          24.579  
E08                                                                  26930057.609   141518396.582         956.019          36.936    26930055.211                         712.723          22.156  
E13                                                                  26067295.387   136984569.991       -1650.026          33.013    26067304.980   102293724.350       -1232.066          28.729  
E26                                                                  23858121.466   125375264.205         222.327          26.769  
E31                                                                  25480053.826   133898611.269        1361.699          29.145    25480058.622                        1016.028          22.500  
G08  20545277.500   107966147.102        1662.102          30.511    20545278.400    80624085.321        1241.130          27.789  
G10  21243373.918   111634621.847        -390.928          30.766    21243372.120    83363555.204        -291.879          35.067  
G21  21716571.730   114121345.091        2258.410          26.643  
G23  22860115.371                       -2200.146          23.055  
G27  20448005.340   107454991.568        -808.616          35.697    20448005.940    80242346.168        -603.862          26.402  
G32  24590272.509                        3357.733          22.508    24590236.833    96497363.647        2505.431          30.278  
R03  23175030.260   124057751.168       -2549.049          33.246  
R04  20759580.541   111166649.583         809.493          25.930  
R05  21659793.737   115784037.943        4281.478          36.530  
> 2022  9 17  6 18 25.9998249  0 20
C13  40903903.617                        -505.831          19.432  
C14  24802027.614   129150683.606       -1518.740          29.746  
C27  21707497.013                        1190.936          16.153  
C28  22968728.080   119604193.975       -1300.498          27.675  
C30  24555543.351   127867093.8511       3151.072          25.551  
C36  25243848.547                         418.870          24.043  
E07                                                                  27024126.487   142012742.874        3025.417          29.331    27024137.579                        2259.953          24.342  
E08                                                                  26929994.053   141518071.251         955.499          37.246    26929991.355                         713.719          22.199  
E13                                                                  26067729.486   136986850.315       -1650.156          33.060    26067740.279   102295427.237       -1232.307          28.888  
E26                                                                  23858200.611                         221.929          26.612  
E31                                                                  25479913.823   133897880.270        1361.167          28.987    25479917.420                        1016.473          22.473  
G08  20545079.038   107965115.654        1661.616          30.297    20545080.836    80623315.096        1240.805          27.576  
G10  21243568.184   111635643.560        -391.545          30.546    21243566.985    83364318.186        -292.402          34.713  
G21  21716261.445                        2257.259          26.705  
G23  22860657.696                       -2200.063          23.855  
G27  20448276.353   107456430.873        -809.136          35.632    20448279.351    80243420.974        -604.226          25.878  
G32  24589754.767                        3347.963          22.710    24589719.092    96495328.977        2505.250          30.487  
R03  23175630.445   124060942.734       -2549.642          33.206  
R04  20759559.556                         809.537          25.460  
R05  21659116.206   115780398.055        4280.913          36.969  
> 2022  9 17  6 18 26.9998252  0 20
C13  40904089.188                        -508.396          20.048  
C14  24802411.348   129152671.307       -1519.371          29.531  
C27  21707336.324                        1192.032          19.850  
C28  22969067.745   119605963.053       -1300.749          27.605  
C30  24555026.509                        3150.806          25.256  
C36  25243859.040                         419.334          24.164  
E07                                                                  27023639.624   142010190.265        3025.234          29.952    27023654.313   106046604.8691       2259.029          24.108  
E08                                                                  26929903.216   141517588.943         954.935          37.068    26929901.117                         712.537          22.269  
E13                                                                  26068133.607   136988973.201       -1650.260          33.152    26068142.900   102297012.583       -1232.411          29.633  
E26                                                                  23858250.377   125375923.2781        221.742          26.978  
E31                                                                  25479745.639   133896992.244        1360.652          29.318    25479750.436    99988010.7991       1016.011          23.193  
G08  20544855.093   107963927.166        1661.114          30.666    20544855.093    80622427.564        1240.467          27.493  
G10  21243734.569   111636508.415        -392.229          30.506    21243730.971    83364964.036        -292.915          34.766  
G21  21715920.881   114117933.5661       2257.247          26.559  
G23  22861165.844                       -2201.155          23.420  
G27  20448523.981   107457713.255        -809.756          35.938    20448526.080    80244378.574        -604.664          26.074  
G32  24589197.153                        3348.824          21.290    24589170.472    96493176.828        2505.084          30.134  
R03  23176188.059   124063974.501       -2550.323          33.404  
R04  20759493.602                         806.846          25.002  
R05  21658410.195   115776598.392        4280.431          37.080  
> 2022  9 17  6 18 27.9998256  0 20
C13  40904299.643                        -505.571          19.719  
C14  24802825.062   129154815.459       -1519.713          29.762  
C27  21707237.092                        1194.009          19.273  
C28  22969436.490   119607888.579       -1301.086          27.624  
C30  24554539.646   127861884.9591       3150.796          25.419  
C36  25243901.011                         417.629          24.161  
E07                                                                  27023183.339   142007795.486        3024.948          30.071    27023199.528   106044816.582        2258.867          23.948  
E08                                                                  26929842.058   141517264.705         954.406          37.026    26929841.159   105678473.6751        712.763          22.736  
E13                                                                  26068568.006   136991253.739       -1650.370          33.123    26068576.100   102298715.651       -1232.488          29.288  
E26                                                                  23858328.623   125376331.896         221.550          27.043  
E31                                                                  25479608.034   133896262.298        1360.114          29.186    25479609.833                        1014.820          22.561  
G08  20544657.829   107962896.722        1660.612          30.855    20544659.928    80621658.076        1240.068          27.664  
G10  21243926.736   111637531.469        -392.886          30.325    21243926.436    83365727.958        -293.342          34.607  
G21  21715604.000   114116306.903        2256.832          26.677  
G23  22861703.672                       -2204.300          22.928  
G27  20448797.392   107459153.592        -810.169          35.484    20448799.790    80245454.143        -604.989          26.377  
G32  24588680.311                        3357.442          20.914    24588652.130    96491142.436        2504.972          30.228  
R03  23176791.841   124067167.357       -2550.931          33.152  
R04  20759458.226                         805.968          25.063  
R05  21657726.368   115772959.502        4279.916          36.778  
> 2022  9 17  6 18 28.9998259  0 20
C13  40904481.617                        -504.187          19.295  
C14  24803206.997   129156804.105       -1520.317          29.690  
C27  21707097.689                        1191.674          18.969  
C28  22969774.356   119609658.305       -1301.397          26.903  
C30  24554025.502   127859202.717        3150.572          25.637  
C36  25243907.007   131451537.7871        417.182          23.933  
E07                                                                  27022697.376   142005243.459        3024.653          30.383  
E08                                                                  26929748.223   141516783.459         953.872          36.851    26929747.024                         712.801          22.730  
E13                                                                  26068971.227   136993376.852       -1650.487          33.562    26068979.621   102300301.043       -1232.457          29.299  
E26                                                                  23858377.189   125376583.338         221.184          27.267  
E31                                                                  25479437.153   133895375.383        1359.541          29.342    25479439.851    99986803.3801       1015.321          22.707  
G08  20544433.884   107961709.227        1660.122          30.737    20544434.184    80620771.331        1239.680          27.499  
G10  21244091.921   111638397.611        -393.516          30.174    21244090.422    83366374.759        -293.867          34.591  
G21  21715264.036   114114523.039        2256.490          26.947  
G23  22862212.719   120141701.3041      -2201.892          23.115  
G27  20449039.325   107460437.001        -810.783          35.096    20449043.222    80246412.529        -605.451          26.319  
G32  24588120.898                        3356.436          18.514    24588104.110    96488990.612        2504.759          30.085  
R03  23177338.063   124070200.474       -2551.674          32.923  
R04  20759393.471                         804.864          25.002  
R05  21657008.365   115769160.860        4279.410          36.753  
> 2022  9 17  6 18 29.9998263  0 20
C13  40904705.262                        -502.659          17.996  
C14  24803616.813   129158949.207       -1520.663          29.644  
C27  21706996.059                        1190.415          19.971  
C28  22970145.499   119611584.232       -1301.488          26.900  
C30  24553540.138                        3149.952          24.961  
C36  25243947.779                         413.996          23.720  
E07                                                                  27022241.092   142002849.077        3024.550          30.492  
E08                                                                  26929687.965   141516460.151         953.477          36.599    26929684.667                         711.876          21.957  
E13                                                                  26069406.825   136995657.465       -1650.445          33.878    26069415.219   102302004.140       -1232.517          28.952  
E26                                                                  23858454.536   125376992.334         221.172          27.576  
E31                                                                  25479297.449   133894646.364        1359.186          29.198    25479302.246    99986258.952        1015.008          22.067  
G08  20544237.520   107960679.647        1659.748          31.243    20544237.520    80620002.433        1239.478          27.062  
G10  21244287.985   111639421.807        -394.028          30.649    21244285.587    83367139.603        -294.263          34.470  
G21  21714960.346   114112897.054        2256.153          26.796  
G23  22862743.052   120144533.817       -2202.344          24.201  
G27  20449316.633   107461878.303        -811.134          34.613    20449316.633    80247488.811        -605.702          26.069  
G32  24587597.161                        3352.684          19.602    24587585.469    96486956.487        2504.705          29.982  
R03  23177955.335   124073394.560       -2552.161          33.039  
R04  20759369.188   111165506.8371        804.641          26.221  
R05  21656329.335   115765522.896        4278.989          36.685  
> 2022  9 17  6 18 30.9998266  0 21
C13  40904888.735                        -503.065          19.959  
C14  24803998.149   129160938.534       -1520.998          29.545  
C27  21706864.450                        1189.325          21.152  
C28  22970482.766   119613354.226       -1301.665          26.786  
C30  24553029.591   127853994.2781       3150.688          25.113  
C36  25243959.471                         418.326          23.369  
E07                                                                  27021756.028   142000297.261        3024.442          30.485  
E08                                                                  26929593.830   141515979.692         953.085          36.832    26929594.730                         711.100          21.432  
E13                                                                  26069809.746   136997780.531       -1650.440          34.049    26069817.841   102303589.472       -1232.397          28.837  
E26                                                                  23858502.203   125377244.079         220.880          27.473  
E31                                                                  25479129.566   133893760.248        1358.742          29.211    25479136.461                        1014.796          22.499  
E33                                                                                                                                  25105596.257                        1696.289          18.742  
G08  20544010.877   107959492.900        1659.373          31.556    20544011.477    80619116.290        1239.078          27.156  
G10  21244452.871   111640289.007        -394.574          30.354    21244451.073    83367787.127        -294.589          34.269  
G21  21714616.184   114111113.155        2256.526          26.156  
G23  22863259.895                       -2202.430          24.556  
G27  20449557.666   107463162.477        -811.548          34.555    20449564.261    80248447.788        -606.043          26.408  
G32  24587062.031                        3351.172          21.791    24587037.748    96484804.837        2504.585          29.563  
R03  23178516.847   124076428.573       -2552.570          32.746  
R04  20759303.233                         803.326          26.122  
R05  21655621.525   115761725.053        4278.611          36.734  
> 2022  9 17  6 18 31.9998270  0 20
C13  40905103.086                        -500.958          20.876  
C14  24804408.865   129163084.329       -1521.356          28.948  
C27  21706764.320                        1191.374          22.159  
C28  22970853.009   119615280.413       -1301.748          26.219  
C30  24552538.831   127851468.115        3150.602          24.703  
C36  25243993.947                         415.649          23.098  
E07                                                                  27021301.242   141997903.159        3024.270          30.298  
E08                                                                  26929534.771   141515657.182         952.677          36.992    26929535.371   105677273.3951        711.383          22.354  
E13                                                                  26070244.445   137000061.052       -1650.352          33.975    26070253.439   102305292.481       -1232.429          29.582  
E26                                                                  23858577.750   125377653.431         220.817          26.877  
E31                                                                  25478991.361   133893031.977        1358.440          29.291    25478993.760                        1014.218          22.180  
G08  20543815.113   107958464.067        1659.001          31.249    20543815.712    80618347.943        1238.927          27.777  
G10  21244645.938   111641314.228        -395.053          30.177    21244645.338    83368552.781        -295.074          33.438  
G21  21714300.503   114109487.458        2255.864          26.838  
G23  22863792.626                       -2203.162          25.583  
G27  20449835.274   107464604.569        -811.924          35.016    20449835.573    80249524.682        -606.313          25.975  
G32  24586537.095                        3353.657          23.086    24586518.807    96482770.816        2504.600          29.808  
R03  23179119.729   124079623.624       -2553.127          32.991  
R04  20759267.858   111165023.8581        802.903          27.831  
R05  21654942.495   115758087.876        4278.202          37.374  
> 2022  9 17  6 18 32.9998273  0 19
C13  40905292.855                        -502.387          19.293  
C14  24804793.199   129165074.391       -1521.732          29.108  
C27  21706622.818                        1189.774          21.627  
C28  22971195.073                       -1301.095          24.832  
C30  24552020.790                        3153.745          22.603  
E07                                                                  27020815.579   141995351.637        3024.148          29.898  
E08                                                                  26929441.236   141515177.545         952.263          36.804    26929448.131   105676915.110         711.220          22.150  
E13                                                                  26070647.966   137002184.095       -1650.418          34.327    26070657.260   102306877.860       -1232.444          29.458  
E26                                                                  23858627.516   125377905.391         220.666          26.775    23858628.415                         163.269          17.564  
E31                                                                  25478821.079   133892146.749        1357.854          29.336    25478824.977    99984392.4361       1014.023          22.353  
G08  20543588.769   107957278.042        1658.651          31.031    20543589.969    80617462.302        1238.575          27.508  
G10  21244814.721   111642182.515        -395.660          30.607    21244810.824    83369201.099        -295.383          33.716  
G21  21713965.634   114107704.487        2255.598          27.275  
G23  22864307.369   120152718.1521      -2203.354          26.523  
G27  20450078.705   107465889.455        -812.260          35.190    20450082.003    80250484.245        -606.629          26.434  
G32  24585991.172                        3353.645          21.691    24585970.187    96480619.226        2504.526          30.515  
R03  23179676.744   124082658.689       -2553.621          33.072  
R04  20759222.289   111164703.388         802.082          28.882  
R05  21654230.188   115754290.786        4277.859          36.995  
