     3.03           OBSERVATION DATA    M: Mixed            RINEX VERSION / TYPE
Geo++ RINEX Logger  Geo++               20220917 082456 UTC PGM / RUN BY / DATE
************************************************************COMMENT
This file was generated by the Geo++ RINEX Logger App       COMMENT
for Android devices (Version 2.1.6). If you encounter       COMMENT
any issues, please send an email to android@geopp.de        COMMENT
Filtering Mode: BEST                                        COMMENT
************************************************************COMMENT
Geo++                                                       MARKER NAME
GEODETIC                                                    MARKER TYPE
Geo++               Geo++                                   OBSERVER / AGENCY
unknown             Xiaomi              MI 8                REC # / TYPE / VERS
unknown             MI 8                                    ANT # / TYPE
  4410312.9247   193657.1742  4588674.7223                  APPROX POSITION XYZ
        0.0000        0.0000        0.0000                  ANTENNA: DELTA H/E/N
G    8 C1C L1C D1C S1C C5Q L5Q D5Q S5Q                      SYS / # / OBS TYPES
R    4 C1C L1C D1C S1C                                      SYS / # / OBS TYPES
E   12 C1B L1B D1B S1B C1C L1C D1C S1C C5Q L5Q D5Q S5Q      SYS / # / OBS TYPES
C    4 C2I L2I D2I S2I                                      SYS / # / OBS TYPES
J    8 C1C L1C D1C S1C C5Q L5Q D5Q S5Q                      SYS / # / OBS TYPES
  2022     9    17     8    25   14.9996910     GPS         TIME OF FIRST OBS
 24 R01  1 R02 -4 R03  5 R04  6 R05  1 R06 -4 R07  5 R08  6 GLONASS SLOT / FRQ #
    R09 -2 R10 -5 R11  0 R12 -1 R13 -2 R14 -7 R15  0 R16 -1 GLONASS SLOT / FRQ #
    R17  4 R18 -3 R19  3 R20  2 R21  4 R22 -3 R23  3 R24  2 GLONASS SLOT / FRQ #
G L1C                                                       SYS / PHASE SHIFT
G L5Q -0.25000                                              SYS / PHASE SHIFT
R L1C                                                       SYS / PHASE SHIFT
E L1B                                                       SYS / PHASE SHIFT
E L1C +0.50000                                              SYS / PHASE SHIFT
E L5Q -0.25000                                              SYS / PHASE SHIFT
C L2I                                                       SYS / PHASE SHIFT
J L1C                                                       SYS / PHASE SHIFT
J L5Q -0.25000                                              SYS / PHASE SHIFT
 C1C    0.000 C1P    0.000 C2C    0.000 C2P    0.000        GLONASS COD/PHS/BIS
                                                            END OF HEADER
> 2022  9 17  8 25 14.9996910  0 24
C06  39344995.127   204879711.8901       1145.674          30.633  
C09  40085415.045                        1634.071          12.123  
C27  22586517.279   117613748.757       -1643.758          30.699  
C28  26738793.618   139235914.535       -2832.609          31.472  
C30  21646751.566                        1265.504          20.701  
C32  22353584.236                        1915.038          22.212  
C33  27072981.865                       -2984.243          22.806  
E07                                                                  25430139.880   133636286.818        -322.550          31.963    25430138.382    99793324.955        -240.851          32.070  
E24                                                                  26974979.710                        -121.244          16.470    26974978.811                         -88.257          25.618  
E26                                                                  25349507.401   133212560.0921      -1377.257          33.013    25349514.596    99476939.4431      -1028.533          31.169  
E33                                                                  23529249.739   123647042.0121        712.108          24.485    23529256.035                         533.194          25.047  
G01  20301980.931   106687628.9831       1461.488          26.089  
G03  21745489.111                        2971.119          22.416    21745483.415    85333947.3341       2218.787          25.510  
G10  24904400.143   130873482.383       -3057.385          25.031    24904412.434    97730262.864       -2282.924          23.162  
G14  23228416.702   122066152.681         -92.208          30.308  
G17  24168943.589   127008655.5891       3504.108          29.400  
G22  22267137.881   117014598.917        1159.568          38.224  
G27  24520192.124   128854406.185       -3466.655          33.028    24520197.820    96222522.798       -2588.776          27.739  
G28  24234820.283   127354839.4911       1412.397          26.620  
G32  22751733.203   119561164.422        -585.822          37.844    22751734.702    89282692.781        -437.441          32.336  
R05  20455311.283                       -2072.250          28.415  
R07  23591471.364                        4829.255          21.865  
R12  23247233.775                       -1390.591          16.652  
R20  20945141.580                       -2122.145          20.763  
> 2022  9 17  8 25 15.9996912  0 23
C06  39344835.637   204878874.432        1149.678          31.825  
C27  22586892.020   117615700.827       -1639.850          30.841  
C28  26739395.901   139239055.109       -2828.354          31.581  
C30  21646570.491                        1267.667          18.275  
C32  22353275.449                        1929.110          22.574  
C33  27073613.228                       -2976.111          22.438  
E07                                                                  25430260.997   133636920.530        -318.628          31.861    25430258.299    99793798.239        -237.994          32.041  
E24                                                                  26975060.354                        -119.118          15.432    26975063.352   105855931.3291        -86.250          25.900  
E26                                                                  25349828.179   133214248.262       -1373.086          32.860    25349835.674    99478200.040       -1025.307          31.018  
E33                                                                  23529175.990   123646640.940         716.156          23.997    23529178.689    92333554.1391        534.836          25.017  
G01  20301769.278                        1467.342          26.083    20301763.881    79668481.4601       1094.276          29.090  
G03  21744985.460   114270656.1621       2975.208          23.185    21744975.866                        2223.597          25.415  
G10  24905035.703                       -3051.586          22.922    24905053.390                       -2277.582          22.294  
G14  23228491.950   122066556.370         -88.604          30.311  
G17  24168333.811   127005462.298        3508.375          28.991  
G22  22266974.195   117013750.674        1163.327          38.120  
G27  24520909.827   128858183.712       -3462.443          32.120    24520916.723    96225343.677       -2585.588          28.443  
G28  24234615.525                        1418.199          25.969  
G32  22751904.384   119562061.525        -582.019          38.158    22751905.883    89283362.731        -434.660          32.476  
R05  20455766.068   109347747.8511      -2066.332          30.157  
R07  23590609.161                        4831.600          22.207  
R12  23247543.760                       -1389.189          15.514  
R20  20945575.080                       -2119.688          19.682  
> 2022  9 17  8 25 16.9996914  0 23
C06  39344671.950   204878031.996        1154.655          31.295  
C27  22587266.461   117617648.138       -1635.092          32.861  
C28  26739996.086   139242190.639       -2823.310          31.480  
C30  21646387.318                        1272.168          17.265  
C32  22352966.064                        1932.562          22.568  
C33  27074249.987                       -2965.448          23.016  
E07                                                                  25430381.813   133637549.686        -314.072          32.026    25430377.916    99794268.046        -234.517          31.390  
E24                                                                                                                                  26975142.198                         -80.914          26.178  
E26                                                                  25350154.653   133215931.370       -1368.023          32.146    25350156.752    99479456.925       -1021.595          30.831  
E33                                                                  23529103.740                         724.122          22.769    23529101.042    92333250.782         538.647          25.924  
G01  20301549.530   106685323.8121       1470.380          26.578    20301542.035    79667618.814        1097.936          29.169  
G03  21744481.209                        2980.212          22.063    21744468.917                        2226.662          25.510  
G10  24905692.248                       -3045.479          26.057    24905692.548                       -2273.529          21.730  
G14  23228567.797   122066955.381         -83.927          31.379  
G17  24167726.431   127002263.968        3513.415          28.884  
G22  22266815.005   117012897.815        1167.943          37.636  
G27  24521628.430   128861956.121       -3457.325          31.365    24521634.726    96228160.717       -2581.750          28.620  
G28  24234399.674   127352632.5241       1420.894          26.847  
G32  22752072.568   119562954.083        -577.474          39.000    22752074.966    89284029.272        -431.251          31.816  
R05  20456212.459   109350130.220       -2061.857          31.755  
R07  23589746.958                        4840.741          24.119  
R12  23247895.117                       -1379.948          16.794  
R20  20946019.073                       -2109.876          19.550  
> 2022  9 17  8 25 17.9996916  0 21
C06  39344507.964   204877186.610        1157.606          31.547  
C27  22587641.201   117619592.627       -1632.269          33.465  
C28  26740598.969   139245323.074       -2820.216          31.431  
C30  21646201.746                        1280.142          16.908  
C32  22352654.279                        1929.245          22.801  
C33  27074875.054                       -2963.217          22.727  
E07                                                                  25430501.130   133638176.078        -311.308          31.855    25430496.334    99794735.736        -232.400          31.169  
E26                                                                  25350470.335   133217611.539       -1365.085          31.826    25350476.930    99480711.547       -1019.332          30.770  
E33                                                                  23529022.197                         724.447          22.159    23529023.696                         540.853          25.763  
G01  20301334.279   106684165.940        1472.956          26.940    20301321.388    79666754.132        1099.972          29.389  
G03  21743977.258                        2982.660          23.176    21743960.769                        2227.509          25.379  
G10  24906334.403   130883573.2721      -3044.777          27.729    24906328.707    97737798.3741      -2273.798          20.494  
G14  23228640.047   122067351.890         -81.425          31.702  
G17  24167115.454   126999062.672        3516.380          28.717  
G22  22266648.320   117012042.404        1170.495          37.144  
G27  24522344.634   128865725.493       -3454.287          30.785    24522352.728    96230975.441       -2579.435          28.683  
G28  24234191.918   127351524.191        1423.417          27.477  
G32  22752244.649   119563844.126        -574.960          39.163    22752244.049    89284693.883        -429.320          31.821  
R05  20456658.550   109352510.057       -2059.324          31.458  
R12  23248193.411                       -1371.355          17.194  
R20  20946475.956                       -2102.398          18.744  
> 2022  9 17  8 25 18.9996918  0 23
C06  39344349.074   204876340.639        1158.191          31.492  
C27  22588012.944   117621536.634       -1631.788          33.712  
C28  26741200.952   139248454.870       -2819.576          30.736  
C30  21646011.378                        1283.046          14.582  
C32  22352347.592                        1927.225          22.868  
C33  27075504.918                       -2968.888          22.165  
E07                                                                  25430618.349   133638802.084        -310.922          31.802    25430615.951    99795203.247        -232.221          31.330  
E26                                                                  25350790.813   133219290.988       -1364.365          32.242    25350795.010    99481965.676       -1018.839          30.740  
E33                                                                  23528946.349                         724.517          22.517    23528944.251    92332639.3541        541.337          26.387  
G01  20301110.933   106683007.030        1473.994          26.478    20301102.239    79665889.039        1100.383          29.411  
G03  21743465.212   114262655.4391       2983.204          23.120    21743454.420    85325986.2781       2227.753          25.238  
G08  21746916.423   114280816.6131      -2416.242          23.940  
G10  24906974.460   130886932.265       -3043.910          27.750    24906970.563                       -2266.356          19.739  
G14  23228715.895   122067748.282         -81.308          31.599  
G17  24166510.473   126995860.693        3517.063          28.823  
G21  20839494.718                        -131.437          24.837  
G22  22266488.831   117011186.732        1170.756          36.849  
G27  24523056.641   128869494.100       -3453.523          30.319    24523068.933    96233789.702       -2578.971          28.894  
G28  24233985.961   127350415.473        1423.802          27.487  
G32  22752414.631   119564733.936        -574.726          39.317    22752414.931    89285358.381        -429.208          31.791  
R05  20457109.738   109354889.721       -2059.151          32.043  
R12  23248474.316                       -1376.149          17.734  
R20  20946937.637                       -2104.968          17.787  
> 2022  9 17  8 25 19.9996920  0 23
C06  39344186.586   204875493.558        1159.300          31.801  
C27  22588385.586   117623479.870       -1631.017          34.096  
C28  26741802.335   139251585.522       -2818.433          30.779  
C30  21645816.513                        1276.357          18.951  
C32  22352037.606   116392901.2061       1930.264          24.501  
C33  27076127.587                       -2971.273          21.929  
E07                                                                  25430737.367   133639427.398        -310.230          30.950    25430735.868    99795670.218        -231.681          32.000  
E26                                                                  25351109.492   133220969.371       -1363.300          31.356    25351115.188    99483219.101       -1018.134          30.479  
E33                                                                  23528869.902   123645005.2601        725.816          22.020    23528869.303                         542.700          25.567  
G01  20300883.691   106681847.819        1474.296          26.290    20300879.793    79665023.367        1100.962          28.521  
G03  21742962.760   114259986.529        2983.995          24.332    21742945.672    85323993.228        2228.340          25.602  
G08  21747438.362                       -2416.415          21.654    21747421.873                       -1801.933          18.665  
G10  24907612.419                       -3042.304          25.628    24907610.920                       -2271.347          22.445  
G14  23228794.740   122068144.034         -80.667          30.586  
G17  24165897.697   126992657.614        3518.163          29.849  
G21  20839579.559                        -129.989          24.411  
G22  22266320.947   117010330.438        1171.378          36.727  
G27  24523774.045   128873261.642       -3452.457          29.812    24523785.437    96236603.025       -2578.033          28.329  
G28  24233774.907                        1424.573          27.463  
G32  22752583.414   119565623.176        -574.156          38.515    22752582.215    89286022.428        -428.758          31.528  
R05  20457544.437   109357268.778       -2058.545          29.663  
R12  23248804.388                       -1379.765          21.090  
R20  20947445.785                       -2110.351          21.308  
> 2022  9 17  8 25 20.9996922  0 23
C06  39344022.300   204874645.424        1160.354          31.862  
C27  22588757.628   117625422.022       -1629.932          32.837  
C28  26742404.319   139254714.841       -2817.099          30.712  
C30  21645631.541                        1275.443          20.036  
C32  22351726.122                        1930.878          24.463  
C33  27076763.447                       -2965.727          22.844  
E07                                                                  25430855.485   133640051.857        -309.375          30.379    25430853.986    99796136.486        -230.978          31.966  
E26                                                                  25351428.171   133222646.692       -1362.237          30.634    25351432.369    99484471.598       -1017.207          31.114  
E33                                                                  23528789.858                         727.493          22.330    23528789.258                         543.196          25.179  
G01  20300663.343   106680687.700        1475.202          26.228    20300658.846    79664157.006        1101.652          27.725  
G03  21742460.608   114257316.599        2985.014          24.485    21742438.723    85321999.572        2228.945          25.044  
G08  21747953.105                       -2416.886          22.395    21747944.112                       -1806.230          19.323  
G10  24908245.580   130893646.6831      -3041.333          24.407    24908251.276    97745320.7621      -2271.407          24.061  
G14  23228869.388   122068539.121         -80.003          31.055  
G17  24165289.118   126989453.354        3519.344          30.276  
G21  20839662.902   109513173.6641       -129.443          25.232  
G22  22266160.558   117009473.336        1172.186          37.700  
G27  24524487.850   128877027.864       -3451.139          29.840    24524503.140    96239415.519       -2577.204          29.429  
G28  24233562.354   127348195.9061       1425.286          26.482  
G32  22752753.996   119566511.673        -573.413          38.331    22752751.598    89286685.868        -428.150          31.519  
R05  20457998.622   109359647.278       -2057.987          29.189  
R12  23249147.950                       -1381.220          21.419  
R20  20947875.088                       -2117.946          20.304  
> 2022  9 17  8 25 21.9996924  0 23
C06  39343860.112   204873796.274        1161.370          31.810  
C27  22589130.870   117627363.293       -1629.052          32.655  
C28  26743003.904   139257843.059       -2815.999          30.871  
C30  21645445.070                        1272.843          21.138  
C32  22351416.736                        1932.808          24.577  
C33  27077384.317                       -2959.850          22.161  
E07                                                                  25430971.805   133640675.447        -308.506          30.171    25430973.004    99796602.211        -230.436          32.165  
E26                                                                  25351745.951   133224322.818       -1361.042          30.127    25351752.847    99485723.261       -1016.373          31.890  
E33                                                                  23528704.117                         728.248          21.765    23528710.713                         543.782          24.950  
G01  20300448.392   106679526.528        1476.257          26.413    20300438.799    79663289.970        1102.325          27.915  
G03  21741948.562   114254645.894        2985.789          23.975    21741929.375    85320005.164        2229.698          24.901  
G08  21748474.145   114289005.0221      -2414.136          23.040    21748462.753                       -1804.605          20.746  
G10  24908881.740                       -3040.349          24.319    24908889.235    97747826.388       -2270.336          24.393  
G14  23228946.735   122068933.460         -79.255          31.369  
G17  24164679.940   126986247.992        3520.446          29.927  
G21  20839749.242   109513617.199        -128.451          24.734  
G22  22265995.072   117008615.602        1172.819          38.356  
G27  24525211.849   128880792.962       -3450.014          30.495    24525219.344    96242227.084       -2576.274          29.787  
G28  24233350.401   127347084.931        1426.059          26.371  
G32  22752923.379   119567399.548        -572.791          38.125    22752921.280    89287348.922        -427.763          31.283  
R05  20458439.017   109362025.284       -2057.493          30.015  
R12  23249446.243                       -1378.434          21.715  
R20  20948294.497                       -2112.188          19.823  
> 2022  9 17  8 25 22.9996926  0 24
C06  39343694.027   204872945.820        1162.674          31.441  
C27  22589499.315   117629303.592       -1628.079          32.089  
C28  26743603.489   139260969.940       -2814.661          30.605  
C30  21645267.893                        1277.030          21.044  
C32  22351117.543   116388041.5301       1932.965          24.323  
C33  27078015.980                       -2963.008          22.333  
E07                                                                  25431088.424   133641298.149        -307.618          29.358    25431091.122    99797067.177        -229.676          32.072  
E26                                                                  25352065.530   133225997.750       -1359.848          29.549    25352071.526    99486974.043       -1015.492          31.908  
E31                                                                  26880507.312                       -2089.818          18.912  
E33                                                                  23528629.769                         730.171          22.276    23528632.167    92331407.5641        544.553          25.369  
G01  20300225.946                        1478.084          26.339    20300218.751    79662422.142        1103.119          27.755  
G03  21741439.814                        2987.475          24.173    21741419.429    85318010.071        2230.383          25.042  
G08  21748988.289   114291733.298       -2413.192          23.503    21748981.393                       -1806.175          20.866  
G10  24909509.805                       -3038.288          23.459    24909529.292                       -2268.498          24.021  
G14  23229019.285   122069327.141         -78.597          31.257  
G17  24164069.863   126983041.356        3521.720          29.538  
G21  20839836.182   109514059.571        -127.288          25.314  
G22  22265833.184   117007757.021        1173.664          38.133  
G27  24525924.456   128884556.724       -3448.678          30.812    24525935.848    96245037.716       -2575.343          30.189  
G28  24233138.747   127345973.217        1426.798          26.391  
G32  22753092.762   119568286.611        -571.978          38.036    22753089.764    89288011.312        -427.100          30.964  
R05  20458888.106   109364402.499       -2056.703          30.381  
R12  23249797.900                       -1378.115          21.684  
R20  20948769.669                       -2105.623          18.994  
> 2022  9 17  8 25 23.9996928  0 24
C06  39343532.139   204872094.212        1163.827          32.240  
C27  22589873.456   117631242.782       -1626.971          32.460  
C28  26744202.774   139264095.433       -2813.274          31.004  
C30  21645076.026                        1282.072          20.515  
C32  22350801.562   116386419.837        1933.913          24.484  
C33  27078650.640                       -2965.998          23.040  
E07                                                                  25431206.842   133641919.883        -306.651          30.234    25431209.540    99797531.527        -229.060          32.675  
E26                                                                  25352378.813   133227671.499       -1358.665          30.279    25352391.105    99488223.818       -1014.485          30.797  
E31                                                                  26880962.697                       -2090.741          19.874  
E33                                                                  23528549.724                         730.606          22.994    23528554.221    92331097.425         545.429          25.845  
G01  20300003.800   106677201.8141       1478.188          26.452    20299994.506    79661553.605        1103.827          28.337  
G03  21740933.165                        2988.126          24.590    21740914.278    85316014.208        2231.153          25.006  
G08  21749502.733                       -2412.686          21.151    21749504.232                       -1799.316          22.309  
G10  24910165.451                       -3037.042          24.174    24910164.552    97752834.4091      -2268.228          24.357  
G14  23229093.933   122069719.979         -77.754          31.525  
G17  24163454.389   126979833.392        3523.048          29.718  
G21  20839917.725   109514500.948        -126.293          24.797  
G22  22265669.198   117006897.600        1174.505          37.294  
G27  24526645.756   128888319.147       -3447.340          30.962    24526652.052    96247847.237       -2574.231          29.175  
G28  24232922.597   127344860.532        1427.768          25.889  
G32  22753261.545   119569172.878        -571.183          38.957    22753259.746    89288673.204        -426.602          32.104  
R05  20459329.101   109366779.065       -2056.054          29.739  
R12  23250098.891                       -1378.006          21.142  
R20  20949208.565                       -2104.467          21.133  
> 2022  9 17  8 25 24.9996930  0 24
C06  39343368.453   204871242.176        1164.255          32.866  
C27  22590248.796   117633181.697       -1626.696          32.466  
C28  26744805.057   139267220.456       -2812.803          31.891  
C30  21644898.249                        1281.971          19.662  
C32  22350486.480                        1933.852          25.131  
C33  27079280.204                       -2961.844          23.219  
E07                                                                  25431324.960   133642541.494        -306.526          31.244    25431327.958    99797995.706        -228.889          32.389  
E26                                                                  25352701.090   133229344.723       -1358.140          30.175    25352706.487    99489473.316       -1014.208          30.365  
E31                                                                  26881425.277                       -2092.330          19.515  
E33                                                                  23528465.782                         731.334          24.422    23528473.577                         545.467          25.915  
G01  20299777.157   106676037.995        1478.903          25.722    20299774.459    79660684.931        1103.963          28.805  
G03  21740421.419                        2987.931          24.364    21740403.432                        2232.117          24.395  
G08  21750016.877                       -2412.873          18.061    21750023.772    85351732.7371      -1801.164          23.826  
G10  24910797.114   130907060.6491      -3036.471          26.651    24910802.210    97755337.553       -2267.854          24.733  
G14  23229169.780   122070112.838         -77.774          31.492  
G17  24162849.108   126976624.999        3523.477          30.056  
G21  20839995.371   109514941.839        -125.807          23.164  
G22  22265507.010   117006038.136        1174.548          37.588  
G27  24527360.162   128892080.978       -3446.747          32.006    24527367.357    96250656.448       -2573.920          29.003  
G28  24232716.939   127343747.844        1427.773          25.452  
G32  22753431.527   119570059.146        -571.184          39.618    22753428.229    89289335.013        -426.519          32.829  
R05  20459772.794   109369155.641       -2056.064          30.187  
R12  23250423.866                       -1369.806          20.600  
R20  20949684.036                       -2105.251          21.875  
> 2022  9 17  8 25 25.9996932  0 23
C06  39343205.066   204870389.214        1165.182          33.227  
C27  22590622.338   117635119.819       -1625.902          32.810  
C28  26745405.541   139270344.455       -2811.779          31.744  
C32  22350183.090                        1933.004          24.584  
C33  27079902.574                       -2958.982          22.433  
E07                                                                  25431442.179   133643162.447        -305.869          31.241    25431445.477    99798459.445        -228.449          32.341  
E26                                                                  25353020.669   133231016.921       -1357.114          30.632    25353026.665    99490722.127       -1013.521          29.785  
E31                                                                  26881881.860                       -2094.288          19.876  
E33                                                                  23528389.035   123642518.5371        731.825          23.858    23528394.431    92330475.8481        546.494          25.687  
G01  20299553.811   106674873.958        1479.122          26.086    20299553.212    79659815.636        1104.585          28.810  
G03  21739915.370   114243954.6811       2988.842          23.592    21739894.684    85312021.5601       2231.793          24.330  
G08  21750528.622                       -2412.664          17.828    21750541.214                       -1800.403          24.436  
G10  24911437.471   130910411.408       -3035.674          26.920    24911442.567    97757839.814       -2266.971          25.028  
G14  23229242.330   122070505.198         -77.276          31.548  
G17  24162238.730   126973415.550        3524.533          30.474  
G21  20840083.810                        -124.145          22.298  
G22  22265343.923   117005178.065        1175.155          37.180  
G27  24528077.265   128895841.801       -3445.739          32.636    24528083.561    96253464.851       -2573.114          28.413  
G28  24232504.986   127342634.401        1428.526          25.506  
G32  22753597.612   119570944.952        -570.723          39.481    22753597.013    89289996.426        -426.123          33.340  
R05  20460218.585   109371531.787       -2055.633          30.408  
R12  23250729.055                       -1371.430          20.388  
R20  20950149.613                       -2105.526          21.768  
> 2022  9 17  8 25 26.9996934  0 24
C06  39343042.279   204869536.196        1165.237          32.312  
C27  22590993.780   117637058.042       -1626.003          33.188  
C28  26746003.027   139273468.285       -2811.611          31.381  
C30  21644521.709                        1284.294          19.874  
C32  22349862.312   116381553.4391       1934.477          25.303  
C33  27080536.934                       -2960.599          22.286  
E07                                                                  25431560.297   133643783.663        -306.132          29.685    25431565.394    99798923.238        -228.503          32.657  
E26                                                                  25353339.049   133232689.114       -1357.109          30.361    25353345.344    99491970.833       -1013.416          31.084  
E31                                                                  26882338.145                       -2096.470          19.096  
E33                                                                  23528310.490                         731.813          23.013    23528314.387    92330164.633         546.505          26.353  
G01  20299331.965   106673709.882        1479.160          25.024    20299331.665    79658946.429        1104.497          28.845  
G03  21739399.427                        2989.629          22.508    21739387.435    85310024.975        2231.875          25.082  
G08  21751062.253                       -2409.154          21.604    21751058.955                       -1800.966          23.465  
G10  24912072.431   130913762.151       -3035.659          25.951    24912079.926                       -2266.451          23.527  
G14  23229318.178   122070897.944         -77.662          31.181  
G17  24161629.252   126970206.071        3524.563          30.308  
G21  20840168.052                        -124.655          23.208  
G22  22265176.039   117004318.337        1174.812          35.942  
G27  24528792.570   128899602.524       -3445.639          32.971    24528797.367    96256273.137       -2572.996          29.375  
G28  24232296.630   127341521.395        1428.090          27.400  
G32  22753765.796   119571831.076        -571.040          38.747    22753764.597    89290658.158        -426.443          33.166  
R05  20460662.278   109373908.385       -2056.085          29.661  
R12  23251057.928                       -1378.184          20.562  
R20  20950587.610                       -2108.574          21.571  
> 2022  9 17  8 25 27.9996936  0 25
C06  39342878.592   204868683.055        1165.361          31.706  
C27  22591367.322   117638996.325       -1626.063          33.465  
C28  26746603.512   139276591.866       -2811.362          31.504  
C29  25434857.714                        3339.356          25.851  
C30  21644352.626                        1277.709          20.536  
C32  22349547.530                        1933.730          25.504  
C33  27081165.899                       -2960.574          22.393  
E07                                                                  25431678.715   133644404.994        -306.247          28.878    25431683.512    99799387.262        -228.733          33.103  
E26                                                                  25353655.330   133234361.168       -1356.970          30.390    25353664.323    99493219.473       -1013.350          31.420  
E31                                                                  26882800.724                       -2099.486          18.349  
E33                                                                  23528227.747   123641685.1531        731.843          22.908    23528235.242    92329853.472         546.450          25.921  
G01  20299105.022   106672546.034        1478.932          24.402    20299109.519    79658077.298        1104.421          28.985  
G03  21738892.178                        2988.147          22.423    21738877.488    85308028.604        2231.661          25.154  
G08  21751587.489                       -2413.237          22.216    21751576.697                       -1801.264          22.829  
G10  24912707.092   130917112.590       -3035.355          25.490    24912716.685                       -2266.275          22.519  
G14  23229391.927   122071291.044         -78.015          31.438  
G17  24161016.776   126966996.400        3524.755          30.874  
G21  20840245.698   109516262.0341       -125.049          23.956  
G22  22265012.353   117003458.884        1174.537          36.161  
G27  24529509.074   128903362.961       -3445.353          33.286    24529513.871    96259081.309       -2572.882          29.642  
G28  24232080.780   127340408.573        1427.906          27.367  
G32  22753933.380   119572717.512        -571.352          38.415    22753933.380    89291320.140        -426.692          33.113  
R05  20461093.680   109376285.359       -2056.461          28.922  
R12  23251384.402                       -1379.496          21.238  
R20  20951043.594                       -2107.577          21.219  
> 2022  9 17  8 25 28.9996938  0 25
C06  39342713.406   204867829.662        1165.613          31.411  
C27  22591737.865   117640934.518       -1625.973          33.339  
C28  26747205.495   139279715.084       -2810.998          31.449  
C29  25434272.520   132442950.3061       3339.778          25.524  
C30  21644165.556                        1278.278          22.166  
C32  22349238.744   116378309.4131       1934.203          25.725  
C33  27081789.467                       -2955.694          22.486  
E07                                                                  25431797.433   133645026.365        -306.287          28.190    25431800.731    99799851.258        -228.706          33.211  
E26                                                                  25353972.810   133236032.902       -1356.650          30.260    25353982.103    99494467.821       -1013.058          31.457  
E31                                                                  26883264.803                       -2101.346          19.518  
E33                                                                  23528151.000   123641268.065         732.172          23.605    23528156.396    92329541.977         546.785          26.615  
G01  20298884.375   106671382.028        1479.090          23.824    20298889.171    79657208.043        1104.545          28.737  
G03  21738388.227                        2985.970          22.543    21738368.740    85306032.220        2231.674          25.469  
G08  21752105.830                       -2412.701          22.111    21752096.237                       -1801.226          22.635  
G10  24913349.247   130920462.580       -3034.906          25.260    24913353.145                       -2266.256          22.853  
G14  23229469.873   122071684.265         -78.137          31.405  
G17  24160404.900   126963786.469        3525.015          30.962  
G21  20840333.537   109516701.903        -124.786          24.174  
G22  22264850.465   117002599.559        1174.409          36.283  
G27  24530223.480   128907123.037       -3444.992          33.817    24530229.775    96261889.154       -2572.555          29.601  
G28  24231870.025   127339295.808        1427.850          27.534  
G32  22754102.762   119573604.085        -571.489          38.375    22754102.163    89291982.208        -426.778          32.993  
R05  20461551.163   109378662.610       -2056.739          28.408  
R12  23251711.475                       -1376.991          22.296  
R20  20951494.782                       -2106.796          21.317  
> 2022  9 17  8 25 29.9996941  0 25
C06  39342579.099   204867133.059        1164.932          31.552  
C27  22592138.388   117643029.685       -1626.838          33.133  
C28  26747834.460   139282995.018       -2811.605          31.460  
C29  25433723.300   132440079.585        3339.050          25.557  
C30  21644008.765                        1278.161          22.187  
C32  22348954.241                        1932.091          25.598  
C33  27082450.510                       -2956.728          21.898  
E07                                                                  25431944.931                        -308.168          27.277    25431949.128    99800433.639        -229.447          33.117  
E26                                                                  25354322.068   133237862.929       -1357.401          30.302    25354329.263    99495834.374       -1013.619          31.444  
E31                                                                  26883752.565                       -2103.700          19.119  
E33                                                                  23528097.037   123641009.303         731.388          23.281    23528107.530    92329348.810         546.101          26.879  
G01  20298688.610                        1477.304          23.489    20298697.904    79656457.252        1103.726          29.281  
G03  21737908.259                        2987.535          22.496    21737889.972    85304153.955        2231.200          25.555  
G08  21752648.155                       -2410.481          20.936    21752644.558                       -1801.882          22.746  
G10  24914018.384                       -3035.686          24.973    24914024.380                       -2266.360          21.857  
G14  23229571.802   122072236.177         -79.286          31.247  
G17  24159826.300   126960734.674        3524.420          30.918  
G21  20840452.855   109517300.035        -125.506          24.754  
G22  22264715.258   117001898.877        1173.308          36.373  
G27  24530966.365   128911041.328       -3445.665          34.371    24530975.059    96264815.120       -2573.032          29.531  
G28  24231685.653   127338341.716        1426.717          27.461  
G32  22754300.026   119574649.428        -572.717          38.057    22754301.225    89292762.744        -427.601          33.419  
R05  20462023.036   109381201.401       -2058.022          28.013  
R12  23252036.750                       -1377.317          21.388  
R20  20951947.768                       -2108.592          22.039  
> 2022  9 17  8 25 30.9996943  0 25
C06  39342415.413   204866281.371        1163.908          31.292  
C27  22592516.127   117644969.845       -1627.940          33.124  
C28  26748434.644   139286119.688       -2812.451          31.540  
C29  25433138.405                        3337.689          24.513  
C30  21643826.791                        1276.384          21.829  
C32  22348646.054                        1933.640          24.981  
C33  27083091.466                       -2961.951          21.904  
E07                                                                  25432062.150   133646430.0001       -308.587          26.382    25432069.345    99800899.365        -230.436          32.994  
E26                                                                  25354641.647   133239536.298       -1358.284          29.852    25354647.343    99497084.006       -1014.341          31.669  
E31                                                                  26884221.141                       -2105.151          19.523  
E33                                                                  23528016.993                         730.143          22.583    23528029.284    92329038.634         545.466          26.822  
G01  20298466.464                        1475.978          22.926    20298475.158    79655589.622        1102.920          29.405  
G03  21737408.505   114230747.6841       2986.441          23.477    21737383.323    85302159.144        2230.101          25.930  
G08  21753155.704                       -2408.944          18.856    21753165.897                       -1802.843          22.416  
G10  24914653.944   130927322.0801      -3035.851          25.406    24914657.841    97770467.7311      -2267.399          21.593  
G14  23229644.052   122072631.969         -80.708          31.183  
G17  24159216.822   126957526.324        3523.434          30.800  
G21  20840538.595   109517741.863        -126.744          24.300  
G22  22264555.169   117001041.996        1171.965          36.279  
G27  24531687.066   128914802.883       -3446.471          34.690    24531690.064    96267624.064       -2573.654          29.311  
G28  24231479.396   127337231.385        1425.415          27.778  
G32  22754472.407   119575538.590        -574.078          37.924    22754470.308    89293426.778        -428.744          33.742  
R05  20462459.534   109383581.427       -2059.514          27.923  
R12  23252364.423                       -1378.619          20.280  
R20  20952402.554                       -2109.954          21.875  
> 2022  9 17  8 25 31.9996945  0 23
C06  39342253.225   204865430.619        1162.971          31.367  
C27  22592888.469   117646911.176       -1629.111          33.398  
C28  26749034.829   139289245.149       -2813.241          31.416  
C29  25432563.103                        3336.670          24.621  
C30  21643646.915                        1275.233          24.061  
C32  22348338.167   116373606.2891       1930.688          25.029  
C33  27083715.034                       -2962.984          21.734  
E07                                                                  25432177.870   133647054.744        -309.660          26.513    25432187.163    99801366.012        -231.357          32.972  
E26                                                                  25354960.626   133241210.598       -1359.217          29.801    25354966.922    99498334.331       -1015.035          31.502  
E33                                                                  23527941.445                         729.766          23.136    23527949.240    92328729.175         544.749          26.983  
G01  20298248.815                        1473.249          22.583    20298254.511    79654722.776        1102.136          29.485  
G03  21736886.866                        2981.566          22.267    21736873.376    85300165.155        2229.278          26.007  
G08  21753671.347                       -2409.740          17.653    21753683.039                       -1804.007          23.463  
G10  24915288.904   130930674.223       -3037.059          26.718    24915297.898                       -2267.557          22.451  
G14  23229722.897   122073029.166         -82.113          31.283  
G17  24158600.749   126954318.777        3522.631          30.560  
G21  20840618.340                        -128.342          24.192  
G22  22264391.782   117000186.503        1170.576          36.335  
G27  24532400.872   128918565.315       -3447.348          35.078    24532406.868    96270433.623       -2574.269          29.016  
G32  22754639.391   119576429.151        -575.476          38.187    22754639.391    89294091.776        -429.708          33.608  
R05  20462910.722   109385962.848       -2060.908          28.097  
R12  23252708.885                       -1381.009          20.834  
R20  20952875.026                       -2106.845          21.799  
> 2022  9 17  8 25 32.9996947  0 24
C06  39342089.838   204864580.709        1162.130          31.722  
C27  22593259.612   117648853.530       -1630.135          34.433  
C28  26749635.613   139292371.441       -2814.073          31.665  
C29  25431980.007                        3339.266          21.756  
C30  21643455.647   112703112.3141       1275.581          26.071  
C32  22348028.482                        1928.829          25.496  
C33  27084341.301                       -2963.587          22.079  
E07                                                                  25432298.086   133647680.822        -310.995          29.367    25432306.181    99801833.479        -232.177          32.641  
E26                                                                  25355278.706   133242885.776       -1360.094          28.835    25355283.802    99499585.231       -1015.611          32.258  
E33                                                                                                                                  23527871.593    92328420.558         543.906          27.272  
G01  20298024.870                        1469.082          22.242    20298033.564    79653856.857        1101.209          28.384  
G03  21736368.225                        2977.928          19.292    21736365.227    85298171.895        2228.550          26.390  
G08  21754208.875                       -2417.927          18.228    21754205.577    85368146.4621      -1803.905          22.651  
G10  24915928.362   130934027.063       -3037.756          28.387    24915935.857    97775474.8181      -2268.559          26.195  
G14  23229799.345   122073427.689         -83.439          31.360  
G17  24157992.170   126951112.153        3521.708          29.771  
G21  20840702.582   109518628.2361       -128.559          23.813  
G22  22264228.695   116999332.265        1169.322          36.585  
G27  24533117.376   128922328.493       -3448.094          35.488    24533122.773    96273243.803       -2574.890          28.229  
G28  24231050.992   127335014.4771       1422.905          27.809  
G32  22754808.774   119577320.960        -576.726          39.498    22754809.673    89294757.775        -430.709          32.944  
R05  20463343.322   109388345.723       -2062.363          29.183  
R12  23253014.673                       -1383.320          21.965  
R20  20953353.795                       -2107.972          22.217  
> 2022  9 17  8 25 33.9996949  0 25
C06  39341927.950   204863731.660        1161.268          31.816  
C27  22593631.954   117650796.811       -1631.061          34.583  
C28  26750237.896   139295498.445       -2814.784          31.590  
C29  25431393.613                        3335.627          20.272  
C30  21643265.579   112702150.091        1274.442          26.152  
C32  22347714.000   116370372.8161       1928.368          24.871  
C33  27084964.869                       -2961.661          22.079  
E07                                                                  25432418.603   133648308.006        -312.100          30.152    25432425.798    99802301.803        -233.034          32.472  
E26                                                                  25355604.580   133244561.892       -1361.032          28.137    25355602.182    99500836.744       -1016.223          32.426  
E31                                                                  26885604.983                       -2105.436          18.983  
E33                                                                  23527783.454                         727.397          22.598    23527793.048    92328112.306         543.542          27.179  
G01  20297801.225                        1471.074          22.401    20297812.017    79652991.637        1100.510          27.710  
G03  21735870.570                        2974.704          17.661    21735858.578    85296179.453        2227.732          25.877  
G08                                                                  21754724.817    85370186.638       -1804.885          23.041  
G10  24916570.517   130937380.714       -3038.567          28.989    24916575.014    97777979.127       -2269.019          26.970  
G14  23229874.892   122073827.493         -84.719          31.611  
G17  24157387.788   126947906.349        3520.888          30.117  
G21  20840790.421                        -128.940          22.745  
G22  22264067.707   116998479.252        1168.096          36.641  
G27  24533833.880   128926092.448       -3448.872          35.525    24533839.876    96276054.539       -2575.446          28.292  
G28  24230841.737   127333907.862        1421.699          28.221  
G32  22754979.356   119578214.102        -578.057          39.300    22754979.955    89295424.717        -431.652          32.761  
R05  20463782.818   109390730.020       -2063.785          29.036  
R12  23253327.356                       -1384.477          22.208  
R20  20953778.601                       -2108.520          21.562  
> 2022  9 17  8 25 34.9996951  0 25
C06  39341762.465   204862882.887        1160.993          31.658  
C27  22594011.192   117652740.560       -1631.529          33.850  
C28  26750836.881   139298625.573       -2814.908          31.396  
C29  25430808.118                        3337.211          20.927  
C30  21643079.708   112701188.195        1274.116          25.311  
C32  22347404.314                        1928.330          23.414  
C33  27085597.431                       -2959.547          22.288  
E07                                                                  25432538.820   133648935.696        -312.606          30.297    25432545.115    99802770.540        -233.448          32.185  
E26                                                                  25355921.161   133246238.175       -1361.199          29.210    25355922.360    99502088.533       -1016.499          32.221  
E31                                                                  26886058.569                       -2104.188          18.696  
E33                                                                  23527707.907                         727.600          22.361    23527713.903    92327804.443         543.154          27.066  
G01                                                                  20297592.269                        1100.536          28.019  
G03  21735349.531                        2984.417          16.821    21735350.430    85294187.354        2227.389          25.306  
G08                                                                  21755244.658                       -1804.315          22.319  
G10  24917208.476   130940734.404       -3038.606          29.240    24917212.972    97780483.513       -2269.097          27.766  
G14  23229952.538   122074227.965         -85.388          30.767  
G17  24156776.512   126944700.664        3520.769          29.804  
G21  20840869.566   109519517.8451       -129.748          24.379  
G22  22263904.919   116997626.858        1167.478          36.045  
G27  24534548.286   128929856.511       -3448.979          35.593    24534554.581    96278865.450       -2575.621          28.290  
G28  24230633.681   127332801.818        1421.128          27.253  
G32  22755149.937   119579107.897        -578.711          39.294    22755149.638    89296092.165        -432.158          32.243  
R05  20464248.396   109393115.080       -2064.548          29.460  
R12  23253634.944                       -1386.052          23.570  
R20  20954246.277                       -2111.556          21.956  
> 2022  9 17  8 25 35.9996953  0 24
C06  39341599.677   204862032.633        1162.474          31.724  
C27  22594379.337   117654682.938       -1630.159          34.008  
C28  26751436.466   139301751.110       -2813.318          31.529  
C29  25430231.917                        3337.824          21.731  
C30  21642892.637                        1276.359          24.793  
C32  22347089.232                        1923.853          22.559  
C33  27086222.199                       -2962.672          21.810  
E07                                                                  25432656.938   133649562.194        -311.414          30.086    25432664.433    99803238.389        -232.558          32.665  
E26                                                                  25356240.440   133247912.863       -1359.605          28.644    25356240.140    99503339.170       -1015.347          32.446  
E33                                                                  23527629.061                         729.423          22.104    23527634.158    92327495.436         544.297          27.263  
G01  20297353.035                        1474.957          21.937    20297372.521    79651260.8921       1101.157          28.299  
G03  21734845.580                        2994.699          15.551    21734844.980    85292194.355        2228.289          26.003  
G08                                                                  21755763.598    85374266.5781      -1804.253          22.404  
G10  24917846.434   130944086.395       -3036.907          28.966    24917849.132    97782986.659       -2267.856          27.350  
G14  23230029.885   122074627.433         -84.385          30.767  
G17  24156161.038   126941493.576        3522.172          29.586  
G21  20840952.009                        -127.667          24.391  
G22  22263745.130   116996773.414        1168.528          36.241  
G27  24535267.188   128933619.030       -3447.435          35.438    24535270.785    96281675.121       -2574.382          27.520  
G28  24230423.827   127331694.635        1422.267          27.579  
G32  22755319.620   119580000.605        -577.625          39.304    22755319.920    89296758.807        -431.352          32.612  
R05  20464686.992   109395499.075       -2063.482          29.296  
R12  23253959.619                       -1383.819          23.337  
R20  20954684.574                       -2119.122          19.733  
> 2022  9 17  8 25 36.9996955  0 25
C06  39341436.890   204861180.183        1164.670          31.728  
C27  22594751.379   117656623.354       -1628.196          33.612  
C28  26752036.950   139304874.400       -2811.070          31.403  
C29  25429658.414                        3341.397          21.551  
C30  21642702.869                        1277.100          24.345  
C32  22346779.247                        1934.504          22.344  
C33  27086851.163                       -2958.786          21.970  
E07                                                                  25432777.455   133650186.738        -309.460          30.302    25432783.450    99803704.726        -231.047          32.438  
E26                                                                  25356560.319   133249585.340       -1357.393          28.477    25356558.520    99504588.169       -1013.709          32.594  
E31                                                                  26886991.523                       -2101.792          20.054  
E33                                                                  23527549.017                         732.032          21.789    23527558.310    92327184.799         545.927          27.152  
G01  20297138.084                        1475.708          21.666    20297150.975    79650393.568        1102.615          28.309  
G03  21734338.331                        3000.398          13.018    21734333.534    85290199.854        2229.791          25.905  
G08                                                                  21756284.338                       -1801.571          21.655  
G10  24918483.193   130947436.108       -3034.629          28.935    24918487.690                       -2265.258          27.387  
G14  23230102.435   122075025.130         -82.613          30.281  
G17  24155552.159   126938284.081        3524.578          30.103  
G21  20841045.245   109520402.9401       -126.390          24.412  
G22  22263576.347   116995918.110        1170.387          36.187  
G27  24535981.593   128937379.235       -3445.120          35.265    24535986.090    96284483.099       -2572.687          27.804  
G28  24230213.372   127330585.610        1424.109          27.207  
G32  22755488.403   119580891.597        -575.908          39.114    22755489.902    89297424.092        -429.996          32.644  
R05  20465138.180   109397881.524       -2061.937          29.803  
R12  23254276.499                       -1381.527          23.902  
R20  20955171.736                       -2112.647          17.900  
> 2022  9 17  8 25 37.9996957  0 25
C06  39341272.004   204860325.542        1166.860          32.055  
C27  22595120.124   117658561.688       -1626.115          31.116  
C28  26752637.434   139307995.343       -2808.724          32.289  
C29  25429073.219   132415877.9141       3341.962          26.051  
C30  21642517.597   112698293.0381       1279.204          24.330  
C32  22346467.462                        1937.599          22.329  
C33  27087480.727                       -2953.745          23.580  
E07                                                                  25432898.571   133650809.390        -307.568          31.339    25432901.569    99804169.662        -229.646          33.258  
E26                                                                  25356879.598   133251255.706       -1355.282          27.255    25356875.101    99505835.381       -1011.922          32.060  
E31                                                                  26887452.304                       -2099.876          19.320  
E33                                                                  23527471.370   123637693.3891        733.153          24.202    23527475.268                         549.259          24.072  
G01  20296918.336                        1478.355          20.257    20296931.527    79649524.760        1104.097          28.646  
G03  21733817.891                        2988.093          19.750    21733827.484    85288203.797        2231.347          26.139  
G08                                                                  21756802.679    85378340.9341      -1801.126          23.076  
G10  24919117.854   130950783.434       -3032.243          29.296    24919127.147    97787987.6841      -2264.365          24.979  
G14  23230179.781   122075420.813         -80.599          28.824  
G17  24154940.583   126935072.327        3526.838          30.592  
G21  20841124.090   109520842.253        -124.229          24.536  
G22  22263418.056   116995061.075        1172.119          36.772  
G27  24536693.900   128941137.140       -3442.822          34.777    24536701.395    96287289.401       -2571.013          27.991  
G28  24230001.719   127329474.857        1425.837          27.161  
G32  22755658.685   119581780.820        -574.138          37.751    22755660.484    89298088.167        -428.785          33.735  
R05  20465596.263   109400262.154       -2060.117          30.224  
R12  23254600.275                       -1377.940          21.978  
R20  20955583.951                       -2106.946          18.236  
> 2022  9 17  8 25 38.9996959  0 24
C06  39341109.517   204859468.788        1168.974          31.926  
C27  22595495.164   117660498.133       -1624.225          31.832  
C28  26753235.221   139311114.082       -2806.519          32.900  
C29  25428491.921                        3344.968          27.586  
C30  21642326.929   112697323.930        1281.328          26.071  
C32  22346151.781                        1933.779          21.926  
C33  27088101.897                       -2951.468          22.283  
E07                                                                  25433017.289   133651430.106        -305.632          32.699    25433019.687    99804633.273        -228.320          33.506  
E26                                                                  25357200.076   133252923.691       -1352.900          27.207    25357192.281    99507081.029       -1010.358          31.740  
E31                                                                  26887923.278                       -2097.230          19.401  
E33                                                                  23527395.223   123637273.084         735.389          23.454    23527391.925    92326558.7461        549.375          23.635  
G01  20296700.087                        1481.924          22.158    20296708.481    79648654.430        1105.620          28.703  
G03  21733318.137                        2987.343          17.724    21733316.338    85286206.243        2232.843          27.938  
G08                                                                  21757321.020    85380376.148       -1799.924          22.529  
G10  24919756.412   130954128.529       -3030.011          29.194    24919761.208                       -2260.433          24.530  
G14  23230247.834                         -81.705          24.035  
G17  24154329.606   126931858.473        3528.938          30.134  
G21  20841209.531   109521279.390        -122.054          24.016  
G22  22263253.770   116994202.159        1174.000          37.088  
G27  24537411.903   128944892.802       -3440.577          34.262    24537414.901    96290093.929       -2569.237          27.476  
G28  24229796.061                        1428.957          26.652  
G32  22755827.169   119582668.247        -572.344          38.723    22755827.768    89298750.815        -427.358          33.337  
R05  20466042.653   109402641.100       -2058.434          31.484  
R12  23254931.246                       -1370.466          19.142  
> 2022  9 17  8 25 39.9996961  0 26
C06  39340941.333   204858610.302        1170.706          31.267  
C20  25595242.782   133281145.1521       3771.541          23.664  
C27  22595865.708   117662432.932       -1622.579          31.868  
C28  26753835.105   139314230.986       -2804.684          33.035  
C29  25427910.624   132409811.8391       3346.154          28.340  
C30  21642138.659                        1286.396          25.281  
C32  22345838.498                        1938.246          19.324  
C33  27088736.858                       -2953.299          23.891  
E07                                                                  25433134.507   133652049.522        -304.332          32.158    25433137.205    99805095.789        -227.227          31.914  
E26                                                                  25357517.256   133254590.054       -1351.280          26.689    25357510.061    99508325.394       -1009.075          31.523  
E31                                                                  26888369.369                       -2093.668          19.198  
E33                                                                  23527316.977                         737.433          22.360    23527315.179    92326243.573         550.463          27.413  
G01  20296476.142                        1482.765          23.575    20296489.633    79647783.100        1106.620          32.277  
G03  21732830.375                        2989.712          14.999    21732807.890    85284207.791        2233.743          28.235  
G08  21757839.961                       -2407.180          19.277    21757841.160                       -1799.250          21.754  
G10  24920393.770   130957471.717       -3028.103          30.840    24920398.867                       -2262.575          22.682  
G14  23230326.679                         -76.885          30.013  
G17  24153718.629   126928642.904        3530.653          30.433  
G21  20841294.072                        -118.131          21.785  
G22  22263087.086   116993341.957        1175.286          37.824  
G27  24538125.709   128948646.635       -3438.749          33.187    24538131.105    96292897.034       -2567.815          27.390  
G28  24229579.911   127327247.9711       1429.105          28.247  
G32  22755996.551   119583554.416        -571.085          37.998    22755996.851    89299412.590        -426.485          34.321  
R05  20466482.749   109405018.863       -2057.250          33.842  
R12  23255267.613                       -1366.604          17.817  
R20  20956494.421                       -2107.796          16.987  
> 2022  9 17  8 25 40.9996963  0 24
C06  39340778.246   204857751.556        1170.966          30.622  
C20  25594574.845                        3775.440          23.134  
C27  22596237.450   117664367.610       -1622.459          31.897  
C28  26754435.590   139317347.440       -2804.235          32.553  
C29  25427325.729   132406777.480        3346.578          29.440  
C30  21641950.989                        1281.349          24.976  
C32  22345523.416                        1942.345          17.265  
C33  27089363.724                       -2952.196          23.953  
E07                                                                  25433253.825   133652668.786        -304.180          33.063    25433255.324    99805558.255        -227.176          31.918  
E26                                                                  25357834.437   133256256.081       -1350.943          27.635    25357827.241    99509569.505       -1008.821          31.358  
E33                                                                  23527235.134   123636428.8791        737.318          20.779    23527233.935    92325928.260         550.604          28.054  
G01  20296261.191   106657613.5301       1482.245          25.463    20296266.587    79646911.512        1106.878          31.937  
G03                                                                  21732297.643    85282209.122        2233.959          30.320  
G08  21758353.206                       -2407.812          17.567    21758358.602                       -1798.905          21.186  
G10  24921027.232   130960814.326       -3027.525          30.923    24921041.022                       -2263.084          20.226  
G14  23230403.426   122076602.8171        -77.965          31.769  
G17  24153105.253   126925426.878        3531.110          30.854  
G21  20841375.916                        -108.756          19.053  
G22  22262926.397   116992481.801        1175.240          37.004  
G27  24538839.815   128952399.977       -3438.259          32.350    24538842.213    96295699.941       -2567.617          27.153  
G28  24229367.058   127326133.980        1429.075          27.199  
G32  22756164.735   119584440.654        -571.154          38.271    22756164.435    89300074.461        -426.581          33.792  
R05  20466918.047   109407396.801       -2057.426          33.764  
R20  20956904.837                       -2099.189          17.775  
> 2022  9 17  8 25 41.9996965  0 25
C06  39340611.262   204856894.200        1169.575          30.374  
C20  25593917.999                        3769.180          22.363  
C27  22596608.593   117666303.836       -1624.006          32.414  
C28  26755032.476   139320465.201       -2805.541          32.338  
C29  25426742.033   132403744.385        3345.315          29.956  
C30  21641762.120                        1280.529          22.854  
C32  22345206.535                        1939.402          12.655  
C33  27089989.990                       -2954.064          24.402  
E07                                                                  25433373.742   133653289.736        -305.866          32.692    25433372.543    99806021.967        -228.422          32.356  
E26                                                                  25358148.919   133257923.553       -1352.388          28.290    25358143.223    99510814.654       -1009.858          31.926  
E31                                                                  26889291.231                       -2087.287          20.126  
E33                                                                  23527158.387                         737.570          18.090    23527154.490    92325613.942         549.607          28.436  
G01  20296036.946   106656448.068        1480.545          27.022    20296044.741    79646041.203        1105.599          31.963  
G03                                                                  21731788.596    85280211.586        2232.826          30.409  
G08  21758881.140                       -2416.462          15.718    21758876.343    85386479.1171      -1799.777          21.753  
G10  24921666.389   130964158.223       -3028.813          31.331  
G14  23230476.276   122076997.687         -79.785          31.944  
G17  24152493.677   126922212.208        3529.754          31.265  
G21  20841444.268                        -113.598          18.936  
G22  22262763.609   116991623.478        1173.406          36.957  
G27  24539550.023   128956154.678       -3439.617          31.705    24539556.618    96298503.680       -2568.448          26.940  
G28  24229151.807   127325021.737        1427.326          27.109  
G32  22756334.118   119585328.779        -573.041          38.552    22756333.518    89300737.617        -427.866          33.876  
R05  20467372.533   109409776.589       -2059.276          34.354  
R20  20957412.985                       -2102.653          18.624  
> 2022  9 17  8 25 42.9996967  0 24
C06  39340450.873   204856038.198        1168.221          30.828  
C20  25593255.458                        3768.510          22.920  
C27  22596980.336   117668241.621       -1625.566          32.553  
C28  26755630.862   139323584.223       -2806.803          32.122  
C29  25426159.236   132400712.539        3344.066          30.192  
C30  21641569.353                        1272.715          22.015  
C33  27090619.255   141067933.8531      -2954.668          24.931  
E07                                                                  25433489.162   133653912.431        -307.611          31.949    25433491.560    99806486.984        -229.727          32.138  
E26                                                                  25358464.900   133259592.353       -1353.716          28.255    25358461.303    99512060.833       -1010.889          31.698  
E31                                                                  26889740.620                       -2085.516          20.389  
E33                                                                  23527089.735                         740.040          17.270    23527073.546    92325300.724         548.508          28.421  
G01  20295817.498                        1478.470          28.191    20295821.995    79645172.103        1104.390          31.938  
G03                                                                  21731280.448    85278215.340        2231.536          30.812  
G08  21759392.286                       -2428.612          11.908    21759395.584                       -1800.818          22.080  
G10  24922305.847   130967503.414       -3030.107          31.547  
G14  23230552.123   122077393.926         -81.155          31.886  
G17  24151882.100   126918998.885        3528.406          31.257  
G21  20841526.112                        -124.221          18.334  
G22  22262600.822   116990766.948        1171.614          37.062  
G27                                                                  24540271.024                       -2571.430          26.717  
G28  24228940.454   127323911.148        1425.673          27.605  
G32  22756502.901   119586218.760        -574.898          38.921    22756502.001    89301402.234        -429.326          33.644  
R05  20467812.029   109412158.392       -2061.290          34.744  
R20  20957866.271                       -2105.119          18.697  
> 2022  9 17  8 25 43.9996969  0 23
C06  39340285.387   204855183.249        1167.169          30.875  
C20  25592584.822                        3767.543          22.979  
C27  22597354.777   117670180.549       -1626.708          32.681  
C28  26756228.049   139326704.155       -2807.712          31.898  
C29  25425579.438   132397681.645        3343.114          29.804  
C30  21641395.773                        1275.152          21.790  
C33  27091245.521   141071201.545       -2955.473          24.286  
E07                                                                  25433609.678   133654536.416        -308.901          32.203    25433610.578    99806952.927        -230.652          32.376  
E26                                                                  25358781.481   133261262.185       -1354.748          27.462    25358779.382    99513307.778       -1011.655          31.662  
E31                                                                  26890209.495                       -2085.139          20.430  
E33                                                                  23527001.596                         741.832          17.115    23526993.801    92324988.230         547.784          28.438  
G01  20295597.150   106654121.4491       1477.740          27.653    20295601.048    79644303.789        1103.604          32.036  
G08                                                                  21759914.824    85390552.6641      -1801.959          21.890  
G10  24922942.606   130970849.441       -3030.942          32.236  
G14  23230628.870   122077792.092         -83.082          31.657  
G17  24151268.725   126915786.611        3527.359          31.233  
G21  20841616.649                        -128.956          18.935  
G22  22262434.138   116989911.811        1170.221          37.039  
G27  24540976.436   128963667.6521      -3441.844          29.933    24540986.029    96304113.9731      -2569.922          26.799  
G28  24228730.299   127322801.954        1424.278          27.564  
G32  22756669.585   119587110.110        -576.266          38.585    22756671.984    89302067.858        -430.334          33.781  
R05  20468260.518   109414541.746       -2062.842          34.535  
R20  20958347.138                       -2110.534          18.878  
> 2022  9 17  8 25 44.9996971  0 24
C06  39340122.000   204854329.431        1166.038          30.849  
C20  25591923.780                        3769.817          22.894  
C27  22597726.220   117672120.848       -1628.079          32.398  
C28  26756829.133   139329825.137       -2808.762          32.274  
C29  25424997.840   132394651.729        3342.136          29.939  
C30  21641207.504                        1280.149          21.410  
C33  27091872.387   141074470.341       -2956.576          23.808  
E07                                                                  25433726.897   133655161.800        -310.300          32.456    25433728.396    99807419.979        -231.762          32.227  
E24                                                                  26977405.031                        -103.734          23.843  
E26                                                                  25359097.462   133262933.056       -1355.787          26.725    25359097.462    99514555.511       -1012.443          31.563  
E31                                                                  26890666.979                       -2086.654          19.973  
E33                                                                                                                                  23526914.356    92324676.646         546.874          28.639  
G01  20295382.499   106652960.122        1476.411          27.328    20295379.501    79643436.618        1102.460          31.770  
G08                                                                  21760434.964                       -1804.199          23.115  
G10  24923576.367   130974196.473       -3031.949          32.358  
G14  23230705.617   122078191.900         -84.724          31.960  
G17  24150658.347   126912575.382        3526.313          31.159  
G21  20841701.191                        -126.268          19.219  
G22  22262275.547   116989058.220        1168.675          37.257  
G27  24541694.139   128967425.678       -3442.943          29.392    24541700.434    96306920.259       -2570.996          26.987  
G28  24228517.746   127321694.300        1422.738          27.276  
G32  22756841.966   119588003.074        -577.880          38.273    22756842.866    89302734.711        -431.563          33.407  
R05  20468710.507   109416926.776       -2064.518          34.213  
R20  20958767.147                       -2110.189          18.558  
> 2022  9 17  8 25 45.9996973  0 23
C06  39339959.513   204853476.117        1165.534          31.130  
C20  25591253.444                        3767.978          22.758  
C27  22598098.262   117674061.758       -1628.691          32.436  
C28  26757428.718   139332946.510       -2809.154          32.299  
C29  25424415.344   132391622.218        3341.730          29.952  
C30  21641026.129                        1279.019          22.942  
C33  27092500.152                       -2957.333          23.660  
E07                                                                  25433846.215   133655788.033        -311.149          32.690    25433848.613    99807887.570        -232.301          32.350  
E24                                                                  26977496.468                        -116.183          23.009  
E26                                                                  25359414.043                       -1357.067          26.212    25359415.842    99515803.669       -1012.868          31.517  
E33                                                                                                                                  23526834.611    92324365.395         546.541          28.793  
G01  20295161.852   106651799.504        1475.703          27.502    20295159.453    79642569.870        1102.038          31.422  
G08                                                                  21760952.106                       -1803.458          22.947  
G10  24924212.227   130977543.785       -3032.227          32.359  
G14  23230781.165   122078592.635         -85.651          31.957  
G17  24150046.471   126909364.595        3525.871          31.194  
G21  20841779.736                        -127.874          19.021  
G22  22262111.861   116988205.524        1167.779          37.217  
G27  24542404.647   128971184.000       -3443.237          28.722    24542416.339    96309726.836       -2571.287          27.167  
G28  24228309.990   127320587.508        1421.876          27.141  
G32  22757009.850   119588896.994        -578.836          38.235    22757013.747    89303402.251        -432.250          33.838  
R05  20469147.904   109419312.891       -2065.603          34.309  
R20  20959187.157                       -2105.783          17.996  
> 2022  9 17  8 25 46.9996976  0 24
C06  39339825.805   204852779.507        1164.939          31.190  
C20  25590617.884                        3767.160          22.562  
C27  22598501.783   117676159.514       -1629.426          32.553  
C28  26758057.382   139336224.472       -2809.632          32.245  
C29  25423860.727   132388749.235        3341.313          30.409  
C30  21640865.740                        1275.446          22.810  
C33  27093158.497                       -2957.636          24.219  
E07                                                                  25433997.610   133656572.682        -312.023          32.644    25433997.610    99808473.545        -233.040          32.345  
E24                                                                  26977603.194   141768223.9521       -109.004          22.440  
E26                                                                  25359761.802   133266434.0231      -1356.894          26.016    25359762.402    99517169.872       -1013.268          31.597  
E31                                                                  26891621.518                       -2093.489          19.912  
E33                                                                                                                                  23526785.745    92324172.407         545.923          28.903  
G01  20294964.888   106650797.212        1474.917          27.059    20294967.886    79641821.408        1101.397          31.378  
G08                                                                  21761502.225                       -1804.736          23.025  
G10  24924880.464   130981049.178       -3032.768          32.357  
G14  23230889.390   122079151.959         -86.698          31.945  
G17  24149465.773   126906311.954        3525.267          31.281  
G21  20841903.850                        -125.719          19.296  
G22  22261977.254   116987511.349        1166.801          36.792  
G27  24543152.029   128975100.456       -3443.830          28.708    24543161.623    96312651.408       -2571.637          27.000  
G28  24228125.917   127319639.179        1420.955          27.240  
G32  22757212.210   119589949.494        -579.874          38.018    22757212.809    89304188.180        -432.993          33.915  
R05  20469622.175   109421860.332       -2066.672          34.224  
R20  20959743.571                       -2111.064          18.136  
> 2022  9 17  8 25 47.9996978  0 25
C06  39339661.219   204851927.110        1164.617          31.071  
C20  25589958.340                        3766.966          22.377  
C27  22598873.525   117678101.712       -1629.979          32.628  
C28  26758658.166   139339346.496       -2809.805          32.464  
C29  25423281.229   132385720.310        3341.144          30.313  
C30  21640690.062                        1274.398          22.603  
C33  27093790.459                       -2957.730          24.424  
E07                                                                  25434116.328   133657200.352        -312.586          33.227    25434116.627    99808942.247        -233.413          32.368  
E24                                                                  26977690.733   141768648.782        -109.746          21.938  
E26                                                                  25360078.983   133268106.249       -1357.143          25.970    25360080.482    99518418.618       -1013.456          31.672  
E31                                                                  26892074.504                       -2098.172          20.037  
E33                                                                                                                                  23526706.000    92323861.891         545.806          28.604  
G01  20294738.245   106649637.783        1474.513          26.231    20294748.438    79640955.690        1101.008          31.778  
G08  21762030.760                       -2412.311          12.020    21762024.764    85398826.4781      -1804.396          23.535  
G10  24925518.722   130984397.144       -3032.882          32.306  
G14  23230967.336   122079554.456         -87.413          32.103  
G17  24148853.896   126903101.974        3525.063          31.478  
G21  20841983.595                        -128.585          18.156  
G22  22261815.966   116986660.344        1166.089          36.841  
G27  24543865.835   128978859.536       -3443.997          28.539    24543878.127    96315458.622       -2571.924          27.668  
G28  24227914.264   127318533.949        1420.314          26.896  
G32  22757382.192   119590845.138        -580.560          37.794    22757383.092    89304857.041        -433.572          33.580  
R05  20470067.967   109424248.350       -2067.506          33.531  
R12  23257836.835                       -1382.658          13.267  
R20  20960171.675                       -2110.484          19.276  
> 2022  9 17  8 25 48.9996980  0 25
C06  39339497.233   204851075.014        1164.315          31.222  
C20  25589300.896                        3765.674          22.592  
C27  22599247.067   117680044.259       -1630.327          32.525  
C28  26759258.651   139342468.729       -2810.014          32.388  
C29  25422699.032   132382691.660        3340.870          30.342  
C30  21640508.088                        1270.546          22.658  
C33  27094414.627                       -2956.998          24.323  
E07                                                                  25434235.645   133657828.618        -313.182          33.197    25434236.844    99809411.446        -233.908          32.333  
E24                                                                  26977776.774                        -111.145          22.568    26977767.180   105866552.3271        -78.095          26.961  
E26                                                                  25360395.264   133269778.917       -1357.584          26.097    25360400.660    99519667.610       -1013.702          32.030  
E31                                                                  26892534.686                       -2102.821          20.116  
E33                                                                                                                                  23526628.654    92323551.690         545.492          28.515  
G01  20294524.193   106648479.062        1473.805          26.081    20294526.292    79640090.305        1100.675          31.689  
G10  24926154.882   130987745.215       -3032.986          32.193  
G14  23231041.684   122079957.740         -88.200          31.817  
G17  24148247.116   126899892.310        3524.748          31.218  
G21  20842064.239                        -131.857          18.859  
G22  22261656.176   116985810.018        1165.410          37.075  
G27  24544585.037   128982618.818       -3444.197          29.206    24544595.230    96318265.775       -2571.863          27.848  
G28  24227706.208                        1418.384          26.782  
G32  22757551.575   119591741.541        -581.319          37.627    22757553.374    89305526.450        -434.118          33.766  
R05  20470515.857   109426637.194       -2068.332          33.843  
R07  23562771.633   126133419.2621       4849.264          25.580  
R12  23258094.656                       -1383.126          13.573  
R20  20960698.111                       -2112.598          19.606  
> 2022  9 17  8 25 49.9996982  0 25
C06  39339335.045   204850223.885        1163.349          31.311  
C20  25588628.461                        3768.268          22.721  
C27  22599620.308   117681988.024       -1631.546          32.473  
C28  26759857.036   139345591.830       -2810.881          32.365  
C29  25422119.233   132379663.803        3340.077          30.400  
C30  21640313.223                        1274.840          22.712  
C33  27095043.891                       -2957.318          24.060  
E07                                                                  25434354.962   133658458.165        -314.462          33.642    25434355.262    99809881.473        -234.738          32.362  
E24                                                                  26977855.319                        -112.581          22.901    26977847.525   105866870.910         -83.293          28.204  
E26                                                                  25360716.641   133271452.370       -1358.369          25.533    25360717.241    99520917.306       -1014.406          31.900  
E31                                                                  26892993.668                       -2107.386          19.111  
E33                                                                                                                                  23526548.310    92323242.154         544.826          28.380  
G01  20294299.948                        1472.061          26.279    20294306.544    79639225.814        1099.781          31.787  
G10  24926791.641   130991094.159       -3033.860          32.366  
G14  23231117.532   122080362.421         -89.598          31.763  
G17  24147636.439   126896683.558        3523.836          31.099  
G21  20842162.271                        -127.213          19.273  
G22  22261493.988   116984961.075        1164.026          36.955  
G27  24545299.443   128986378.937       -3445.035          29.463    24545309.336    96321073.684       -2572.618          27.715  
G28  24227492.756   127316326.1211       1418.410          26.520  
G32  22757720.958   119592639.379        -582.753          37.697    22757723.956    89306196.917        -435.177          33.554  
R05  20470980.835   109429027.501       -2069.794          33.657  
R07  23561922.321                        4847.592          25.085  
R12  23258434.321                       -1387.590          14.064  
R20  20961145.401                       -2112.736          19.221  
> 2022  9 17  8 25 50.9996984  0 25
C06  39339169.560   204849373.634        1162.470          31.180  
C20  25587968.618                        3767.048          22.851  
C27  22599992.051   117683932.744       -1632.501          32.023  
C28  26760456.022   139348715.705       -2811.655          32.189  
C29  25421539.734   132376636.721        3339.301          30.381  
C30  21640128.551                        1269.404          22.727  
C33  27095668.359                       -2959.583          24.081  
E07                                                                  25434476.079   133659088.869        -315.620          33.283    25434476.079    99810352.452        -235.689          31.878  
E24                                                                  26977935.664   141769928.5871       -112.737          23.428    26977927.270   105867190.420         -84.220          28.103  
E26                                                                  25361036.520                       -1359.701          26.134    25361036.820    99522167.669       -1015.072          31.689  
E31                                                                  26893443.357                       -2110.681          19.304  
E33                                                                  23526462.269   123632418.1011        728.727          18.598    23526469.464    92322933.298         544.146          28.232  
G01  20294081.100   106646164.7731       1471.689          25.655    20294086.196    79638362.130        1098.974          31.519  
G10  24927428.700   130994443.801       -3034.558          31.985  
G14  23231192.480   122080768.401         -90.895          31.993  
G17  24147024.563   126893475.621        3523.021          31.268  
G21  20842241.417                        -124.615          19.094  
G22  22261331.501   116984113.362        1162.797          36.640  
G27  24546016.846   128990139.881       -3445.860          30.246    24546024.641    96323882.268       -2573.294          27.960  
G28  24227284.100   127315224.146        1417.059          26.271  
G32  22757893.938   119593538.497        -584.035          37.572    22757897.236    89306868.338        -436.131          33.956  
R05  20471405.341   109431419.287       -2071.274          33.584  
R07  23561070.610                        4851.464          24.848  
R12  23258757.497                       -1393.487          14.128  
R20  20961604.983                       -2116.918          18.669  
> 2022  9 17  8 25 51.9996986  0 25
C06  39339008.571   204848523.986        1161.868          31.549  
C20  25587302.179                        3764.060          23.545  
C27  22600368.890   117685878.254       -1633.290          31.994  
C28  26761056.806   139351840.043       -2812.118          32.299  
C29  25420956.938   132373609.990        3338.951          29.430  
C30  21639948.076                        1267.243          23.846  
C33  27096299.722   141097519.0921      -2959.793          24.269  
E07                                                                  25434594.197   133659720.464        -316.512          32.602    25434597.495    99810824.115        -236.373          31.808  
E24                                                                  26978015.409   141770357.109        -113.439          23.817    26978010.612   105867510.435         -84.725          27.179  
E26                                                                  25361345.606                       -1359.899          24.270    25361355.799    99523418.455       -1015.496          31.822  
E31                                                                  26893910.133                       -2112.965          18.485  
E33                                                                                                                                  23526390.918    92322624.871         543.717          27.286  
G01  20293860.453                        1470.495          25.151    20293867.048    79637499.002        1098.418          31.064  
G10  24928064.860   130997793.893       -3035.008          31.082  
G14  23231267.728   122081175.413         -91.928          31.158  
G17  24146418.083   126890268.246        3522.459          32.468  
G21  20842334.352                        -128.645          18.078  
G22  22261175.309   116983266.659        1161.787          37.596  
G27  24546734.549   128993901.291       -3446.326          30.864    24546743.243    96326691.073       -2573.516          27.876  
G28  24227073.346   127314123.059        1416.171          27.443  
G32  22758064.820   119594438.674        -585.093          36.983    22758068.117    89307540.492        -436.864          34.176  
R05  20471858.028   109433812.185       -2072.385          33.020  
R07  23560230.292                        4848.144          24.342  
R12  23259092.365                       -1390.658          15.169  
R20  20962001.009                       -2115.467          20.288  
> 2022  9 17  8 25 52.9996988  0 25
C06  39338845.184   204847675.126        1161.080          31.812  
C20  25586646.533                        3763.551          24.177  
C27  22600740.933   117687824.726       -1634.253          32.010  
C28  26761657.590   139354965.048       -2812.786          32.184  
C29  25420375.340   132370584.157        3338.052          29.766  
C30  21639760.406                        1269.463          25.368  
C33  27096923.890   141100791.831       -2960.519          25.358  
E07                                                                  25434714.114   133660353.117        -317.569          33.372    25434717.711    99811296.627        -237.222          32.244  
E24                                                                  26978097.851                        -115.456          22.198    26978091.856   105867831.389         -85.664          26.632  
E26                                                                  25361669.382                       -1361.646          24.270    25361673.879    99524669.781       -1016.037          31.833  
E31                                                                  26894372.413   141330749.1671      -2117.992          18.038  
E33                                                                  23526310.574   123631593.0611        727.098          19.440    23526312.373    92322317.127         543.034          26.665  
G01  20293643.403   106643854.2841       1469.817          25.445    20293647.600    79636636.681        1097.612          31.158  
G10  24928700.720   131001144.734       -3035.757          30.543    24928712.711                       -2273.842          19.340  
G14  23231347.173   122081583.752         -93.255          29.856  
G17  24145805.307   126887061.666        3521.663          32.199  
G21  20842409.600                        -134.022          17.237  
G22  22261012.222   116982421.189        1160.554          37.335  
G27  24547453.751   128997663.471       -3447.096          31.680    24547457.049    96329500.429       -2574.066          27.990  
G28  24226862.292   127313023.179        1414.964          26.369  
G32  22758237.200   119595340.042        -586.284          37.092    22758238.999    89308213.586        -437.804          33.933  
R05  20472304.718   109436206.353       -2073.656          34.037  
R07  23559378.282   126115314.2441       4846.159          24.788  
R12  23259424.535                       -1393.567          15.585  
R20  20962422.817                       -2118.076          20.055  
> 2022  9 17  8 25 53.9996990  0 25
C06  39338681.198   204846826.874        1160.471          31.726  
C20  25585979.795                        3763.001          23.908  
C27  22601116.573   117689771.951       -1635.005          32.422  
C28  26762257.475   139358090.577       -2813.309          31.720  
C29  25419789.546   132367558.631        3337.746          29.342  
C30  21639576.933                        1269.353          25.035  
C33  27097555.852   141104064.927       -2960.876          24.682  
E07                                                                  25434835.830   133660986.666        -318.465          33.187    25434838.228    99811769.670        -237.753          32.167  
E24                                                                                                                                  26978173.699   105868152.852         -86.173          26.819  
E26                                                                  25361988.061                       -1361.737          24.740    25361995.256    99525921.577       -1016.506          31.705  
E31                                                                  26894827.199                       -2113.000          17.469  
E33                                                                  23526224.833   123631181.529         726.617          19.081    23526234.127    92322009.867         542.550          26.660  
G01  20293426.053   106642700.211        1469.157          25.839    20293427.552    79635774.980        1096.991          31.176  
G10  24929338.078   131004495.898       -3036.080          30.528    24929349.770                       -2271.038          20.645  
G14  23231423.620   122081993.044         -94.208          30.780  
G17  24145194.030   126883855.553        3521.198          32.549  
G21  20842502.536                        -135.328          17.696  
G22  22260852.732   116981576.680        1159.593          37.516  
G27  24548168.457   129001426.076       -3447.521          32.208    24548175.352    96332310.080       -2574.361          27.937  
G28  24226659.333   127311924.243        1414.020          26.472  
G32  22758410.780   119596242.455        -587.329          37.336    22758411.080    89308887.513        -438.637          33.939  
R05  20472750.510   109438601.678       -2074.813          34.055  
R07  23558556.850                        4843.242          23.284  
R12  23259720.431                       -1394.708          21.706  
R20  20962920.772                       -2120.095          19.121  
> 2022  9 17  8 25 54.9996992  0 24
C06  39338518.710   204845978.748        1160.346          31.592  
C20  25585322.050                        3762.767          23.805  
C27  22601491.313   117691719.451       -1635.280          31.944  
C28  26762857.659   139361216.092       -2813.296          31.882  
C29  25419210.047   132364533.194        3337.656          28.919  
C30  21639398.256   112682065.4121       1269.366          24.781  
C33  27098184.517                       -2960.986          24.739  
E07                                                                  25434957.545   133661620.628        -318.878          33.129    25434959.044    99812243.137        -238.176          32.320  
E24                                                                                                                                  26978256.442   105868474.900         -86.758          27.607  
E26                                                                  25362311.537   133279830.0401      -1361.269          25.484    25362312.736    99527173.462       -1016.595          31.979  
E33                                                                  23526144.189                         726.375          19.257    23526154.382    92321702.651         542.506          26.905  
G01  20293210.503                        1468.954          26.388    20293209.004    79634913.479        1096.791          31.250  
G10  24929978.135   131007847.053       -3036.071          30.667    24929984.431                       -2266.389          20.961  
G14  23231503.665   122082402.972         -94.844          31.939  
G17  24144583.353   126880649.593        3521.044          32.075  
G21  20842584.679                        -132.363          17.575  
G22  22260690.545   116980732.679        1159.085          37.573  
G27  24548884.061   129005188.756       -3447.596          32.794    24548890.057    96335119.970       -2574.600          28.021  
G28  24226451.876   127310825.664        1413.663          26.227  
G32  22758580.163   119597145.439        -587.900          37.275    22758581.962    89309561.732        -438.928          33.418  
R05  20473193.003   109440997.685       -2075.494          33.921  
R07  23557725.826                        4845.032          23.326  
R12  23260043.007                       -1395.677          20.471  
R20  20963372.559                       -2115.350          19.941  
> 2022  9 17  8 25 55.9996994  0 25
C06  39338353.525   204845130.319        1160.649          31.876  
C20  25584659.809   133226038.5451       3763.040          24.297  
C27  22601863.955   117693666.788       -1635.118          32.112  
C28  26763455.146   139364341.205       -2812.894          31.834  
C29  25418629.649   132361507.291        3338.123          29.073  
C30  21639208.787   112681108.218        1269.413          26.319  
C33  27098814.081   141110610.7531      -2960.465          25.116  
E07                                                                  25435079.861   133662254.549        -318.837          32.712    25435078.661    99812716.474        -238.048          32.447  
E24                                                                  26978352.675                        -116.215          21.844    26978337.985   105868796.796         -86.606          27.882  
E26                                                                  25362630.516   133281506.174       -1361.050          25.666    25362631.116    99528425.042       -1016.290          32.399  
E31                                                                  26895731.373                       -2111.069          16.299  
E33                                                                                                                                  23526077.036    92321395.273         542.668          26.539  
G01  20292989.256                        1468.571          26.850    20292989.556    79634051.877        1096.892          31.316  
G10  24930614.295   131011197.706       -3035.569          30.100    24930622.989                       -2268.022          20.835  
G14  23231579.812   122082812.911         -94.855          31.912  
G17  24143973.575   126877443.228        3521.449          31.867  
G21  20842669.820                        -130.940          19.833  
G22  22260532.254   116979888.729        1159.035          37.771  
G27  24549601.764   129008950.979       -3447.139          32.934    24549607.760    96337929.358       -2574.098          28.231  
G28  24226241.422                        1413.168          25.481  
G32  22758750.745   119598048.487        -587.964          37.709    22758754.642    89310236.110        -439.089          33.337  
R05  20473646.589   109443393.898       -2075.700          33.457  
R07  23556849.532                        4844.881          21.813  
R12  23260374.578                       -1403.517          18.957  
R20  20963848.330                       -2113.430          19.656  
> 2022  9 17  8 25 56.9996996  0 25
C06  39338191.637   204844282.331        1160.207          31.880  
C20  25583994.569   133222587.616        3763.149          24.143  
C27  22602238.396   117695614.783       -1635.775          32.062  
C28  26764055.630   139367466.597       -2813.172          31.334  
C29  25418049.850   132358481.722        3337.788          28.446  
C30  21639032.210                        1268.175          25.530  
C33  27099444.245                       -2959.667          24.073  
E07                                                                  25435197.979   133662889.222        -319.589          32.755    25435200.677    99813190.408        -238.643          32.698  
E24                                                                  26978433.619                        -117.438          22.283    26978421.927   105869119.207         -87.121          27.200  
E26                                                                  25362946.797   133283182.630       -1361.372          25.553    25362952.194    99529676.987       -1016.655          32.088  
E31                                                                  26896190.355                       -2109.938          13.938  
E33                                                                  23525989.796                         716.814          19.019    23525998.790    92321088.200         542.363          26.712  
G01  20292767.110   106639239.5971       1468.246          26.024    20292769.508    79633190.757        1096.410          31.397  
G10  24931250.155   131014548.717       -3035.928          30.362    24931264.844                       -2267.961          23.036  
G14  23231658.058   122083223.881         -95.886          32.467  
G17  24143362.898   126874237.304        3521.008          31.019  
G21  20842760.057                        -130.057          19.223  
G22  22260370.366   116979045.692        1158.120          37.765  
G27  24550318.268   129012713.562       -3447.499          33.765    24550321.566    96340739.050       -2574.402          27.770  
G28  24226031.567                        1412.152          24.555  
G32  22758926.723   119598952.463        -588.891          37.375    22758926.423    89310911.139        -439.739          33.980  
R05  20474101.974   109445791.082       -2076.672          33.784  
R07  23555967.843                        4844.634          22.537  
R12  23260701.052                       -1397.988          18.640  
R20  20964318.704                       -2119.301          18.976  
> 2022  9 17  8 25 57.9996998  0 24
C06  39338029.149   204843434.861        1159.690          32.228  
C20  25583332.328   133219137.672        3762.164          24.443  
C27  22602611.937   117697563.366       -1636.363          32.158  
C28  26764656.714   139370592.373       -2813.556          31.111  
C29  25417469.452   132355456.427        3337.515          28.316  
C30  21638844.240                        1266.006          24.928  
C33  27100069.612                       -2960.619          24.434  
E07                                                                  25435319.095   133663524.674        -320.367          32.763    25435321.194    99813664.937        -239.240          32.963  
E24                                                                                                                                  26978502.871                         -88.114          26.759  
E26                                                                  25363267.875   133284859.630       -1361.916          25.025    25363269.974    99530929.280       -1017.003          32.073  
E33                                                                                                                                  23525919.945    92320781.487         542.003          26.727  
G01  20292544.664   106638087.088        1467.594          26.621    20292550.060    79632330.104        1095.943          31.400  
G10  24931888.713   131017900.010       -3036.208          30.151    24931901.604    97838062.0771      -2267.222          24.274  
G14  23231737.203   122083635.706         -96.741          32.938  
G17  24142752.220   126871031.783        3520.604          30.823  
G21  20842834.406                        -131.146          16.638  
G22  22260211.776   116978203.465        1157.312          37.561  
G27  24551030.575   129016476.495       -3447.849          33.938    24551037.470    96343549.049       -2574.709          27.624  
G28  24225822.312   127307532.7481       1411.953          25.393  
G32  22759096.705   119599857.311        -589.764          37.849    22759098.504    89311586.851        -440.422          33.765  
R05  20474549.564   109448189.251       -2077.656          33.861  
R07  23555142.814                        4843.968          22.384  
R12  23260994.249                       -1389.912          16.031  
R20  20964736.615                       -2123.314          18.745  
> 2022  9 17  8 25 58.9997000  0 24
C06  39337867.861   204842587.714        1159.366          32.029  
C20  25582664.990                        3763.045          24.510  
C27  22602984.879   117699512.482       -1636.896          31.956  
C28  26765257.198   139373718.446       -2813.854          31.504  
C29  25416889.653   132352431.512        3337.135          28.339  
C30  21638656.270   112678240.2651       1267.541          25.347  
C33  27100697.378   141120430.7021      -2961.419          24.442  
E07                                                                  25435440.511   133664160.750        -320.993          33.053    25435442.010    99814139.949        -239.721          33.137  
E24                                                                  26978598.505                        -118.433          23.057    26978585.314   105869765.8061        -88.281          26.935  
E26                                                                  25363585.655   133286536.946       -1362.232          24.580    25363588.653    99532181.812       -1017.243          32.257  
E33                                                                  23525830.307   123629126.1011        725.480          20.412    23525844.397    92320475.084         541.694          26.533  
G01  20292323.417   106636935.219        1466.953          26.640    20292330.312    79631469.925        1095.470          30.976  
G10  24932527.570   131021251.559       -3036.465          30.546    24932537.763    97840565.015       -2267.648          23.609  
G14  23231816.948   122084048.358         -97.569          33.087  
G17  24142140.944   126867826.595        3520.273          31.018  
G21  20842918.648                        -132.678          16.889  
G22  22260048.689   116977362.023        1156.526          37.543  
G27  24551747.379   129020239.719       -3448.140          33.958    24551753.675    96346359.279       -2574.940          28.127  
G28  24225616.055   127306436.673        1411.160          25.322  
G32  22759269.685   119600762.978        -590.583          37.848    22759270.885    89312263.196        -441.055          33.744  
R05  20475003.750   109450588.383       -2078.619          33.924  
R07  23554283.009                        4851.317          21.819  
R12  23261349.803                       -1393.624          12.912  
R20  20965246.562                       -2119.152          19.007  
> 2022  9 17  8 25 59.9997002  0 23
C06  39337706.572   204841741.317        1158.617          32.086  
C20  25582004.547                        3761.354          24.251  
C27  22603361.119   117701462.516       -1637.815          31.922  
C28  26765858.881   139376845.149       -2814.483          31.621  
C29  25416311.953   132349407.080        3336.652          28.238  
C30  21638476.994                        1266.121          25.676  
C33  27101327.242   141123704.970       -2962.048          24.232  
E07                                                                  25435562.826   133664797.837        -322.003          32.733    25435563.726    99814615.703        -240.464          33.247  
E24                                                                  26978678.549   141773811.5331       -119.155          22.935    26978668.656   105870090.017         -88.922          26.796  
E26                                                                  25363915.127   133288214.918       -1362.889          25.069    25363907.932    99533434.872       -1017.769          32.377  
E33                                                                                                                                  23525765.252    92320169.257         541.117          26.428  
G01  20292102.170   106635784.225        1466.078          26.490    20292112.063    79630610.391        1094.824          30.909  
G10  24933164.929   131024603.652       -3037.009          30.397    24933177.820    97843068.159       -2267.854          23.660  
G14  23231894.294   122084462.105         -98.663          33.023  
G17  24141529.067   126864622.063        3519.616          31.100  
G21  20842990.298                        -136.510          17.104  
G22  22259889.499   116976521.662        1155.444          37.542  
G27  24552464.782   129024003.535       -3448.732          33.921    24552471.078    96349169.945       -2575.376          27.996  
G28  24225405.301   127305341.725        1410.032          25.452  
G32  22759442.366   119601669.803        -591.741          37.768    22759442.965    89312940.369        -441.883          33.658  
R05  20475444.445   109452988.705       -2079.809          33.722  
R07  23553407.915                        4847.836          20.815  
R20  20965676.164                       -2116.972          17.890  
> 2022  9 17  8 26  0.9997004  0 23
C06  39337542.886   204840895.614        1157.923          32.412  
C20  25581347.102                        3760.081          23.876  
C27  22603732.861   117703413.339       -1638.603          31.814  
C28  26766459.066   139379972.388       -2815.020          31.707  
C29  25415731.255   132346383.313        3335.987          28.470  
C30  21638296.219                        1265.628          25.551  
C33  27101955.906   141126979.773       -2962.583          24.045  
E07                                                                  25435683.043   133665435.927        -323.006          32.900    25435685.741    99815092.166        -241.173          32.825  
E24                                                                  26978764.290                        -120.863          22.327    26978750.200   105870414.987         -89.679          27.271  
E26                                                                  25364230.808   133289893.643       -1363.641          24.735    25364228.110    99534688.469       -1018.308          32.243  
E33                                                                                                                                  23525686.706    92319863.908         540.639          26.315  
G01  20291884.221   106634634.226        1465.083          26.357    20291892.015    79629751.626        1094.055          30.701  
G10  24933801.388   131027956.324       -3037.588          30.284    24933815.479                       -2268.497          23.907  
G14  23231972.540   122084877.054         -99.864          33.139  
G17  24140921.388   126861418.240        3518.907          31.192  
G21  20843081.135                        -138.420          18.475  
G22  22259728.211   116975682.425        1154.322          37.280  
G27  24553180.387   129027767.992       -3449.373          33.751    24553187.282    96351981.019       -2575.784          28.150  
G28  24225193.947   127304247.706        1409.103          24.786  
G32  22759615.946   119602577.739        -592.853          38.007    22759615.646    89313618.363        -442.704          33.860  
R05  20475910.622   109455390.259       -2081.041          33.725  
R07  23552571.794                        4843.690          21.227  
R20  20966098.872                       -2125.057          17.975  
> 2022  9 17  8 26  1.9997006  0 23
C06  39337380.098   204840050.529        1157.304          32.049  
C20  25580683.661                        3764.380          23.482  
C27  22604110.000   117705364.997       -1639.439          32.388  
C28  26767059.850   139383100.119       -2815.511          31.233  
C29  25415147.559   132343359.993        3335.540          28.522  
C30  21638111.847   112675379.6801       1264.806          25.839  
C33  27102584.571                       -2963.950          24.382  
E07                                                                  25435804.459   133666074.903        -323.892          32.497    25435806.857    99815569.330        -241.874          33.267  
E24                                                                  26978848.832   141774682.9001       -120.984          22.615    26978834.142   105870740.716         -90.439          27.358  
E26                                                                  25364550.387   133291573.055       -1364.328          25.102    25364547.689    99535942.464       -1018.705          32.454  
E33                                                                                                                                  23525609.659                         539.800          26.835  
G01  20291669.569   106633484.933        1464.377          26.077    20291674.366    79628893.323        1093.593          30.549  
G10  24934444.443   131031309.400       -3037.992          30.611    24934453.137                       -2268.697          24.500  
G14  23232054.084   122085293.062        -100.924          33.186  
G17  24140312.210   126858214.971        3518.353          31.506  
G21  20843158.781                        -133.236          17.253  
G22  22259571.120   116974844.170        1153.338          37.666  
G27  24553896.591   129031532.899       -3449.823          33.860    24553902.887    96354792.560       -2576.251          27.837  
G28  24224990.388                        1407.383          24.741  
G32  22759787.727   119603486.737        -593.913          37.618    22759788.626    89314297.163        -443.510          33.424  
R05  20476349.218   109457792.904       -2082.133          33.735  
R07  23551753.360                        4841.632          21.830  
R20  20966565.948                       -2128.274          17.001  
> 2022  9 17  8 26  2.9997008  0 23
C06  39337218.510   204839206.018        1156.731          32.144  
C20  25580023.218                        3758.872          23.311  
C27  22604484.141   117707317.351       -1640.134          32.061  
C28  26767661.833   139386228.276       -2815.938          31.739  
C29  25414566.262   132340337.105        3335.107          28.524  
C30  21637930.772   112674427.715        1264.185          26.703  
C33  27103213.835                       -2963.456          24.663  
E07                                                                  25435924.976   133666714.753        -324.766          32.563    25435927.374    99816047.096        -242.476          32.901  
E24                                                                  26978928.277   141775119.840        -121.856          22.447    26978916.285   105871066.969         -90.963          26.696  
E26                                                                  25364871.765   133293252.778       -1364.639          25.870    25364867.568    99537196.878       -1019.124          32.251  
E33                                                                                                                                  23525532.013    92319254.6071        539.754          27.302  
G01  20291454.618   106632336.389        1463.628          26.230    20291455.518    79628035.677        1092.936          30.998  
G10  24935082.701   131034662.935       -3038.451          30.587    24935091.395                       -2268.800          23.277  
G14  23232131.130   122085710.016        -101.870          33.064  
G17  24139702.432   126855012.190        3517.865          31.263  
G21  20843272.403                        -138.185          18.167  
G22  22259409.232   116974006.862        1152.392          37.402  
G27  24554613.695   129035298.337       -3450.354          33.611    24554619.091    96357604.355       -2576.505          27.797  
G28  24224776.636                        1406.469          24.799  
G32  22759960.707   119604396.742        -594.922          38.001    22759961.906    89314976.648        -444.195          33.615  
R05  20476803.404   109460196.656       -2083.240          33.242  
R07  23550921.436                        4841.692          22.541  
R20  20967005.744                       -2122.927          17.955  
> 2022  9 17  8 26  3.9997010  0 24
C06  39337054.224   204838361.954        1156.283          32.411  
C20  25579362.476                        3757.509          22.784  
C27  22604858.282   117709270.303       -1640.732          32.228  
C28  26768261.418   139389356.808       -2816.312          31.487  
C29  25413982.866   132337314.557        3334.767          27.873  
C30  21637744.901   112673476.457        1263.477          26.623  
C33  27103845.198                       -2964.503          24.151  
E07                                                                  25436047.890   133667355.303        -325.466          32.825    25436050.289    99816525.454        -243.068          33.000  
E24                                                                  26979009.820                        -122.786          22.013    26978999.927                         -91.734          26.830  
E26                                                                  25365194.042   133294933.019       -1365.157          25.448    25365187.446    99538451.625       -1019.457          32.306  
E33                                                                                                                                  23525454.067    92318950.632         539.265          27.353  
G01  20291235.470   106631188.481        1462.992          27.472    20291236.070    79627178.505        1092.462          31.431  
G08                                                                  21770361.992                       -1811.331          19.712  
G10  24935721.859   131038016.742       -3038.724          30.535    24935727.555    97853084.3961      -2269.201          23.415  
G14  23232210.575   122086127.964        -102.864          32.805  
G17  24139092.654   126851809.830        3517.444          31.359  
G21  20843367.737                        -138.924          18.212  
G22  22259249.442   116973170.427        1151.519          37.173  
G27  24555331.398   129039064.137       -3450.717          34.032    24555334.696    96360416.469       -2576.824          27.494  
G28  24224576.075   127300971.3481       1406.343          25.154  
G32  22760135.786   119605307.575        -595.749          38.416    22760135.786    89315656.882        -444.944          33.776  
R05  20477242.900   109462601.393       -2084.225          33.199  
R07  23550102.703                        4843.379          22.792  
R20  20967468.324                       -2122.378          18.225  
> 2022  9 17  8 26  4.9997012  0 24
C06  39336893.835   204837518.367        1155.807          32.161  
C20  25578697.236                        3759.645          23.530  
C27  22605235.121   117711223.906       -1641.384          32.697  
C28  26768863.401   139392485.747       -2816.720          30.897  
C29  25413406.665   132334292.373        3334.404          27.671  
C30  21637562.327   112672525.835        1262.842          26.634  
C33  27104478.960                       -2967.852          23.933  
E07                                                                  25436169.306   133667996.607        -326.220          32.412    25436172.304    99817004.380        -243.637          32.986  
E24                                                                  26979096.160   141775996.1811       -123.488          22.473    26979085.368   105871721.3421        -92.191          26.956  
E26                                                                  25365514.220   133296613.769       -1365.666          25.540    25365507.025    99539706.747       -1019.832          32.029  
E33                                                                                                                                  23525376.121    92318647.074         538.848          27.346  
G01  20291016.921   106630041.325        1462.240          27.632    20291018.720    79626321.836        1091.959          31.212  
G08                                                                  21770880.633                       -1812.939          20.500  
G10  24936357.419   131041370.884       -3039.058          30.430    24936368.511    97855589.116       -2269.430          23.196  
G14  23232292.718   122086546.748        -103.700          32.905  
G17  24138484.375   126848607.918        3516.996          31.149  
G21  20843440.586                        -134.775          19.156  
G22  22259091.152   116972334.863        1150.647          37.259  
G27  24556051.199   129042830.265       -3451.044          33.820    24556051.799                       -2577.146          27.024  
G28  24224371.017                        1405.459          24.738  
G32  22760310.865   119606219.355        -596.696          38.260    22760308.466    89316337.764        -445.592          33.637  
R05  20477681.796   109465007.224       -2085.318          32.749  
R07  23549248.594                        4837.230          23.474  
R20  20967942.595                       -2125.331          15.878  
> 2022  9 17  8 26  5.9997014  0 25
C06  39336731.348   204836674.528        1156.058          32.311  
C20  25578037.993   133191554.0981       3759.301          23.486  
C27  22605612.560   117713177.397       -1641.271          32.956  
C28  26769463.286   139395614.285       -2816.318          30.837  
C29  25412825.667   132331269.805        3334.787          27.518  
C30  21637380.053   112671575.192        1262.862          26.372  
C33  27105102.828                       -2959.724          24.285  
E07                                                                  25436289.823   133668637.954        -326.262          32.485    25436293.720    99817483.318        -243.648          33.221  
E24                                                                  26979181.301                        -123.632          22.054    26979166.911   105872048.773         -92.141          26.837  
E26                                                                  25365835.597   133298294.221       -1365.369          24.720    25365827.503    99540961.613       -1019.576          32.217  
E33                                                                  23525285.883                         722.194          20.548    23525299.074    92318343.060         539.304          27.104  
G01  20290802.570   106628894.051        1462.358          28.407    20290800.771    79625465.106        1092.021          31.034  
G08                                                                  21771404.071                       -1813.802          21.025  
G10  24936999.574   131044724.588       -3038.620          30.519    24937006.769    97858093.461       -2269.055          23.769  
G14  23232371.264   122086965.749        -103.917          32.869  
G17  24137874.297   126845405.701        3517.301          31.325  
G21  20843523.929                        -135.562          18.778  
G22  22258934.660   116971499.419        1150.528          37.327  
G27  24556763.506   129046596.058       -3450.709          33.502    24556768.603    96366040.8601      -2576.831          27.040  
G28  24224165.359   127298790.4641       1405.437          24.481  
G32  22760485.344   119607131.317        -596.878          38.320    22760482.946    89317018.715        -445.661          33.796  
R05  20478129.386   109467413.242       -2085.506          32.467  
R07  23548377.098   126056501.0561       4842.093          23.245  
R12  23263613.835                       -1406.068          16.197  
R20  20968392.584                       -2126.015          16.641  
> 2022  9 17  8 26  6.9997016  0 25
C06  39336571.858   204835830.991        1155.757          32.338  
C20  25577378.449                        3756.870          23.353  
C27  22605986.701   117715131.377       -1641.760          33.061  
C28  26770064.370   139398743.053       -2816.549          30.989  
C29  25412246.768   132328247.435        3334.590          27.897  
C30  21637199.279   112670625.089        1262.323          26.426  
C33  27105732.992                       -2962.040          23.905  
E07                                                                  25436414.537   133669279.925        -326.888          32.825    25436416.335    99817962.728        -244.120          33.048  
E24                                                                  26979257.149                        -124.831          21.889    26979250.553   105872376.648         -92.586          27.212  
E26                                                                  25366157.575   133299974.993       -1365.688          24.837    25366146.482    99542216.735       -1019.832          32.380  
E33                                                                  23525214.233                         721.503          20.853    23525222.327    92318039.462         538.888          27.257  
G01  20290584.021   106627747.377        1461.757          28.706    20290581.323    79624608.828        1091.568          31.425  
G08                                                                  21771925.709                       -1815.503          22.070  
G10  24937634.235   131048078.475       -3038.803          30.355    24937643.828                       -2269.338          23.370  
G14  23232450.409   122087385.473        -104.640          32.856  
G17  24137266.618   126842203.749        3517.036          31.354  
G21  20843609.369                        -137.854          18.172  
G22  22258771.573   116970664.715        1149.788          37.148  
G27  24557484.207   129050362.031       -3450.889          33.278    24557485.107                       -2577.501          27.175  
G28  24223957.303                        1405.056          23.960  
G32  22760658.624   119608043.973        -597.572          38.443    22760655.926    89317700.331        -446.325          33.768  
R05  20478594.364   109469820.107       -2086.353          32.734  
R07  23547536.480                        4841.110          23.813  
R12  23263937.311                       -1406.435          16.766  
R20  20968812.293                       -2121.668          18.422  
> 2022  9 17  8 26  7.9997018  0 25
C06  39336407.272   204834986.850        1156.361          32.159  
C20  25576722.204   133184659.4641       3759.990          23.838  
C27  22606363.540   117717084.801       -1641.204          32.644  
C28  26770664.555   139401871.001       -2815.729          31.410  
C29  25411661.873   132325224.300        3335.354          28.872  
C30  21637014.606   112669674.472        1262.836          26.639  
C33  27106362.556                       -2964.135          23.185  
E07                                                                  25436535.653   133669921.464        -326.455          32.131    25436537.751    99818441.816        -243.798          32.830  
E24                                                                                                                                  26979335.695   105872704.335         -92.397          26.757  
E26                                                                  25366479.252   133301654.879       -1364.802          25.004    25366465.761    99543471.304       -1019.279          31.887  
E33                                                                  23525136.887                         723.587          19.767    23525146.780    92317735.394         539.358          27.890  
G01  20290368.770   106626600.086        1462.375          27.713    20290363.973    79623752.088        1092.030          31.580  
G08                                                                  21772448.548    85439772.4311      -1813.980          23.419  
G10  24938272.793   131051431.529       -3037.971          30.754    24938282.986    97863101.8391      -2268.515          24.837  
G14  23232529.255   122087805.019        -104.462          32.892  
G17  24136658.339   126839001.040        3517.793          31.317  
G21  20843688.215                        -137.157          18.512  
G22  22258612.084   116969829.651        1150.148          37.077  
G27  24558196.814   129054127.175       -3450.060          32.830    24558200.412    96371664.8651      -2576.366          26.808  
G28  24223747.449   127296610.7481       1405.000          24.186  
G32  22760832.504   119608956.442        -597.385          38.316    22760829.805    89318381.630        -446.010          33.617  
R05  20479052.747   109472226.846       -2086.226          32.758  
R07  23546699.159                        4841.959          23.234  
R12  23264233.506                       -1402.707          17.411  
R20  20969342.326                       -2119.835          18.970  
> 2022  9 17  8 26  8.9997020  0 25
C06  39336244.185   204834141.819        1157.250          31.568  
C20  25576062.061                        3761.452          22.762  
C27  22606738.281   117719037.605       -1640.585          32.502  
C28  26771264.739   139404998.028       -2814.807          31.655  
C29  25411080.575   132322200.163        3336.357          29.155  
C30  21636832.932   112668723.247        1263.445          26.887  
C33  27106989.122                       -2964.690          23.070  
E07                                                                  25436657.668   133670562.505        -325.957          32.661    25436660.366    99818920.442        -243.336          33.121  
E24                                                                  26979419.936                        -123.341          21.102    26979417.538   105873031.536         -91.911          26.843  
E26                                                                  25366798.231                       -1363.776          24.970    25366786.239    99544725.236       -1018.642          32.271  
E33                                                                  23525056.842                         722.543          21.162    23525067.635    92317430.674         540.010          27.789  
G01  20290148.722   106625452.250        1462.921          27.811    20290146.024    79622894.932        1092.446          31.684  
G08                                                                  21772968.088    85441820.962       -1813.241          21.250  
G10  24938910.152   131054783.599       -3036.985          30.722    24938919.745    97865605.112       -2267.983          24.543  
G14  23232612.597   122088224.138        -104.035          32.814  
G17  24136046.763   126835797.492        3518.633          31.454  
G21  20843768.559                        -136.642          15.694  
G22  22258456.191   116968994.183        1150.552          37.250  
G27  24558911.220   129057891.491       -3449.232          32.881    24558916.616    96374475.844       -2575.689          26.629  
G28  24223541.191                        1405.840          23.478  
G32  22761006.383   119609868.487        -596.961          38.255    22761003.385    89319062.671        -445.751          33.802  
R05  20479490.144   109474633.244       -2085.886          31.893  
R07  23545845.350                        4844.734          23.651  
R12  23264525.804                       -1406.306          18.236  
R20  20969762.935                       -2117.124          17.966  
> 2022  9 17  8 26  9.9997023  0 26
C06  39336111.377   204833452.644        1157.505          31.838  
C20  25575422.603                        3760.806          21.962  
C27  22607143.001   117721146.380       -1640.446          32.380  
C28  26771896.102   139408280.771       -2814.414          31.222  
C29  25410530.756   132319331.805        3336.687          28.328  
C30  21636681.837   112667928.122        1263.454          25.738  
C32  22336636.368                        1916.321          16.517  
C33  27107648.066                       -2962.527          23.724  
E07                                                                  25436811.462   133671361.072        -325.941          32.211    25436811.762    99819516.811        -243.434          33.021  
E24                                                                  26979534.157   141778346.4391       -123.162          22.695    26979530.560   105873476.457         -91.986          27.491  
E26                                                                  25367147.189   133305170.5871      -1363.874          24.432    25367134.898    99546096.618       -1018.447          32.293  
E33                                                                  23525023.565   123624799.5101        723.590          19.695    23525019.968    92317243.395         540.213          27.141  
G01  20289957.455   106624461.835        1463.041          27.051    20289955.956    79622155.331        1092.536          31.470  
G08                                                                  21773520.006                       -1814.152          19.435  
G10  24939580.188   131058292.736       -3036.511          30.487    24939585.284                       -2267.793          23.111  
G14  23232719.023   122088800.978        -104.214          32.535  
G17  24135466.964   126832751.173        3518.944          31.543  
G21  20843900.468                        -135.748          17.369  
G22  22258324.882   116968316.419        1150.390          37.219  
G27  24559659.502   129061812.961       -3448.844          32.850    24559661.900    96377404.215       -2575.436          26.119  
G28  24223364.314                        1404.399          23.124  
G32  22761208.143   119610938.215        -597.102          38.040    22761208.143    89319861.529        -445.923          33.708  
R05  20479967.414   109477200.159       -2086.146          32.295  
R07  23545015.825                        4843.857          24.296  
R12  23264891.851                       -1409.311          15.188  
R20  20970277.379                       -2121.846          17.685  
> 2022  9 17  8 26 10.9997025  0 24
C06  39335949.189   204832608.923        1155.941          31.914  
C20  25574759.762                        3759.978          22.251  
C27  22607518.041   117723100.786       -1642.186          33.074  
C28  26772496.886   139411408.834       -2815.843          31.550  
C29  25409948.259   132316308.714        3335.310          28.161  
C30  21636499.263   112666978.654        1261.688          26.782  
C32  22336314.691                        1924.585          15.456  
C33  27108274.632   141159890.7381      -2963.200          23.651  
E07                                                                  25436934.677   133672003.943        -327.787          32.820    25436934.677    99819996.829        -244.728          33.320  
E24                                                                  26979615.101                        -124.616          21.889    26979614.202   105873805.018         -93.271          26.743  
E26                                                                  25367467.967                       -1366.614          24.002    25367454.177    99547351.436       -1019.529          32.013  
E33                                                                  23524949.816                         716.232          19.680    23524941.122    92316939.718         538.968          26.943  
G01  20289740.105   106623315.675        1461.244          27.583    20289737.407    79621299.432        1091.189          31.286  
G10  24940214.549                       -3038.548          30.436    24940226.241    97870729.3981      -2268.583          23.702  
G14  23232801.466   122089222.241        -106.179          32.640  
G17  24134857.186   126829548.802        3517.456          31.618  
G22  22258166.892   116967482.984        1148.519          37.198  
G27  24560379.003   129065578.344       -3450.299          32.794    24560378.104    96380215.967       -2576.462          25.973  
G28  24223155.358                        1403.091          22.860  
G32  22761382.623   119611852.375        -599.077          37.856    22761380.524    89320544.226        -447.407          33.889  
R05  20480423.098   109479608.768       -2088.097          31.915  
R07  23544192.295                        4841.442          24.794  
R12  23265207.232                       -1409.963          15.148  
R20  20970736.361                       -2128.762          18.617  
> 2022  9 17  8 26 11.9997027  0 24
C06  39335787.901   204831766.399        1154.744          31.878  
C20  25574104.116                        3755.811          22.500  
C27  22607896.379   117725056.497       -1643.492          33.575  
C28  26773099.469   139414537.930       -2816.876          31.657  
C29  25409371.158   132313286.662        3334.272          28.439  
C30  21636321.486   112666030.447        1260.427          27.349  
C32  22336015.198                        1920.869          12.397  
C33  27108901.798   141163167.231       -2964.274          24.001  
E07                                                                  25437055.493   133672648.238        -329.211          32.723    25437056.692    99820477.982        -245.863          33.207  
E24                                                                  26979697.844                        -127.080          21.076    26979698.743   105874134.748         -94.439          27.127  
E26                                                                  25367789.944                       -1367.176          23.979    25367774.955    99548607.193       -1020.467          32.181  
E33                                                                  23524874.868                         715.156          19.649    23524864.075    92316636.891         538.116          26.661  
G01  20289525.754   106622170.834        1459.925          27.936    20289520.957    79620444.522        1090.200          31.235  
G08                                                                  21774568.980                       -1816.608          22.265  
G10  24940855.505   131065000.2741      -3038.963          30.629    24940864.799                       -2269.653          24.592  
G14  23232880.012   122089645.134        -107.810          32.661  
G17  24134249.507   126826347.593        3516.292          31.368  
G22  22258010.100   116966651.161        1146.907          37.180  
G27  24561094.008   129069344.763       -3451.335          31.978    24561095.208    96383028.462       -2577.206          26.270  
G28  24222950.900                        1396.056          22.615  
G32  22761556.502   119612768.111        -600.652          38.147    22761555.303    89321228.048        -448.532          33.740  
R05  20480867.091   109482019.176       -2089.896          32.127  
R07  23543359.471                        4839.744          24.950  
R20  20971224.124                       -2134.452          16.827  
> 2022  9 17  8 26 12.9997029  0 24
C06  39335625.713   204830924.459        1154.159          31.940  
C20  25573449.070                        3754.824          22.748  
C27  22608272.319   117727012.955       -1644.239          33.869  
C28  26773700.853   139417667.596       -2817.446          31.738  
C29  25408790.161   132310265.123        3333.758          28.512  
C30  21636141.311   112665083.067        1259.599          27.584  
C32  22335698.018                        1909.363          16.269  
C33  27109538.257                       -2967.404          23.754  
E07                                                                  25437176.909   133673293.513        -330.190          32.839    25437179.307    99820959.830        -246.558          33.294  
E24                                                                  26979788.081                        -127.599          21.218    26979782.685   105874465.118         -95.080          26.524  
E26                                                                  25368109.223                       -1366.347          23.464    25368094.234    99549863.404       -1020.920          32.141  
E33                                                                                                                                  23524788.228    92316334.563         537.619          26.142  
G01  20289302.408   106621026.876        1459.042          27.935    20289303.308    79619590.247        1089.565          31.177  
G08                                                                  21775090.618                       -1816.562          22.157  
G10  24941494.663   131068354.285       -3038.927          30.438    24941502.757                       -2269.248          24.235  
G14  23232959.457   122090069.093        -108.874          32.651  
G17  24133637.031   126823146.912        3515.765          31.300  
G22  22257851.210   116965820.326        1145.919          37.085  
G27  24561807.514   129073111.652       -3451.805          32.134    24561812.011    96385841.500       -2577.747          26.015  
G28  24222739.546                        1399.986          21.954  
G32  22761732.480   119613684.964        -601.768          37.860    22761729.183    89321912.759        -449.421          33.681  
R05  20481305.687   109484430.641       -2090.952          31.412  
R07  23542513.157                        4839.927          24.620  
R20  20971612.055                       -2133.029          18.826  
> 2022  9 17  8 26 13.9997031  0 23
C06  39335464.724   204830083.003        1153.675          31.974  
C20  25572779.633                        3759.247          21.533  
C27  22608646.760   117728970.112       -1644.938          34.279  
C28  26774301.936   139420797.629       -2817.813          31.888  
C29  25408210.962   132307243.913        3333.429          28.237  
C30  21635960.536   112664136.537        1258.750          27.170  
C33  27110160.027                       -2965.526          23.366  
E07                                                                  25437302.222   133673939.499        -330.902          32.768    25437301.922    99821442.224        -247.104          33.088  
E24                                                                  26979870.225   141780113.7351       -128.191          20.992    26979867.826   105874796.031         -95.623          26.319  
E26                                                                  25368428.502                       -1368.071          23.442    25368414.412    99551119.956       -1021.262          32.279  
E33                                                                  23524722.573                         714.748          20.611    23524712.381    92316032.579         537.274          26.821  
G01  20289087.457   106619883.624        1458.336          28.101    20289086.258    79618736.542        1088.995          31.336  
G08                                                                  21775615.555                       -1816.868          22.631  
G10  24942132.021   131071709.143       -3039.774          30.674    24942141.315                       -2270.227          24.006  
G14  23233039.501   122090494.007        -109.830          32.447  
G17  24133031.150   126819946.689        3515.307          31.437  
G22  22257693.819   116964990.388        1145.022          37.110  
G27  24562527.616   129076879.087       -3452.351          32.457    24562528.815    96388654.792       -2578.003          25.831  
G28  24222535.987                        1404.646          21.834  
G32  22761906.060   119614602.711        -602.663          37.825    22761905.461    89322598.059        -450.010          33.719  
R05  20481791.651   109486843.149       -2091.995          31.403  
R07  23541662.046                        4839.632          25.226  
R20  20972079.132                       -2126.388          19.608  
> 2022  9 17  8 26 14.9997033  0 24
C06  39335303.436   204829241.696        1153.526          31.771  
C20  25572117.092                        3757.938          21.206  
C27  22609028.096   117730927.557       -1645.225          33.969  
C28  26774903.020   139423927.641       -2817.793          31.846  
C29  25407628.165   132304222.760        3333.373          28.670  
C30  21635773.765   112663190.225        1258.531          27.530  
C33  27110790.190                       -2963.620          23.221  
E07                                                                  25437426.036   133674585.909        -331.326          32.862    25437425.137    99821924.970        -247.456          32.996  
E24                                                                  26979952.967   141780557.300        -128.481          21.404    26979951.768   105875127.323         -96.002          26.426  
E26                                                                  25368742.085   133313580.3171      -1367.766          23.601    25368735.190    99552376.579       -1021.333          32.301  
E33                                                                  23524639.531                         715.527          19.952    23524633.235    92315730.742         537.127          26.751  
G01  20288868.009   106618740.628        1458.081          27.854    20288868.609    79617883.007        1088.825          31.463  
G08                                                                  21776136.295                       -1816.745          22.274  
G10  24942768.181   131075063.943       -3039.716          30.448    24942778.374                       -2270.100          24.400  
G14  23233121.645   122090919.466        -110.375          32.448  
G17  24132422.272   126816746.624        3515.149          31.140  
G22  22257537.927   116964160.993        1144.480          36.984  
G27  24563239.323   129080646.425       -3452.254          32.439    24563244.420    96391468.071       -2577.989          25.922  
G28  24222323.434                        1398.600          21.674  
G32  22762078.141   119615521.033        -603.238          37.815    22762078.441    89323283.783        -450.434          33.622  
R05  20482223.652   109489256.389       -2092.727          31.365  
R07  23540810.336   126015974.3701       4840.161          26.290  
R12  23266616.557                       -1401.980          15.768  
R20  20972520.126                       -2125.520          19.137  
> 2022  9 17  8 26 15.9997035  0 24
C06  39335140.949   204828399.005        1154.911          31.954  
C20  25571459.047                        3757.970          20.970  
C27  22609401.937   117732883.683       -1643.906          34.127  
C28  26775504.404   139427056.131       -2816.270          31.694  
C29  25407048.666   132301200.132        3334.847          28.334  
C30  21635593.890   112662242.716        1259.729          27.648  
C33  27111421.254                       -2963.061          23.060  
E07                                                                  25437545.953   133675231.222        -330.229          32.676    25437548.052    99822406.856        -246.596          32.906  
E24                                                                  26980029.414                        -125.306          20.523    26980036.010   105875457.860         -95.247          26.334  
E26                                                                  25369060.465   133315261.600       -1366.198          23.790    25369054.469    99553632.135       -1020.266          32.146  
E33                                                                  23524567.581                         716.967          20.670    23524556.488    92315427.837         538.195          26.890  
G01  20288650.060   106617596.419        1459.293          27.387    20288650.060    79617028.605        1089.692          31.269  
G08                                                                  21776659.732                       -1815.900          22.193  
G10  24943406.439   131078417.225       -3038.198          30.779    24943416.332    97883253.5471      -2268.734          23.664  
G14  23233203.188   122091343.968        -109.418          32.522  
G17  24131812.794   126813545.003        3516.704          31.096  
G21  20844418.210                        -144.149          18.288  
G22  22257377.538   116963330.559        1145.518          37.055  
G27  24563961.224   129084412.233       -3450.724          32.306    24563964.521    96394280.250       -2576.889          25.706  
G28  24222121.075                        1396.289          21.383  
G32  22762254.719   119616438.364        -602.247          37.646    22762253.820    89323968.836        -449.764          33.814  
R07  23539975.414   126011453.734        4841.598          26.041  
R12  23266892.965                       -1407.732          16.479  
R20  20973027.375                       -2128.415          19.191  
> 2022  9 17  8 26 16.9997037  0 26
C06  39334977.861   204827554.330        1156.894          31.922  
C20  25570794.707                        3759.022          21.015  
C27  22609773.679   117734838.077       -1642.174          34.211  
C28  26776103.689   139430182.593       -2814.242          31.731  
C29  25406468.568   132298175.399        3336.953          28.273  
C30  21635416.713   112661293.486        1261.450          27.710  
C32  22334463.173                        1913.464          12.412  
C33  27112052.916                       -2961.481          23.330  
E07                                                                  25437670.967   133675874.803        -328.497          32.943    25437670.967    99822887.453        -245.307          33.068  
E24                                                                  26980114.555   141781440.5491       -125.771          19.909    26980118.752                         -93.439          26.481  
E26                                                                  25369387.838   133316940.962       -1364.278          23.152    25369374.048    99554886.167       -1018.742          32.266  
E33                                                                  23524488.735                         718.480          21.191    23524478.842    92315123.475         539.652          26.790  
G01  20288433.909   106616450.409        1461.094          27.465    20288431.511    79616172.770        1091.125          31.495  
G08                                                                  21777182.270    85458345.9491      -1814.842          21.641  
G10  24944045.896   131081768.327       -3036.018          30.679    24944055.490    97885756.015       -2267.178          24.262  
G14  23233282.034   122091766.908        -107.857          32.442  
G17  24131202.116   126810341.361        3518.726          31.234  
G21  20844512.944                        -138.732          18.051  
G22  22257220.147   116962498.514        1147.129          37.269  
G27  24564675.629   129088175.975       -3448.657          32.509    24564677.727    96397090.848       -2575.308          25.222  
G28  24221908.222                        1401.134          20.874  
G32  22762427.999   119617354.118        -600.671          37.333    22762427.999    89324652.666        -448.540          33.769  
R05  20483149.411   109494079.4721      -2090.235          30.804  
R07  23539124.004   126006931.033        4843.663          26.427  
R12  23267218.540                       -1412.922          16.760  
R20  20973486.058                       -2127.556          20.424  
> 2022  9 17  8 26 17.9997039  0 26
C06  39334817.473   204826707.811        1158.739          32.064  
C20  25570133.965                        3764.770          21.140  
C27  22610150.219   117736790.763       -1640.466          34.150  
C28  26776703.574   139433307.078       -2812.265          31.681  
C29  25405885.771   132295148.635        3338.984          28.070  
C30  21635236.238   112660342.571        1263.135          27.730  
C32  22334145.992                        1906.468          12.623  
C33  27112680.982                       -2963.164          23.690  
E07                                                                  25437791.783   133676516.807        -326.920          32.682    25437792.982    99823366.892        -244.149          33.117  
E24                                                                  26980195.799                        -124.082          19.351    26980204.193   105876114.9531        -92.646          25.912  
E26                                                                  25369704.419   133318618.255       -1362.208          22.468    25369693.627    99556138.829       -1017.372          32.115  
E33                                                                  23524402.695                         720.175          20.318    23524401.196    92314817.722         541.044          26.883  
G01  20288219.258   106615302.768        1462.725          27.750    20288213.262    79615315.830        1092.230          31.674  
G08                                                                  21777704.209                       -1813.345          22.345  
G10  24944682.056   131085117.384       -3033.973          30.653    24944690.750                       -2265.387          24.307  
G14  23233364.476   122092188.453        -106.460          32.423  
G17  24130593.538   126807135.887        3520.558          31.208  
G21  20844606.479                        -133.368          18.179  
G22  22257063.056   116961665.006        1148.592          37.218  
G27  24565395.431   129091937.737       -3446.678          32.793  
G28  24221695.369                        1405.936          21.524  
G32  22762602.778   119618268.467        -599.265          37.313    22762601.879    89325335.443        -447.487          33.543  
R05  20483595.502   109496488.847       -2088.862          30.448  
R07  23538299.274   126002406.376        4845.620          26.550  
R12  23267494.948                       -1412.470          16.215  
R20  20973940.543                       -2123.265          19.889  
> 2022  9 17  8 26 18.9997041  0 25
C06  39334652.886   204825859.598        1160.433          32.005  
C20  25569466.627                        3765.390          20.306  
C27  22610523.460   117738741.906       -1638.924          33.874  
C28  26777304.358   139436429.725       -2810.428          31.461  
C29  25405302.975   132292120.092        3340.762          27.817  
C30  21635048.867   112659390.241        1264.549          28.079  
C33  27113309.946                       -2958.297          23.583  
E07                                                                  25437913.499   133677157.366        -325.475          32.593    25437916.197    99823845.209        -243.027          33.355  
E24                                                                  26980287.236   141782317.5921       -122.648          18.348    26980286.037                         -91.218          26.091  
E26                                                                  25370022.199   133320294.025       -1360.687          22.504    25370013.505    99557390.149       -1016.030          32.349  
E33                                                                  23524323.550                         722.400          20.767    23524322.351    92314510.762         542.250          26.601  
G01  20287996.512   106614153.538        1464.314          28.119    20287994.414    79614457.636        1093.484          31.774  
G08                                                                  21778225.848    85462442.8101      -1812.619          21.783  
G10  24945321.513   131088464.614       -3032.146          30.789    24945327.509    97890756.4451      -2264.184          24.583  
G14  23233443.322   122092608.635        -105.099          32.394  
G17  24129982.860   126803928.560        3522.411          31.268  
G21  20844673.033                        -132.197          20.196  
G22  22256902.667   116960830.152        1149.938          37.382  
G27  24566109.836   129095697.703       -3444.882          32.821  
G28  24221488.512                        1407.227          21.618  
G32  22762774.559   119619181.463        -597.912          37.142    22762776.358    89326017.230        -446.497          33.875  
R05  20484043.991   109498897.013       -2087.653          30.132  
R07  23537448.763   125997879.865        4847.474          26.945  
R12  23267787.546                       -1396.853          16.191  
R20  20974371.045                       -2119.485          19.890  
> 2022  9 17  8 26 19.9997043  0 24
C06  39334490.999   204825010.025        1161.793          31.821  
C20  25568791.194                        3768.182          19.545  
C27  22610894.304   117740691.770       -1637.644          34.054  
C28  26777904.243   139439550.900       -2808.955          31.469  
C29  25404723.476   132289090.025        3342.287          27.818  
C30  21634862.396   112658436.670        1265.791          28.263  
C33  27113938.311   141189358.5671      -2956.154          23.957  
E07                                                                  25438037.913   133677796.790        -324.340          32.461    25438036.414    99824322.687        -242.188          33.074  
E24                                                                  26980370.278                        -125.623          18.429    26980369.079   105876767.9611        -90.798          26.329  
E26                                                                  25370343.277                       -1358.775          21.036    25370331.885    99558640.396       -1014.957          31.854  
E33                                                                                                                                  23524244.404    92314202.708         543.344          26.665  
G01  20287776.165   106613003.180        1465.441          28.037    20287776.764    79613598.578        1094.349          31.705  
G10  24945960.671   131091810.267       -3030.568          31.077    24945968.166                       -2262.833          24.951  
G14  23233525.165   122093027.933        -104.213          32.645  
G17  24129372.483   126800719.834        3523.810          31.182  
G21  20844756.375                        -129.473          20.169  
G22  22256742.578   116959994.272        1150.964          37.289  
G27  24566822.443   129099456.149       -3443.362          33.212  
G28  24221287.352                        1402.454          21.250  
G32  22762945.441   119620093.522        -596.974          37.039    22762949.038    89326698.298        -445.778          33.964  
R05  20484484.387   109501304.228       -2086.703          30.213  
R07  23536602.749   125993351.857        4848.970          27.427  
R12  23268118.217                       -1381.892          14.934  
R20  20974832.725                       -2119.904          20.548  
> 2022  9 17  8 26 20.9997045  0 23
C06  39334327.312   204824160.376        1161.869          31.518  
C20  25568131.651                        3767.703          18.962  
C27  22611272.642   117742641.845       -1637.856          33.971  
C28  26778502.029   139442671.958       -2808.838          31.399  
C29  25404141.879   132286059.764        3342.481          27.438  
C30  21634685.819   112657483.295        1265.594          27.846  
C33  27114562.779   141192626.900       -2956.113          23.773  
E07                                                                  25438156.331   133678436.545        -324.671          32.630    25438157.830    99824800.454        -242.477          32.964  
E24                                                                  26980440.430                        -106.798          19.475    26980452.122   105877094.260         -91.009          26.586  
E26                                                                  25370654.761   133323642.5551      -1359.279          19.703    25370649.365    99559890.646       -1014.960          31.954  
E33                                                                  23524158.364                         727.720          20.659    23524165.559    92313894.546         543.452          26.490  
G01  20287557.916   106611852.950        1465.315          28.049    20287557.916    79612739.664        1094.204          31.954  
G10  24946592.933   131095155.729       -3030.378          30.731    24946602.826    97895753.0671      -2262.946          25.042  
G14  23233604.610   122093447.604        -104.587          32.758  
G17  24128762.106   126797511.050        3523.868          31.244  
G21  20844851.709                        -133.023          20.930  
G22  22256582.189   116959158.812        1150.544          37.487  
G27  24567538.347   129103214.486       -3443.253          33.183  
G32  22763122.618   119621005.982        -597.376          37.026    22763123.518    89327379.689        -446.101          34.062  
R05  20484935.874   109503711.980       -2087.239          30.009  
R07  23535753.437   125988823.792        4849.027          27.624  
R12  23268397.923                       -1378.115          14.351  
R20  20975305.498                       -2123.360          20.131  
> 2022  9 17  8 26 21.9997047  0 23
C06  39334165.424   204823311.614        1160.982          31.474  
C20  25567473.007                        3762.758          19.729  
C27  22611647.082   117744592.884       -1638.819          34.008  
C28  26779103.412   139445793.709       -2809.531          31.560  
C29  25403561.480   132283030.325        3341.658          28.009  
C30  21634500.847   112656530.971        1264.544          27.916  
C33  27115191.444                       -2956.294          23.953  
E07                                                                  25438282.543   133679077.384        -325.755          32.526    25438280.145    99825278.985        -243.241          33.367  
E24                                                                                                                                  26980536.663                         -92.326          26.052  
E26                                                                  25370972.841   133325317.569       -1359.930          19.870    25370968.944    99561141.528       -1015.592          32.113  
E33                                                                  23524079.219   123619865.5581        726.581          20.940    23524087.013    92313587.236         542.599          26.496  
G01  20287337.269   106610703.812        1464.221          27.484    20287337.868    79611881.537        1093.417          31.921  
G10  24947232.990   131098501.918       -3031.105          30.925    24947238.986                       -2263.635          24.905  
G14  23233685.254   122093868.620        -105.932          32.910  
G17  24128149.929   126794303.052        3523.082          31.273  
G21  20844943.746                        -134.373          20.151  
G22  22256426.896   116958324.556        1149.341          37.374  
G27  24568255.151   129106973.553       -3443.982          33.784  
G28  24220879.034                        1408.904          21.296  
G32  22763296.498   119621919.701        -598.635          36.758    22763297.097    89328062.061        -447.082          34.124  
R05  20485389.760   109506121.108       -2088.616          29.885  
R07  23534916.716   125984296.402        4848.353          27.114  
R20  20975747.092                       -2124.155          20.280  
> 2022  9 17  8 26 22.9997049  0 23
C06  39334000.838   204822464.262        1159.571          31.447  
C20  25566805.969                        3760.357          20.345  
C27  22612020.924   117746545.530       -1640.427          33.827  
C28  26779704.796   139448916.749       -2810.821          31.495  
C29  25402976.585   132280002.073        3340.472          27.863  
C30  21634315.275   112655580.274        1262.917          27.926  
C33  27115821.008                       -2960.709          23.975  
E07                                                                  25438402.161   133679719.941        -327.474          32.689    25438402.161    99825758.774        -244.498          33.071  
E24                                                                  26980619.106                        -112.187          19.576    26980618.506                         -91.691          26.342  
E26                                                                                                                                  25371288.223    99562393.440       -1016.622          31.986  
E33                                                                  23524001.273   123619455.345         725.297          21.155    23524009.367    92313280.884         541.642          26.598  
G01  20287117.821   106609556.245        1462.651          26.751    20287119.919    79611024.566        1092.260          31.975  
G10  24947869.449   131101849.371       -3032.370          30.831    24947875.745                       -2265.094          25.069  
G14  23233766.198   122094291.403        -107.699          32.804  
G17  24127539.552   126791096.434        3521.702          31.439  
G21  20845032.185                        -137.849          19.804  
G22  22256267.706   116957492.108        1147.532          37.373  
G27  24568972.254   129110733.928       -3445.292          33.584  
G28  24220670.978                        1401.394          21.076  
G32  22763470.377   119622835.372        -600.587          36.805    22763471.577    89328745.793        -448.442          34.037  
R05  20485843.046   109508532.184       -2090.563          29.906  
R07  23534063.207   125979770.526        4846.839          27.260  
R20  20976209.073                       -2124.292          20.466  
> 2022  9 17  8 26 23.9997051  0 22
C06  39333838.950   204821618.105        1158.376          31.610  
C20  25566141.029                        3763.209          19.923  
C27  22612395.065   117748499.436       -1641.687          33.749  
C28  26780302.283   139452040.885       -2811.916          31.482  
C29  25402394.688   132276974.982        3339.310          27.868  
C30  21634134.800   112654630.954        1261.540          27.898  
C33  27116444.876                       -2960.231          23.505  
E07                                                                  25438529.273   133680363.927        -328.901          32.676    25438524.776    99826239.692        -245.629          32.881  
E24                                                                  26980700.050                        -110.487          19.330    26980704.547   105878079.3001        -94.301          26.175  
E26                                                                  25371612.298   133328671.8161      -1362.609          20.667    25371607.502    99563646.176       -1017.445          32.100  
E33                                                                  23523927.224                         723.497          21.379    23523931.121    92312975.465         540.709          26.532  
G01  20286893.876   106608410.124        1461.205          26.217    20286901.970    79610168.649        1091.207          31.847  
G10  24948505.909   131105197.807       -3033.351          30.791    24948514.903                       -2265.631          24.742  
G14  23233846.243   122094715.877        -109.389          32.727  
G17  24126932.172   126787890.973        3520.544          31.557  
G22  22256109.116   116956661.254        1145.937          37.351  
G27  24569689.358   129114495.356       -3446.343          33.359  
G28  24220466.220                        1399.184          21.426  
G32  22763645.156   119623752.547        -602.092          36.872    22763646.056    89329430.699        -449.616          34.081  
R05  20486288.238   109510944.946       -2092.250          29.984  
R07  23533206.400   125975245.682        4845.807          27.473  
R20  20976659.061                       -2126.282          20.212  
> 2022  9 17  8 26 24.9997053  0 24
C06  39333674.064   204820773.063        1157.262          31.596  
C20  25565480.586                        3763.079          19.278  
C27  22612769.206   117750454.714       -1643.058          33.649  
C28  26780903.966   139455166.067       -2812.962          31.689  
C29  25401813.990   132273948.836        3338.366          27.715  
C30  21633952.826   112653682.911        1260.262          27.886  
C32  22331980.891                        1910.053          15.649  
C33  27117074.140                       -2960.660          23.892  
E07                                                                  25438648.890   133681009.359        -330.348          32.582    25438647.990    99826721.665        -246.683          32.997  
E24                                                                  26980786.390                        -110.273          18.632    26980786.990   105878409.923         -95.332          26.564  
E26                                                                  25371929.779                       -1364.520          20.590    25371927.080    99564899.792       -1018.326          32.317  
E33                                                                  23523850.177                         722.268          21.208    23523855.873    92312670.847         539.909          26.145  
G01  20286675.027   106607265.308        1459.900          26.260    20286685.220    79609313.809        1090.130          31.670  
G10  24949143.567   131108547.221       -3034.331          30.626    24949150.762                       -2266.412          24.570  
G14  23233928.086   122095141.906        -110.945          32.789  
G17  24126320.596   126784686.594        3519.463          31.545  
G21  20845195.272                        -137.455          20.024  
G22  22255952.025   116955831.916        1144.422          36.947  
G27  24570401.065   129118257.861       -3447.421          33.518    24570408.260    96419554.5761      -2574.389          26.986  
G28  24220254.567                        1399.193          22.054  
G32  22763819.935   119624671.313        -603.681          36.779    22763819.636    89330116.831        -450.842          33.684  
R05  20486741.224   109513359.463       -2094.004          29.339  
R07  23532377.474   125970721.948        4844.697          27.419  
R20  20977137.230                       -2127.102          20.409  
> 2022  9 17  8 26 25.9997055  0 24
C06  39333514.275   204819928.480        1156.802          31.645  
C20  25564816.246                        3762.649          18.581  
C27  22613146.045   117752410.544       -1643.610          33.717  
C28  26781500.853   139458291.509       -2813.223          31.644  
C29  25401232.992   132270923.001        3338.054          27.966  
C30  21633769.053   112652735.563        1259.568          27.876  
C32  22331690.392                        1907.694          15.058  
C33  27117707.901   141208982.4001      -2960.470          23.973  
E07                                                                  25438770.606   133681655.531        -331.088          32.329    25438770.306    99827204.292        -247.337          33.113  
E24                                                                  26980869.733                        -111.844          17.623    26980873.630   105878741.247         -96.034          25.924  
E26                                                                  25372252.655                       -1364.489          20.288    25372246.659    99566153.766       -1018.684          32.135  
E33                                                                  23523768.334   123618231.1441        722.451          21.771    23523776.428    92312366.712         539.425          26.233  
G01  20286457.078                        1458.560          26.372    20286466.072    79608459.364        1089.735          31.927  
G10  24949778.828   131111896.942       -3034.636          30.892    24949789.020    97908254.5771      -2266.094          24.629  
G14  23234007.831   122095568.832        -111.842          32.717  
G17  24125712.317   126781482.596        3519.082          31.308  
G21  20845285.809                        -141.069          19.019  
G22  22255790.437   116955003.435        1143.565          37.070  
G27  24571118.169   129122020.741       -3447.796          33.590    24571125.664    96422364.462       -2574.596          27.448  
G28  24220036.917                        1402.261          21.640  
G32  22763995.314   119625590.996        -604.600          37.045    22763995.914    89330803.538        -451.418          33.920  
R05  20487195.110   109515774.875       -2094.900          29.192  
R07  23531538.355   125966198.684        4844.226          28.127  
R20  20977580.623                       -2129.691          19.822  
> 2022  9 17  8 26 26.9997057  0 24
C06  39333353.886   204819084.664        1156.036          31.650  
C20  25564147.109                        3767.223          18.316  
C27  22613519.286   117754367.315       -1644.552          33.602  
C28  26782103.735   139461417.649       -2813.920          31.262  
C29  25400650.196   132267897.902        3337.319          28.281  
C30  21633586.180   112651789.255        1258.528          27.599  
C32  22331387.302                        1905.223          16.036  
C33  27118340.763   141212255.647       -2961.028          24.360  
E07                                                                  25438895.619   133682302.750        -332.135          31.942    25438894.120    99827687.548        -247.966          33.207  
E24                                                                                                                                  26980956.073   105879072.982         -96.445          26.264  
E26                                                                                                                                  25372566.238    99567408.255       -1019.199          32.263  
E33                                                                  23523693.986                         721.791          22.054    23523699.082    92312063.050         538.952          25.555  
G01  20286241.827                        1458.587          25.541    20286248.123    79607605.682        1088.972          31.988  
G10  24950414.687   131115247.387       -3035.361          30.548    24950425.480                       -2266.667          24.879  
G14  23234089.974   122095997.011        -113.095          32.628  
G17  24125100.141   126778279.431        3518.249          31.240  
G21  20845349.065                        -139.929          19.364  
G22  22255634.545   116954176.108        1142.411          36.961  
G27  24571836.472   129125784.257       -3448.432          33.658  
G28  24219834.258                        1397.019          20.955  
G32  22764170.992   119626511.802        -605.722          37.366    22764170.693    89331491.170        -452.342          33.909  
R05  20487651.394   109518191.633       -2096.245          29.147  
R07  23530692.041   125961676.133        4843.513          28.231  
R20  20978049.499                       -2130.029          19.340  
> 2022  9 17  8 26 27.9997060  0 25
C06  39333221.977   204818397.094        1155.899          31.765  
C20  25563511.849                        3764.976          17.504  
C27  22613927.004   117756480.477       -1644.832          33.496  
C28  26782730.002   139464699.944       -2813.965          31.044  
C29  25400101.276   132265028.855        3337.376          28.022  
C30  21633435.984   112650999.295        1258.290          27.420  
C33  27118987.116   141215685.062       -2961.085          23.779  
E07                                                                  25439045.815   133683107.992        -332.616          32.368    25439047.014    99828288.835        -248.352          33.135  
E24                                                                  26981077.789                        -119.887          18.687    26981071.493   105879522.883         -96.966          26.668  
E26                                                                                                                                  25372916.096    99568780.454       -1019.264          32.166  
E33                                                                  23523648.717   123617575.4811        721.553          21.299    23523649.916    92311877.269         538.716          25.761  
G01  20286049.960                        1457.419          25.462    20286061.052    79606869.813        1088.805          32.180  
G03                                                                  21708598.150    85189201.1551       2215.307          26.585  
G10  24951083.824   131118755.205       -3035.192          30.663    24951093.717    97913376.0411      -2266.630          25.073  
G14  23234204.195   122096583.298        -113.662          32.655  
G17  24124521.841   126775233.778        3518.279          31.274  
G21  20845454.892                        -141.041          20.255  
G22  22255510.431   116953506.866        1141.868          37.301  
G27  24572581.456   129129705.366       -3448.483          33.367  
G28  24219658.879                        1393.355          21.232  
G32  22764373.352   119627590.787        -606.359          36.974    22764376.050    89332296.892        -452.786          33.615  
R05  20488136.758   109520769.250       -2096.848          29.455  
R07  23529871.209   125957314.095        4843.482          28.341  
R12  23270772.280                       -1413.627          18.602  
R20  20978563.643                       -2126.823          20.098  
> 2022  9 17  8 26 28.9997062  0 25
C06  39333059.190   204817553.793        1155.521          31.655  
C20  25562863.698                        3759.340          16.322  
C27  22614302.944   117758438.080       -1645.383          33.690  
C28  26783331.985   139467826.333       -2814.169          31.180  
C29  25399519.379   132262003.889        3337.186          28.167  
C30  21633255.209   112650053.843        1257.671          27.590  
C33  27119626.273                       -2962.164          23.169  
E07                                                                  25439172.028   133683756.236        -333.160          32.512    25439170.229    99828772.935        -248.811          33.277  
E24                                                                  26981154.236                        -125.070          18.555    26981155.435   105879855.584         -97.411          26.317  
E26                                                                  25373238.373   133337227.6421      -1365.292          21.662    25373235.674    99570035.299       -1019.554          31.916  
E33                                                                  23523572.570                         721.061          21.537    23523575.568    92311574.027         538.531          26.043  
G01  20285836.208   106602850.3321       1457.404          26.042    20285843.403    79606016.877        1088.226          32.048  
G03                                                                  21708093.600    85187221.539        2214.906          27.458  
G10  24951723.581   131122105.707       -3035.418          31.136    24951731.076    97915877.947       -2266.616          25.034  
G14  23234284.540   122097012.767        -114.385          32.840  
G17  24123910.264   126772030.914        3517.949          31.470  
G21  20845568.513                        -140.603          18.976  
G22  22255348.243   116952680.805        1141.145          37.327  
G27  24573297.960   129133469.095       -3448.644          32.882    24573302.157    96430913.5871      -2575.393          27.826  
G28  24219455.920                        1403.147          20.935  
G32  22764553.528   119628513.014        -607.143          36.901    22764550.530    89332985.573        -453.391          33.974  
R05  20488586.147   109523187.515       -2097.752          29.501  
R07  23529036.587   125952791.861        4843.196          28.322  
R12  23271126.634                       -1416.181          19.361  
R20  20979039.413                       -2129.252          19.608  
> 2022  9 17  8 26 29.9997064  0 25
C06  39332896.103   204816711.080        1154.933          31.734  
C20  25562195.760                        3752.484          18.239  
C27  22614678.584   117760396.401       -1646.101          33.731  
C28  26783932.469   139470953.230       -2814.678          31.217  
C29  25398936.582   132258979.558        3336.551          28.073  
C30  21633070.537   112649109.218        1256.845          27.873  
C33  27120254.039                       -2959.800          23.011  
E07                                                                  25439294.943   133684405.471        -334.151          32.232    25439294.343    99829257.766        -249.541          32.952  
E24                                                                  26981240.576                        -130.611          19.557    26981239.976   105880189.014         -98.140          26.295  
E26                                                                                                                                  25373555.553    99571290.577       -1019.989          32.087  
E33                                                                  23523495.523                         719.432          21.668    23523498.521                         537.662          25.973  
G01  20285622.756   106601708.828        1456.587          25.835    20285627.252    79605164.429        1087.737          32.103  
G03                                                                  21707589.049    85185242.611        2214.219          27.159  
G10  24952357.942   131125456.720       -3035.929          31.206    24952368.135    97918380.324       -2267.088          24.869  
G14  23234365.783   122097443.343        -115.492          32.812  
G17  24123301.386   126768828.672        3517.326          31.403  
G21  20845657.252                        -136.796          19.074  
G22  22255192.351   116951855.762        1140.127          36.791  
G27  24574016.862   129137233.393       -3449.215          32.827    24574020.759    96433724.576       -2575.699          27.813  
G28  24219245.465                        1399.992          19.210  
G32  22764728.906   119629436.230        -608.131          36.908    22764727.707    89333674.981        -454.118          33.787  
R05  20489038.834   109525606.903       -2098.875          29.421  
R07  23528191.472   125948270.267        4842.557          28.744  
R12  23271465.400                       -1415.614          19.032  
R20  20979453.127                       -2134.420          19.710  
> 2022  9 17  8 26 30.9997066  0 25
C06  39332733.615   204815869.114        1154.185          31.855  
C20  25561546.110                        3753.378          17.792  
C27  22615056.022   117762355.666       -1647.046          33.909  
C28  26784535.052   139474080.782       -2815.333          31.247  
C29  25398357.983                        3335.658          28.300  
C30  21632887.963   112648165.484        1255.954          27.767  
C33  27120881.205   141225507.1791      -2962.497          23.519  
E07                                                                  25439418.757   133685055.686        -335.131          32.363    25439416.958    99829743.282        -250.226          33.017  
E24                                                                  26981328.415                        -135.459          19.074    26981324.518   105880523.136         -98.832          26.503  
E26                                                                  25373884.126   133340590.2471      -1366.500          23.330    25373876.031    99572546.409       -1020.542          32.274  
E33                                                                  23523420.875                         720.429          21.408    23523421.774    92310969.0951        537.416          25.984  
G01  20285409.004   106600568.250        1455.662          26.197    20285410.503    79604312.672        1087.047          32.137  
G03                                                                  21707084.798    85183264.339        2213.562          27.452  
G10  24952997.699   131128808.288       -3036.484          31.182    24953004.594                       -2267.660          25.284  
G14  23234448.826   122097875.083        -116.656          32.886  
G17  24122694.606   126765627.085        3516.670          31.379  
G21  20845730.101                        -139.322          18.834  
G22  22255034.660   116951031.856        1138.990          36.961  
G27  24574733.066   129140998.382       -3449.904          32.488  
G28  24219032.912                        1389.443          19.622  
G32  22764904.285   119630360.610        -609.297          37.221    22764902.486    89334365.300        -455.029          34.009  
R05  20489493.019   109528027.524       -2100.109          29.041  
R07  23527347.856   125943749.293        4841.937          28.801  
R12  23271807.763                       -1420.099          19.101  
R20  20979923.801                       -2135.807          19.721  
> 2022  9 17  8 26 31.9997068  0 25
C06  39332572.027   204815027.638        1153.695          31.714  
C20  25560884.168                        3764.360          17.940  
C27  22615436.759   117764315.488       -1647.602          33.866  
C28  26785135.836   139477208.597       -2815.595          30.814  
C29  25397776.085   132252932.2711       3335.690          27.865  
C30  21632703.891   112647222.452        1255.252          27.219  
C33  27121508.071                       -2962.101          23.920  
E07                                                                  25439541.072   133685706.629        -335.859          32.566    25439541.372    99830229.364        -250.791          32.992  
E24                                                                  26981412.057                        -139.864          19.845    26981410.558   105880857.922         -99.496          26.398  
E26                                                                  25374206.402   133342272.467       -1367.136          24.031    25374196.509    99573802.515       -1020.816          32.378  
E33                                                                  23523351.023   123615955.1611        719.281          20.604    23523343.528                         537.395          25.937  
G01  20285189.256   106599428.311        1455.023          26.448    20285192.553    79603461.408        1086.554          32.387  
G03                                                                  21706579.947    85181286.539        2213.090          27.219  
G10  24953637.156   131132160.123       -3036.752          31.382    24953644.052    97923386.1441      -2267.707          24.928  
G14  23234533.367   122098307.716        -117.549          32.987  
G17  24122086.927   126762425.960        3516.209          31.164  
G21  20845810.146                        -144.602          19.360  
G22  22254882.066   116950208.756        1138.184          37.154  
G27  24575448.971   129144763.628       -3450.162          32.577    24575453.468    96439347.7591      -2576.235          28.117  
G28  24218834.450                        1390.021          19.403  
G32  22765081.162   119631285.921        -610.227          36.731    22765079.064    89335056.250        -455.660          33.756  
R05  20489946.305   109530449.145       -2101.108          28.822  
R07  23526499.443   125939228.730        4841.525          28.226  
R12  23272110.553                       -1424.226          19.501  
R20  20980392.077                       -2132.434          19.534  
> 2022  9 17  8 26 32.9997070  0 25
C06  39332411.638   204814186.568        1153.290          31.885  
C20  25560221.027                        3765.030          17.941  
C27  22615809.701   117766275.966       -1648.258          34.040  
C28  26785735.421   139480336.818       -2816.002          31.002  
C29  25397195.387   132249909.108        3335.383          28.484  
C30  21632521.617   112646280.111        1254.560          27.196  
C33  27122138.234                       -2962.160          24.205  
E07                                                                  25439665.786   133686358.313        -336.600          32.554    25439665.786    99830716.048        -251.394          33.170  
E24                                                                  26981499.896                        -143.543          18.340    26981496.599   105881193.154         -99.942          26.516  
E26                                                                  25374523.583                       -1368.201          24.214    25374516.688    99575058.989       -1021.184          32.193  
E33                                                                  23523271.578   123615551.449         718.797          18.796    23523268.580    92310365.7491        536.733          26.510  
G01  20284966.210                        1453.879          25.731    20284975.504    79602610.726        1085.972          32.299  
G03                                                                  21706075.696    85179309.298        2212.531          27.203  
G10  24954273.916   131135512.251       -3037.044          31.140    24954284.408    97925889.369       -2267.935          24.953  
G14  23234611.913   122098741.250        -118.450          33.014  
G17  24121478.348   126759225.195        3515.849          31.542  
G21  20845897.685                        -145.636          19.455  
G22  22254724.375   116949386.528        1137.313          37.134  
G27  24576164.575   129148529.309       -3450.596          32.464    24576169.072    96442159.817       -2576.768          28.060  
G28  24218622.197                        1398.705          19.868  
G32  22765256.541   119632212.088        -611.083          36.751    22765255.042    89335747.884        -456.344          33.470  
R05  20490392.097   109532871.687       -2102.029          28.254  
R07  23525643.236   125934708.594        4841.099          28.103  
R12  23272453.815                       -1420.899          20.104  
R20  20980867.847                       -2132.079          19.594  
> 2022  9 17  8 26 33.9997072  0 24
C06  39332248.251   204813346.192        1152.595          31.647  
C20  25559557.586                        3761.087          18.548  
C27  22616187.439   117768237.249       -1649.064          33.920  
C28  26786334.107   139483465.558       -2816.520          31.177  
C29  25396615.289                        3334.234          28.847  
C30  21632340.842   112645338.502        1253.829          27.402  
C33  27122767.199                       -2962.510          23.226  
E07                                                                  25439788.101   133687010.938        -337.541          32.558    25439789.300    99831203.414        -252.076          32.904  
E24                                                                  26981581.440                        -145.654          18.432    26981580.840   105881529.163        -100.719          26.692  
E26                                                                  25374843.761   133345638.0901      -1368.071          24.351    25374837.166    99576315.924       -1021.645          32.004  
E33                                                                  23523191.533   123615148.486         718.047          20.085    23523190.034    92310064.756         536.284          27.107  
G01  20284755.156   106597150.6281       1453.483          25.806    20284759.054    79601760.603        1085.413          32.057  
G10  24954912.174   131138864.951       -3037.616          31.595    24954919.669    97928392.981       -2268.322          24.906  
G14  23234695.255   122099175.879        -119.546          32.934  
G17  24120867.071   126756025.080        3515.199          31.416  
G21  20845998.416                        -143.947          20.508  
G22  22254567.883   116948565.365        1136.247          37.070  
G27  24576876.283   129152295.445       -3451.052          31.811    24576885.576    96444972.164       -2577.057          28.224  
G28  24218416.239                        1394.919          19.957  
G32  22765431.320   119633139.353        -612.180          36.696    22765432.819    89336440.267        -457.093          33.402  
R05  20490845.983   109535295.490       -2103.290          27.751  
R07  23524796.922   125930189.010        4840.547          27.521  
R12  23272711.037                       -1419.502          19.811  
R20  20981274.066                       -2132.672          19.706  
> 2022  9 17  8 26 34.9997074  0 24
C06  39332087.862   204812506.120        1152.292          31.234  
C20  25558896.544                        3756.733          18.102  
C27  22616562.779   117770198.977       -1649.508          33.910  
C28  26786937.889   139486594.545       -2816.768          30.581  
C29  25396035.790   132243864.1021       3334.673          28.794  
C30  21632165.763   112644397.614        1253.108          27.414  
C33  27123394.665                       -2963.368          23.219  
E07                                                                  25439912.815   133687664.117        -338.095          32.545    25439914.314    99831691.203        -252.499          32.978  
E24                                                                                                                                  26981667.180   105881865.636        -101.183          26.523  
E26                                                                  25375169.036                       -1368.872          25.454    25375157.644    99577573.130       -1021.916          32.192  
E33                                                                  23523113.887   123614745.773         717.797          19.465    23523114.187    92309764.049         535.996          27.049  
G01  20284539.605   106596012.757        1452.955          25.759    20284542.603    79600910.876        1085.017          32.025  
G10  24955550.732   131142217.791       -3037.756          31.823    24955561.224    97930896.712       -2268.441          24.631  
G14  23234777.698   122099611.297        -120.333          32.838  
G17  24120259.991   126752825.235        3514.930          31.263  
G21  20846076.062                        -144.324          19.575  
G22  22254411.691   116947744.885        1135.563          37.043  
G27  24577599.382   129156061.914       -3451.385          32.031    24577602.980    96447784.732       -2577.278          28.226  
G28  24218213.280                        1390.738          19.516  
G32  22765609.696   119634067.397        -612.961          36.542    22765607.898    89337133.295        -457.738          33.672  
R05  20491298.969   109537720.067       -2104.065          26.801  
R07  23523964.998   125925669.770        4840.203          27.864  
R12  23273068.990                       -1421.361          19.312  
R20  20981726.153                       -2136.460          20.634  
> 2022  9 17  8 26 35.9997076  0 24
C06  39331927.773   204811665.716        1152.623          31.340  
C20  25558245.095                        3757.312          18.405  
C27  22616941.417   117772160.563       -1649.366          33.965  
C28  26787536.574   139489723.018       -2816.253          30.300  
C29  25395455.992   132240841.213        3335.109          28.554  
C30  21631980.492   112643456.475        1253.358          27.548  
C33  27124028.426                       -2965.730          23.109  
E07                                                                  25440040.826   133688317.361        -338.160          32.444    25440037.828    99832178.981        -252.488          32.965  
E24                                                                                                                                  26981754.720   105882202.037        -101.111          26.651  
E26                                                                  25375485.917                       -1368.104          26.223    25375477.822    99578829.964       -1021.544          32.216  
E33                                                                  23523037.140   123614342.872         717.985          19.046    23523037.440    92309463.105         536.235          26.627  
G01  20284323.755   106594874.713        1453.129          25.927    20284326.153    79600061.004        1085.162          31.978  
G10  24956188.090   131145570.107       -3037.231          31.887    24956195.286    97933400.038       -2268.036          24.870  
G14  23234864.038   122100046.773        -120.392          32.943  
G17  24119652.912   126749625.012        3515.307          30.964  
G21  20846174.094                        -143.000          19.459  
G22  22254255.500   116946924.485        1135.484          36.869  
G27  24578314.687   129159827.872       -3450.874          31.880    24578319.483    96450597.021       -2576.999          27.804  
G28  24218002.226                        1389.534          20.607  
G32  22765781.777   119634995.464        -612.982          36.342    22765784.775    89337826.366        -457.781          33.894  
R05  20491749.857                       -2104.640          25.911  
R07  23523125.879   125921150.062        4840.670          27.757  
R12  23273435.936                       -1426.076          20.461  
R20  20982186.035                       -2137.889          20.935  
> 2022  9 17  8 26 36.9997078  0 25
C06  39331764.686   204810825.453        1152.483          31.449  
C20  25557572.661                        3761.824          17.578  
C27  22617314.959   117774122.401       -1649.618          34.089  
C28  26788137.958   139492851.548       -2816.310          30.306  
C29  25394875.593   132237818.373        3335.059          28.768  
C30  21631798.518   112642515.646        1253.049          27.196  
C32  22328398.971                        1902.070          20.696  
C33  27124652.894                       -2961.745          22.467  
E07                                                                  25440160.743   133688970.874        -338.429          32.508    25440162.542    99832667.028        -252.757          32.832  
E24                                                                                                                                  26981839.561   105882538.678        -101.351          26.489  
E26                                                                  25375804.896   133350687.9751      -1368.109          26.264    25375798.600    99580086.944       -1021.690          32.353  
E33                                                                  23522957.695                         718.194          20.451    23522961.892    92309162.280         536.114          26.480  
G01  20284109.103   106593736.968        1452.828          25.740    20284110.602    79599211.381        1084.913          32.169  
G10  24956829.047   131148922.400       -3037.209          31.857  
G14  23234947.081   122100482.775        -120.918          32.929  
G17  24119042.534   126746424.804        3515.292          31.272  
G21  20846266.130                        -144.820          21.299  
G22  22254098.708   116946104.598        1134.971          36.969  
G27  24579028.193   129163593.870       -3450.914          31.856    24579035.688    96453409.195       -2576.884          27.776  
G28  24217803.763                        1392.349          20.176  
G32  22765960.753   119635924.103        -613.555          36.420    22765961.653    89338519.864        -458.208          33.586  
R05  20492202.244                       -2105.517          25.734  
R07  23522276.867   125916630.354        4840.671          27.728  
R12  23273718.040                       -1427.548          19.872  
R20  20982664.204                       -2136.055          19.516  
> 2022  9 17  8 26 37.9997080  0 25
C06  39331603.398   204809985.304        1152.368          31.541  
C20  25556914.916                        3763.796          17.849  
C27  22617697.794   117776084.518       -1649.898          34.032  
C28  26788738.142   139495980.017       -2816.250          30.257  
C29  25394293.097   132234795.547        3335.046          28.522  
C30  21631618.342   112641575.171        1252.694          27.348  
C32  22328095.281                        1901.596          19.625  
C33  27125286.355                       -2958.135          21.977  
E07                                                                  25440286.656   133689624.961        -339.003          32.284    25440286.656    99833155.392        -253.074          32.702  
E24                                                                                                                                  26981925.302   105882875.682        -101.714          26.480  
E26                                                                  25376125.074   133352371.331       -1368.272          26.547    25376118.479    99581344.001       -1021.767          32.412  
E33                                                                  23522882.148                         715.554          19.371    23522883.946    92308861.514         536.057          26.417  
G01  20283887.557                        1452.450          25.846    20283892.953    79598362.032        1084.640          32.256  
G10  24957466.106   131152274.669       -3037.185          31.808    24957471.802    97938406.7791      -2268.020          25.258  
G14  23235031.622   122100919.398        -121.539          32.967  
G17  24118434.255   126743224.696        3515.193          31.591  
G21  20846351.271                        -143.449          21.398  
G22  22253945.214   116945285.197        1134.484          37.250  
G27  24579746.496   129167359.902       -3450.949          31.871    24579751.292    96456221.501       -2577.017          27.453  
G28  24217605.001                        1395.056          19.999  
G32  22766139.729   119636853.307        -614.120          36.385    22766138.830    89339213.711        -458.557          33.418  
R05  20492656.129   109544996.3061      -2105.552          25.871  
R07  23521437.448   125912110.703        4840.614          27.460  
R12  23274060.703                       -1426.426          18.032  
R20  20983121.088                       -2136.808          19.417  
> 2022  9 17  8 26 38.9997082  0 24
C06  39331439.711   204809145.654        1151.869          31.404  
C20  25556243.681                        3762.109          18.665  
C27  22618074.333   117778047.338       -1650.600          34.080  
C28  26789339.226   139499109.015       -2816.779          30.380  
C29  25393715.397   132231773.097        3334.670          29.167  
C30  21631439.066                        1251.396          27.848  
C33  27125913.821                       -2962.568          20.968  
E07                                                                  25440410.171   133690279.741        -339.696          31.904    25440411.370    99833644.382        -253.700          32.975  
E24                                                                  26982021.235                        -140.951          18.288    26982011.342                        -102.127          26.029  
E26                                                                  25376445.552   133354055.237       -1368.822          27.046    25376437.758    99582601.450       -1022.159          32.443  
E33                                                                                                                                  23522807.799    92308561.157         535.647          26.795  
G01  20283671.706                        1451.609          26.248    20283676.803    79597513.230        1084.092          32.597  
G10  24958103.465   131155627.288       -3037.535          31.836    24958110.060                       -2267.949          25.106  
G14  23235115.264   122101357.021        -122.539          33.195  
G17  24117823.278   126740025.178        3514.602          31.350  
G21  20846436.113                        -142.126          21.076  
G22  22253786.624   116944466.754        1133.527          36.937  
G27  24580461.201   129171126.276       -3451.290          31.741    24580467.796    96459034.095       -2577.303          27.525  
G28  24217395.146                        1391.529          19.778  
G32  22766313.309   119637783.459        -615.068          36.318    22766315.108    89339908.322        -459.321          33.370  
R05  20493092.927   109547423.436       -2106.617          26.452  
R07  23520593.232   125907591.581        4840.084          27.097  
R12  23274319.424                       -1429.289          18.678  
R20  20983619.343                       -2136.564          20.224  
> 2022  9 17  8 26 39.9997084  0 24
C06  39331279.921   204808306.677        1151.196          31.200  
C20  25555598.227                        3760.828          18.718  
C27  22618451.472   117780010.908       -1651.351          33.942  
C28  26789941.210   139502238.430       -2817.195          30.231  
C29  25393134.099   132228751.144        3334.173          29.500  
C30  21631257.392   112639696.5631       1251.147          27.591  
C33  27126534.991                       -2965.701          22.121  
E07                                                                  25440534.285   133690935.419        -340.593          31.988    25440536.083    99834134.000        -254.328          32.614  
E24                                                                  26982094.984                        -136.615          19.480    26982098.282   105883551.6811       -103.102          26.764  
E26                                                                  25376766.030   133355739.697       -1369.376          27.216    25376760.334    99583859.276       -1022.536          32.131  
E33                                                                                                                                  23522729.853    92308261.338         535.109          25.760  
G01  20283461.852   106590327.0381       1451.045          26.570    20283461.252    79596665.026        1083.493          32.973  
G10  24958740.823   131158980.351       -3037.979          31.766    24958748.618                       -2269.382          25.230  
G14  23235197.108   122101795.611        -123.506          32.794  
G17  24117215.899   126736826.100        3514.162          31.116  
G21  20846533.545                        -145.123          21.522  
G22  22253633.730   116943649.287        1132.551          37.178  
G27  24581181.002   129174893.173       -3451.814          32.286    24581183.401    96461847.012       -2577.627          27.558  
G28  24217205.977                        1389.872          20.056  
G32  22766491.686   119638714.638        -616.095          36.174    22766492.285    89340603.644        -460.033          33.659  
R05  20493598.677                       -2108.211          26.203  
R07  23519752.614   125903073.015        4839.529          27.061  
R12  23274685.171                       -1429.993          19.716  
R20  20984039.652                       -2140.782          19.765  
> 2022  9 17  8 26 40.9997086  0 24
C06  39331118.333   204807468.166        1150.731          31.055  
C20  25554932.388                        3761.743          18.751  
C27  22618825.913   117781975.153       -1652.025          33.765  
C28  26790542.893   139505368.271       -2817.621          30.336  
C29  25392551.003   132225729.582        3333.782          29.150  
C30  21631079.615   112638758.316        1250.466          26.743  
C33  27127172.949                       -2967.151          22.559  
E07                                                                  25440657.799   133691591.923        -341.421          31.866    25440661.097    99834624.251        -254.961          32.608  
E24                                                                  26982174.729                        -133.273          18.604    26982183.423   105883890.518        -103.547          27.027  
E26                                                                  25377086.209   133357424.665       -1369.884          27.314    25377079.314    99585117.491       -1022.925          32.086  
E33                                                                                                                                  23522655.504    92307961.917         534.711          25.717  
G01  20283247.500   106589191.933        1450.189          26.012    20283245.102    79595817.405        1082.911          32.716  
G10  24959379.681   131162333.806       -3038.371          31.365    24959384.478                       -2268.995          24.293  
G14  23235281.649   122102235.228        -124.533          32.761  
G17  24116609.419   126733627.607        3513.577          31.272  
G21  20846629.179                        -148.500          20.672  
G22  22253475.440   116942832.708        1131.664          37.195  
G27  24581899.605   129178660.522       -3452.265          32.257    24581901.104    96464660.284       -2577.983          27.333  
G28  24216996.722                        1384.869          18.707  
G32  22766666.765   119639646.799        -617.077          35.901    22766670.362    89341299.763        -460.828          33.443  
R05  20494036.973   109552281.0831      -2108.844          26.117  
R07  23518896.107   125898554.867        4839.110          26.933  
R12  23274984.064                       -1429.736          20.892  
R20  20984477.049                       -2141.332          19.904  
> 2022  9 17  8 26 41.9997088  0 24
C06  39330957.645   204806629.845        1150.541          30.896  
C20  25554260.554                        3762.367          19.099  
C27  22619205.150   117783939.754       -1652.381          34.080  
C28  26791143.677   139508498.168       -2817.677          30.492  
C29  25391973.303   132222708.078        3333.724          29.462  
C30  21630897.941   112637820.556        1249.980          26.874  
C33  27127801.014                       -2963.891          22.330  
E07                                                                  25440789.408   133692248.891        -341.883          32.025    25440787.010    99835114.819        -255.278          32.608  
E24                                                                  26982250.577                        -130.696          18.566    26982270.063   105884229.627        -103.819          26.518  
E26                                                                  25377406.087   133359109.758       -1370.009          27.681    25377400.991    99586375.857       -1023.076          32.191  
E33                                                                                                                                  23522579.357                         534.531          25.522  
G01  20283031.050   106588057.147        1449.870          26.945    20283029.251    79594969.954        1082.741          32.750  
G10  24960015.841   131165687.277       -3038.386          31.364    24960023.935    97948422.6441      -2268.935          25.001  
G14  23235364.392   122102675.406        -125.093          33.127  
G17  24116000.540   126730429.165        3513.527          30.937  
G21  20846711.922                        -146.902          20.347  
G22  22253322.246   116942016.722        1131.070          37.362  
G27  24582612.511   129182427.933       -3452.327          32.893    24582617.008    96467473.602       -2578.028          26.701  
G28  24216808.452                        1380.941          18.668  
G32  22766843.942   119640579.522        -617.639          35.677    22766847.240    89341996.255        -461.202          33.811  
R05  20494489.360                       -2108.899          24.710  
R07  23518049.493   125894036.917        4838.912          26.505  
R12  23275352.209                       -1426.429          20.357  
R20  20984955.518                       -2136.534          20.718  
> 2022  9 17  8 26 42.9997090  0 25
C06  39330794.857   204805791.935        1150.130          30.762  
C20  25553612.402                        3759.939          18.792  
C27  22619578.092   117785904.849       -1652.875          33.712  
C28  26791744.761   139511628.284       -2817.897          30.599  
C29  25391391.705   132219686.795        3333.502          29.309  
C30  21630717.166   112636883.268        1249.508          26.053  
C32  22326556.447                        1885.381          16.201  
C33  27128426.381                       -2963.905          22.724  
E07                                                                  25440912.023   133692906.485        -342.510          31.221    25440912.023    99835605.897        -255.788          32.887  
E24                                                                                                                                  26982358.202                        -105.073          27.142  
E26                                                                  25377727.465   133360795.218       -1370.377          27.982    25377722.368    99587634.453       -1023.306          32.621  
E33                                                                                                                                  23522502.910    92307363.5271        534.295          25.488  
G01  20282812.801   106586922.959        1449.272          26.240    20282813.700    79594122.933        1082.311          32.675  
G10  24960655.298   131169040.938       -3038.577          32.093    24960661.594    97950927.017       -2269.083          25.653  
G14  23235450.133   122103116.452        -125.963          33.108  
G17  24115390.762   126727231.089        3513.159          30.997  
G21  20846797.662                        -146.317          20.032  
G22  22253163.356   116941201.521        1130.285          37.353  
G27  24583329.315   129186195.615       -3452.597          32.926    24583333.213    96470287.075       -2578.183          26.225  
G28  24216574.614                        1384.975          18.388  
G32  22767022.918   119641513.057        -618.451          35.342    22767025.017    89342693.340        -461.795          33.877  
R05  20494945.045                       -2110.882          24.542  
R07  23517193.885                        4837.448          25.411  
R12  23275680.182                       -1431.722          20.990  
R20  20985430.689                       -2134.711          20.372  
> 2022  9 17  8 26 43.9997092  0 25
C06  39330637.166   204804954.132        1150.023          31.034  
C20  25552960.653                        3756.458          20.003  
C27  22619957.629   117787870.287       -1653.219          33.469  
C28  26792346.145   139514758.486       -2817.983          30.622  
C29  25390811.007   132216665.600        3333.415          29.499  
C30  21630534.593   112635946.359        1249.129          25.568  
C32  22326227.274                        1899.269          15.777  
C33  27129052.048                       -2963.098          22.129  
E07                                                                  25441038.236   133693564.482        -342.913          31.635    25441036.137    99836097.325        -256.138          32.888  
E24                                                                                                                                  26982443.043   105884909.5181       -104.708          27.451  
E26                                                                  25378049.142   133362480.689       -1370.387          28.916    25378041.947    99588893.188       -1023.446          32.627  
E33                                                                                                                                  23522427.662    92307064.633         534.184          25.773  
G01  20282602.047   106585789.124        1448.919          27.429    20282597.250    79593276.294        1081.929          32.775  
G10  24961292.657   131172394.642       -3038.620          32.159  
G14  23235534.074   122103558.087        -126.550          32.838  
G17  24114783.683   126724033.105        3513.068          31.078  
G21  20846880.705                        -146.674          19.677  
G22  22253012.560   116940386.812        1129.792          37.459  
G27  24584045.819   129189963.354       -3452.655          33.450    24584050.316    96473100.671       -2578.306          26.504  
G28  24216383.347                        1390.697          20.372  
G32  22767202.494   119642447.191        -619.049          35.622    22767203.393    89343390.943        -462.313          33.617  
R05  20495375.547                       -2114.371          24.157  
R07  23516357.165   125885001.6281       4838.548          25.845  
R12  23275993.165                       -1435.689          20.615  
R20  20985877.080                       -2136.007          19.512  
> 2022  9 17  8 26 44.9997094  0 24
C06  39330477.377   204804116.638        1149.713          31.023  
C20  25552301.410                        3755.849          19.634  
C27  22620335.967   117789836.143       -1653.636          33.928  
C28  26792946.329   139517888.847       -2818.142          30.828  
C29  25390231.808   132213644.472        3333.347          29.379  
C30  21630360.713   112635010.112        1248.466          25.861  
C33  27129689.407                       -2964.821          22.005  
E07                                                                  25441159.652   133694223.095        -343.530          31.640    25441162.050    99836589.138        -256.523          33.198  
E24                                                                  26982526.386                        -129.435          16.804    26982529.384   105885250.043        -105.234          27.446  
E26                                                                  25378370.220   133364166.546       -1370.773          27.558    25378361.826    99590152.102       -1023.623          32.323  
E33                                                                                                                                  23522350.316    92306765.910         534.013          25.777  
G01  20282383.198   106584655.754        1448.454          26.500    20282381.699    79592429.947        1081.637          32.799  
G10  24961932.114   131175748.457       -3038.731          32.045  
G14  23235620.115   122104000.300        -127.130          32.170  
G17  24114173.005   126720835.435        3512.755          30.884  
G21  20846963.148                        -148.955          19.356  
G22  22252856.668   116939572.791        1129.105          37.724  
G27  24584767.719   129193731.230       -3452.792          33.471    24584765.021    96475914.386       -2578.425          25.783  
G28  24216173.492                        1385.817          19.777  
G32  22767379.971   119643381.972        -619.697          35.205    22767380.870    89344089.020        -462.787          33.753  
R05  20495837.527                       -2112.545          24.394  
R07  23515512.050   125880484.189        4838.402          25.553  
R12  23276280.366                       -1430.252          21.031  
R20  20986327.668                       -2138.080          20.032  
> 2022  9 17  8 26 45.9997096  0 24
C06  39330313.990   204803278.794        1150.064          30.655  
C20  25551634.072                        3759.314          19.549  
C27  22620713.106   117791801.828       -1653.466          33.842  
C28  26793546.514   139521018.719       -2817.652          30.552  
C29  25389652.609   132210622.981        3333.711          29.800  
C30  21630183.835   112634073.496        1248.836          26.704  
C33  27130319.271                       -2968.350          22.482  
E07                                                                  25441292.160   133694881.692        -343.513          31.149    25441288.862    99837080.910        -256.482          32.791  
E24                                                                  26982607.929                        -132.525          18.582    26982616.024   105885590.519        -105.187          27.840  
E26                                                                  25378691.897   133365852.035       -1370.405          28.066    25378682.604    99591410.724       -1023.333          32.227  
E33                                                                                                                                  23522272.370    92306467.030         534.170          26.289  
G01  20282171.845   106583522.172        1448.667          26.150    20282165.849    79591583.501        1081.736          33.054  
G10  24962568.573   131179101.702       -3038.161          32.212    24962577.267    97958439.8751      -2268.844          23.755  
G14  23235703.457   122104442.760        -127.376          32.893  
G17  24113568.024   126717637.209        3513.310          30.241  
G21  20847063.578                        -148.067          17.118  
G22  22252703.174   116938758.839        1129.036          37.670  
G27  24585480.926   129197498.655       -3452.341          33.307    24585484.823    96478727.706       -2578.030          25.819  
G28  24215967.834                        1382.735          19.529  
G32  22767555.050   119644316.883        -619.827          34.855    22767558.347    89344787.195        -462.885          33.384  
R05  20496294.411                       -2109.635          23.931  
R07  23514677.428                        4838.197          26.169  
R12  23276639.518                       -1427.232          21.996  
R20  20986810.933                       -2140.637          19.696  
> 2022  9 17  8 26 46.9997098  0 24
C06  39330154.201   204802441.098        1149.915          30.967  
C20  25550989.218                        3761.620          15.486  
C27  22621085.748   117793767.834       -1653.787          33.380  
C28  26794149.097   139524148.648       -2817.710          30.261  
C29  25389072.211   132207601.467        3333.734          29.801  
C30  21630002.761                        1248.388          25.802  
C33  27130945.237                       -2964.383          22.854  
E07                                                                  25441413.276   133695540.607        -343.830          32.160    25441412.377    99837572.967        -256.767          33.140  
E24                                                                                                                                  26982702.963   105885931.202        -105.393          27.704  
E26                                                                  25379012.375   133367537.565       -1370.446          29.297    25379003.382    99592669.429       -1023.415          32.485  
E33                                                                                                                                  23522196.222    92306168.291         534.029          25.227  
G01  20281957.793   106582388.913        1448.343          26.913    20281951.497    79590737.195        1081.596          32.783  
G10  24963209.230   131182454.953       -3038.167          32.644    24963214.926                       -2269.242          24.118  
G14  23235787.999   122104885.757        -127.913          32.772  
G17  24112961.244   126714439.175        3513.118          30.154  
G21  20847151.717                        -146.063          19.615  
G22  22252546.383   116937945.400        1128.524          37.250  
G27  24586193.832   129201266.106       -3452.367          33.365    24586200.128    96481540.945       -2577.949          25.792  
G28  24215771.470   127254756.0031       1385.337          23.309  
G32  22767737.024   119645252.329        -620.362          34.102    22767736.124    89345485.729        -463.244          33.034  
R05  20496760.588   109566870.1771      -2112.519          23.856  
R07  23513838.009   125871448.6271       4838.720          26.102  
R12  23276963.893                       -1429.078          21.546  
R20  20987247.431                       -2143.571          20.121  
> 2022  9 17  8 26 47.9997100  0 23
C06  39329993.512   204801603.341        1149.977          30.869  
C20  25550321.281                        3761.789          16.914  
C27  22621462.887   117795733.866       -1653.812          32.964  
C28  26794750.480   139527278.401       -2817.534          30.401  
C29  25388489.115                        3333.873          28.779  
C30  21629822.885   112632201.3801       1248.159          27.286  
C33  27131576.301                       -2959.497          23.244  
E07                                                                  25441539.489   133696199.799        -344.108          31.082    25441538.589    99838065.243        -256.986          33.414  
E24                                                                  26982796.798                        -141.945          19.013    26982790.803                        -105.470          27.784  
E26                                                                  25379334.652   133369223.085       -1370.436          29.303    25379324.459    99593928.099       -1023.379          32.626  
E33                                                                                                                                  23522120.375                         533.948          24.630  
G01  20281744.341   106581255.935        1448.062          27.381    20281735.047    79589891.086        1081.399          32.885  
G10  24963848.987   131185807.964       -3037.926          32.792    24963854.983    97963447.9091      -2268.622          24.153  
G14  23235870.741   122105329.122        -128.281          32.678  
G17  24112353.865   126711241.018        3513.241          29.977  
G21  20847233.860                        -142.811          18.218  
G22  22252390.790   116937132.324        1128.160          36.816  
G27  24586916.632   129205033.336       -3452.146          33.331    24586917.531    96484354.257       -2578.022          25.820  
G32  22767914.801   119646188.181        -620.768          33.821    22767914.501    89346184.565        -463.546          32.923  
R05  20497196.186                       -2115.064          24.386  
R07  23512994.093   125866930.809        4838.781          25.994  
R12  23277267.883                       -1434.096          22.790  
R20  20987667.140                       -2145.582          19.619  
> 2022  9 17  8 26 48.9997102  0 23
C06  39329833.123   204800765.665        1149.895          30.888  
C20  25549644.649                        3758.775          16.864  
C27  22621843.024   117797700.157       -1654.071          33.157  
C28  26795349.765   139530408.117       -2817.496          30.206  
C29  25387906.918   132201558.0291       3334.014          28.879  
C30  21629642.110   112631265.498        1248.102          26.599  
C33  27132204.965                       -2961.579          22.662  
E07                                                                  25441663.603   133696859.379        -344.497          30.702    25441664.202    99838557.739        -257.205          32.874  
E24                                                                  26982884.937                        -146.733          20.559    26982878.042                        -106.144          28.116  
E26                                                                  25379650.334   133370908.596       -1370.427          29.644    25379645.537    99595186.729       -1023.341          32.638  
E33                                                                  23522040.630                         708.394          21.997    23522045.427                         533.796          25.087  
G01  20281526.991   106580123.150        1447.869          27.963    20281520.096    79589045.151        1081.225          32.995  
G10  24964486.346   131189160.924       -3037.876          32.665    24964492.342                       -2268.825          24.097  
G14  23235955.882   122105772.986        -128.780          32.665  
G17  24111743.188   126708042.868        3513.234          30.016  
G21  20847312.706                        -145.617          17.232  
G22  22252236.997   116936319.647        1127.761          37.232  
G27  24587633.735   129208800.630       -3452.210          33.530    24587633.735    96487167.463       -2577.916          25.838  
G32  22768095.875   119647124.489        -621.224          34.645    22768092.577    89346883.715        -463.860          32.914  
R05  20497647.074                       -2117.475          23.870  
R07  23512137.586   125862413.009        4838.763          26.230  
R12  23277631.531                       -1434.268          23.732  
R20  20988146.808                       -2144.928          19.254  
> 2022  9 17  8 26 49.9997104  0 25
C06  39329674.533   204799928.170        1149.715          30.908  
C20  25548991.102                        3754.708          18.730  
C27  22622225.259   117799666.866       -1654.489          33.661  
C28  26795952.648   139533537.943       -2817.606          30.402  
C29  25387330.417   132198536.402        3333.846          29.331  
C30  21629467.032   112630330.118        1247.600          26.568  
C33  27132831.532                       -2965.136          23.046  
E07                                                                  25441787.417   133697519.362        -344.898          30.234    25441788.017    99839050.621        -257.592          32.871  
E24                                                                  26982983.569                        -150.622          18.883    26982964.382   105886954.9511       -106.292          28.531  
E26                                                                  25379973.510   133372594.323       -1370.643          30.095    25379967.214    99596445.602       -1023.583          32.333  
E33                                                                  23521969.879                         710.221          19.826    23521969.280    92305272.0371        533.897          25.364  
G01  20281312.040   106578990.730        1447.503          28.000    20281303.945    79588199.579        1080.862          33.117  
G10  24965124.904   131192513.952       -3037.945          32.454  
G14  23236040.724   122106217.505        -129.435          32.339  
G17  24111133.110   126704845.001        3512.950          30.108  
G21  20847408.639                        -141.151          15.595  
G22  22252084.103   116935507.600        1127.131          37.827  
G27  24588352.338   129212568.047       -3452.333          34.083    24588350.839    96489980.859       -2578.106          25.183  
G28  24215162.892                        1381.245          19.399  
G32  22768272.753   119648061.464        -621.891          34.405    22768272.753    89347583.441        -464.436          33.175  
R05  20498111.153                       -2114.726          24.120  
R07  23511302.064   125857895.289        4838.682          25.593  
R12  23277948.412                       -1435.787          23.854  
R20  20988654.657                       -2140.051          20.701  
R21  19706151.515   105451597.1891       1820.793          28.386  
> 2022  9 17  8 26 50.9997107  0 24
C06  39329542.624   204799246.955        1149.544          31.048  
C20  25548367.833                        3758.895          18.051  
C27  22622628.480   117801789.923       -1654.727          33.592  
C28  26796583.411   139536823.857       -2817.584          30.389  
C29  25386780.598   132195670.860        3333.872          30.167  
C30  21629315.037   112629551.221        1247.226          26.271  
C33  27133493.174                       -2966.550          23.152  
E07                                                                  25441942.110   133698337.347        -345.359          30.318    25441945.408    99839661.426        -257.870          32.905  
E24                                                                  26983078.603                        -153.382          19.365    26983082.501   105887414.465        -106.580          27.531  
E26                                                                  25380324.867   133374437.685       -1370.736          30.090    25380316.473    99597822.174       -1023.637          32.518  
E33                                                                  23521920.713                         712.184          20.433    23521924.011    92305091.207         533.765          25.562  
G01  20281124.670   106578016.248        1447.108          28.166    20281118.374    79587471.899        1080.615          33.286  
G10  24965791.642   131196024.479       -3037.901          32.239    24965795.240    97971076.9681      -2268.529          24.163  
G14  23236156.743   122106820.120        -129.989          32.497  
G17  24110557.508   126701804.622        3513.006          31.206  
G21  20847525.558                        -144.794          16.744  
G22  22251959.689   116934853.622        1126.604          37.710  
G27  24589097.622   129216492.941       -3452.268          33.671    24589098.222                       -2578.188          25.512  
G32  22768479.310   119649156.541        -622.451          35.122    22768479.610    89348401.187        -464.811          33.697  
R05  20498588.123                       -2116.754          24.530  
R07  23510486.329   125853538.194        4838.539          25.444  
R12  23278325.850                       -1437.239          24.122  
R20  20989137.023                       -2135.121          20.723  
R21  19705912.581   105450258.143        1820.322          27.469  
> 2022  9 17  8 26 51.9997109  0 25
C06  39329384.034   204798409.805        1149.370          31.511  
C20  25547704.392                        3756.667          17.140  
C27  22623010.116   117803757.210       -1655.068          33.907  
C28  26797183.896   139539953.752       -2817.676          30.335  
C29  25386198.401   132192649.287        3333.792          30.634  
C30  21629130.065   112628616.630        1246.811          26.772  
C33  27134123.337                       -2962.645          22.876  
E07                                                                  25442068.622   133698998.271        -345.839          30.787    25442069.822    99840154.969        -258.253          32.678  
E24                                                                  26983174.837                        -154.424          19.291    26983167.942   105887756.718        -106.963          27.801  
E26                                                                  25380643.546   133376123.710       -1370.941          30.418    25380637.550    99599081.220       -1023.756          32.988  
E33                                                                  23521846.065                         714.353          19.513    23521845.765    92304792.827         533.670          25.173  
G01  20280907.920   106576884.600        1446.732          27.238    20280903.423    79586626.803        1080.386          33.118  
G10  24966430.200   131199377.449       -3037.885          32.861    24966434.697    97973580.798       -2268.539          24.936  
G14  23236240.685   122107265.836        -130.632          32.680  
G17  24109951.628   126698606.905        3512.801          32.027  
G21  20847624.190                        -152.805          16.555  
G22  22251806.495   116934042.691        1126.015          37.490  
G27  24589814.725   129220260.420       -3452.395          33.806    24589814.725    96495725.0801      -2578.024          25.371  
G28  24214775.859                        1380.593          19.268  
G32  22768660.684   119650094.668        -623.043          35.258    22768657.686    89349101.741        -465.264          33.773  
R05  20499057.598                       -2116.031          24.228  
R07  23509644.512                        4837.642          25.190  
R12  23278664.016                       -1436.135          25.646  
R20  20989569.024                       -2139.558          20.104  
R21  19705622.681   105448758.988        1820.005          27.436  
> 2022  9 17  8 26 52.9997111  0 24
C06  39329220.347   204797573.051        1148.973          31.831  
C20  25547036.155                        3751.834          14.776  
C28  26797784.979   139543083.911       -2817.939          30.331  
C29  25385618.602   132189628.011        3333.496          30.865  
C30  21628955.586   112627682.594        1246.255          27.356  
C33  27134748.704                       -2964.991          22.749  
E07                                                                  25442194.235   133699659.883        -346.528          31.078    25442196.034    99840648.991        -258.733          32.741  
E24                                                                                                                                  26983258.479   105888099.460        -107.451          27.054  
E26                                                                  25380965.223   133377810.121       -1371.327          30.063    25380958.628    99600340.541       -1024.031          32.779  
E33                                                                  23521775.614                         715.899          20.960    23521772.316    92304494.868         533.249          25.185  
G01  20280695.367   106575753.515        1446.169          25.886    20280687.872    79585782.167        1079.926          32.980  
G10  24967066.659   131202730.690       -3038.157          32.782    24967071.156    97976084.742       -2268.654          25.269  
G14  23236325.826   122107712.329        -131.409          32.315  
G17  24109337.953   126695409.552        3512.437          32.334  
G21  20847717.126                        -152.354          15.820  
G22  22251649.404   116933232.523        1125.251          37.541  
G27  24590533.328   129224028.151       -3452.647          33.646    24590531.829                       -2578.094          24.940  
G28  24214583.992                        1383.104          20.951  
G32  22768836.363   119651033.587        -623.835          34.849    22768836.962    89349802.917        -465.886          33.714  
R05  20499522.276                       -2115.331          24.235  
R07  23508786.806                        4837.877          24.966  
R12  23278983.595                       -1436.787          25.028  
R20  20990030.704                       -2141.901          18.402  
R21  19705345.073   105447260.675        1819.163          27.844  
> 2022  9 17  8 26 53.9997113  0 25
C06  39329060.258   204796736.132        1149.139          32.050  
C20  25546379.010                        3748.031          16.541  
C27  22623761.995   117807692.9441      -1655.681          32.700  
C28  26798387.263   139546213.795       -2817.665          30.024  
C29  25385039.103   132186606.406        3333.824          31.117  
C30  21628773.612   112626748.624        1246.190          27.022  
C33  27135380.667                       -2965.402          22.586  
E07                                                                  25442321.647   133700321.562        -346.595          31.105    25442322.247    99841143.138        -258.857          32.968  
E24                                                                  26983343.020                        -153.978          20.144    26983343.620   105888442.255        -107.505          26.987  
E26                                                                  25381284.502   133379496.412       -1371.207          29.637    25381279.406    99601599.683       -1023.852          33.138  
E33                                                                  23521693.470                         716.938          21.395    23521696.169    92304196.642         533.516          24.895  
G01  20280476.218   106574622.389        1446.210          25.405    20280472.621    79584937.470        1079.988          32.769  
G10  24967703.718   131206083.565       -3037.791          32.797    24967711.213                       -2267.962          25.264  
G14  23236408.269   122108159.173        -131.760          31.718  
G17  24108729.674   126692211.950        3512.686          32.812  
G21  20847784.579                        -157.374          15.275  
G22  22251495.610   116932422.583        1125.024          37.578  
G27  24591249.232   129227795.606       -3452.371          33.278    24591251.031    96501352.0731      -2578.141          25.274  
G28  24214378.035                        1383.530          21.717  
G32  22769019.236   119651972.757        -624.086          34.508    22769016.238    89350504.279        -466.072          33.515  
R05  20499990.852                       -2116.275          25.100  
R07  23507948.286   125839986.1211       4838.314          25.545  
R12  23279322.660                       -1436.815          24.879  
R20  20990488.787                       -2136.315          16.618  
R21  19705057.273   105445762.405        1819.120          27.941  
> 2022  9 17  8 26 54.9997115  0 24
C06  39328901.368   204795899.192        1149.160          32.093  
C20  25545726.062                        3751.888          16.206  
C27  22624144.531   117809660.863       -1655.700          32.802  
C28  26798987.147   139549343.546       -2817.532          29.997  
C29  25384457.506   132183584.660        3333.966          30.860  
C30  21628593.736   112625814.823        1246.021          26.876  
C33  27136014.128                       -2961.676          22.330  
E07                                                                  25442446.061   133700983.495        -346.849          31.145    25442448.160    99841637.424        -258.996          33.250  
E24                                                                  26983442.252                        -151.992          19.390    26983432.958   105888785.244        -107.698          26.752  
E26                                                                  25381604.081   133381182.492       -1370.996          29.744    25381600.484    99602858.839       -1023.866          33.014  
E33                                                                  23521620.321   123606881.2171        714.267          20.201    23521619.122    92303898.502         533.430          24.730  
G01  20280257.970   106573491.392        1446.081          24.832    20280257.370    79584093.014        1079.746          32.945  
G10  24968340.178   131209436.246       -3037.597          32.531    24968347.972                       -2268.394          24.845  
G14  23236494.610   122108606.396        -132.140          31.697  
G17  24108122.594   126689014.293        3512.741          32.707  
G22  22251343.615   116931612.977        1124.691          37.541  
G27  24591966.336   129231562.986       -3452.296          33.350    24591967.835                       -2578.074          24.845  
G28  24214188.266                        1378.972          21.332  
G32  22769199.711   119652912.409        -624.568          34.767    22769194.615    89351205.871        -466.302          33.728  
R05  20500431.846                       -2117.795          24.016  
R07  23507105.569   125835468.710        4838.374          25.303  
R12  23279660.826   124355715.1171      -1437.160          25.498  
R20  20990954.065                       -2139.371          18.377  
R21  19704788.359   105444264.327        1818.928          27.816  
> 2022  9 17  8 26 55.9997117  0 24
C06  39328740.979   204795061.744        1149.668          31.842  
C20  25545051.829                        3761.902          17.743  
C27  22624518.672   117811628.463       -1655.380          32.923  
C28  26799587.332   139552472.655       -2816.889          29.948  
C29  25383878.607   132180562.295        3334.585          30.762  
C30  21628418.058   112624880.674        1246.369          26.650  
C33  27136643.393                       -2965.337          22.655  
E07                                                                  25442571.974   133701645.231        -346.652          30.897    25442574.372    99842131.565        -258.851          32.891  
E24                                                                  26983542.083                        -149.568          18.383    26983519.298   105889128.102        -107.569          27.035  
E26                                                                  25381926.058   133382868.095       -1370.519          29.939    25381921.262    99604117.539       -1023.410          32.926  
E33                                                                  23521534.880   123606481.451         714.850          20.646    23521541.476                         533.700          24.549  
G01  20280042.719   106572360.363        1446.113          23.904    20280042.719    79583248.256        1080.048          32.962  
G10  24968979.935   131212788.299       -3036.969          32.452    24968988.329    97983595.3401      -2267.810          25.437  
G14  23236580.050   122109053.481        -132.001          31.922  
G17  24107513.716   126685816.083        3513.293          32.679  
G22  22251187.423   116930803.295        1124.766          37.544  
G27  24592680.442   129235329.664       -3451.594          33.008  
G28  24213964.321                        1382.840          21.238  
G32  22769373.291   119653851.893        -624.400          34.623    22769373.890    89351907.486        -466.325          33.508  
R05  20500870.743                       -2116.409          23.411  
R07  23506255.358                        4838.999          25.133  
R12  23279980.105   124357472.608       -1437.203          26.096  
R20  20991431.334                       -2136.887          18.153  
R21  19704505.655   105442766.118        1819.059          27.695  
> 2022  9 17  8 26 56.9997119  0 24
C06  39328580.290   204794224.271        1149.693          32.101  
C20  25544387.189                        3754.205          18.657  
C27  22624899.408   117813596.202       -1655.520          32.920  
C28  26800187.816   139555601.676       -2816.801          29.703  
C29  25383297.309   132177539.844        3334.670          31.173  
C30  21628235.184   112623946.811        1246.082          26.975  
C33  27137267.261                       -2962.993          22.349  
E07                                                                  25442698.187   133702307.227        -346.912          30.750    25442700.585    99842625.918        -259.063          33.071  
E24                                                                                                                                  26983606.838   105889471.174        -107.782          27.080  
E26                                                                  25382243.538   133384553.610       -1370.431          29.672    25382241.140    99605376.240       -1023.412          33.050  
E33                                                                  23521456.934                         714.967          20.844    23521465.328    92303301.5031        533.840          24.172  
G01  20279824.769   106571229.244        1446.203          24.063    20279827.168    79582403.658        1079.887          32.889  
G10  24969618.493   131216140.149       -3036.766          32.840    24969624.788    97986098.337       -2267.707          25.820  
G14  23236663.093   122109501.026        -132.461          31.726  
G17  24106903.038   126682617.812        3513.355          32.585  
G22  22251034.230   116929993.961        1124.418          37.516  
G27  24593397.845   129239096.244       -3451.496          32.430    24593400.843    96509790.8171      -2577.395          25.389  
G28  24213772.154                        1384.860          21.657  
G32  22769556.764   119654791.826        -624.849          34.692    22769553.766    89352609.349        -466.573          33.490  
R05  20501338.119                       -2115.550          24.182  
R07  23505420.736                        4840.881          25.003  
R12  23280334.760   124359230.683       -1437.788          25.689  
R20  20991878.925                       -2142.408          18.090  
R21  19704221.751   105441268.105        1818.864          27.982  
> 2022  9 17  8 26 57.9997121  0 23
C06  39328420.801   204793386.592        1149.899          32.241  
C27  22625275.348   117815563.886       -1655.464          32.717  
C28  26800790.099   139558730.309       -2816.414          29.897  
C29  25382717.211   132174517.005        3335.058          31.124  
C30  21628054.709   112623012.899        1246.131          26.933  
C33  27137898.924                       -2959.998          22.088  
E07                                                                  25442823.800   133702969.246        -346.935          30.718    25442826.798    99843120.320        -259.112          33.148  
E24                                                                                                                                  26983692.878   105889814.249        -107.786          26.781  
E26                                                                  25382567.314   133386239.015       -1370.321          29.573    25382563.117    99606634.764       -1023.233          32.970  
E33                                                                  23521382.885   123605681.7581        714.953          20.662    23521390.980                         533.585          23.952  
G01  20279608.619                        1446.051          24.320    20279611.317    79581559.054        1079.894          32.785  
G10  24970255.252   131219491.635       -3036.402          32.849    24970260.049    97988601.101       -2267.474          25.971  
G14  23236745.836   122109948.843        -132.733          31.323  
G17  24106297.158   126679419.262        3513.634          32.890  
G22  22250882.834   116929184.808        1124.237          37.446  
G27  24594116.447   129242862.572       -3451.244          31.833    24594117.946    96512603.325       -2577.218          25.966  
G28  24213562.300                        1379.151          21.566  
G32  22769732.742   119655731.966        -625.057          34.352    22769731.843    89353311.419        -466.779          33.757  
R05  20501795.602                       -2118.502          24.198  
R07  23504565.428                        4837.910          25.041  
R12  23280662.133   124360988.932       -1437.961          26.208  
R20  20992347.500                       -2146.828          18.195  
R21  19703945.342   105439770.117        1818.838          28.136  
> 2022  9 17  8 26 58.9997123  0 23
C06  39328258.313   204792549.060        1149.751          31.879  
C27  22625656.084   117817531.939       -1655.834          33.040  
C28  26801389.684   139561858.995       -2816.467          29.399  
C29  25382135.913   132171494.218        3335.007          31.017  
C30  21627874.234   112622079.412        1245.707          27.337  
C33  27138524.890                       -2961.464          22.203  
E07                                                                  25442950.012   133703631.733        -347.404          30.265    25442951.811    99843615.014        -259.404          32.867  
E24                                                                  26983781.617                        -140.816          21.962    26983782.216   105890157.699        -108.160          27.111  
E26                                                                  25382886.593   133387924.470       -1370.372          29.911    25382882.996    99607893.408       -1023.354          33.017  
E33                                                                  23521308.837                         714.804          20.944    23521313.633                         533.774          24.948  
G01  20279393.668   106568967.5691       1445.766          24.543    20279397.265    79580714.654        1079.691          32.636  
G10  24970893.510   131222843.129       -3036.410          32.757    24970900.705                       -2267.329          25.886  
G14  23236832.775   122110397.169        -133.242          32.148  
G17  24105686.181   126676220.850        3513.496          32.342  
G22  22250723.944   116928376.194        1123.698          37.390  
G27  24594832.052   129246628.855       -3451.199          31.352    24594835.350    96515415.839       -2577.224          25.445  
G28  24213365.936                        1375.813          20.148  
G32  22769915.915   119656672.650        -625.599          34.585    22769909.919    89354013.954        -467.245          33.686  
R05  20502261.480                       -2121.423          25.001  
R07  23503728.407                        4839.421          24.353  
R12  23280979.613   124362747.922       -1438.703          26.728  
R20  20992835.263                       -2145.529          18.303  
R21  19703658.741   105438272.594        1818.373          28.125  
> 2022  9 17  8 26 59.9997125  0 24
C06  39328097.325   204791711.920        1149.360          31.563  
C20  25542403.762                        3762.770          18.581  
C27  22626034.123   117819500.366       -1656.207          33.202  
C28  26801990.768   139564987.937       -2816.722          29.157  
C29  25381557.014   132168471.616        3334.822          31.166  
C30  21627694.359                        1245.058          27.022  
C33  27139160.450                       -2965.513          22.534  
E07                                                                  25443075.325   133704294.856        -348.039          29.847    25443077.724    99844110.215        -259.911          32.854  
E24                                                                  26983873.353                        -138.968          22.244    26983867.957   105890501.639        -108.649          27.020  
E26                                                                  25383206.772   133389610.220       -1370.666          29.833    25383204.973    99609152.250       -1023.552          32.860  
E33                                                                  23521225.195   123604882.5831        714.489          18.184    23521236.587                         533.886          24.226  
G01  20279186.212   106567837.383        1445.270          25.201    20279182.614    79579870.776        1079.168          33.072  
G10  24971529.970   131226194.833       -3036.620          32.878    24971541.062    97993606.7181      -2267.598          26.097  
G14  23236919.715   122110846.384        -134.131          32.351  
G17  24105077.902   126673022.750        3513.184          32.194  
G22  22250570.750   116927568.370        1122.908          37.443  
G27  24595546.457   129250395.408       -3451.469          31.024    24595552.154    96518228.429       -2577.299          25.776  
G28  24213169.871                        1380.040          19.080  
G32  22770094.292   119657614.202        -626.468          34.517    22770090.394    89354716.967        -467.723          33.493  
R05  20502727.057                       -2120.065          25.360  
R07  23502868.902                        4839.562          24.222  
R12  23281301.890   124364507.690       -1439.480          27.117  
R20  20993332.618                       -2140.051          19.231  
R21  19703377.835   105436775.727        1817.717          27.935  
> 2022  9 17  8 27  0.9997127  0 24
C06  39327937.236   204790875.288        1148.852          31.623  
C20  25541744.518                        3752.651          20.358  
C27  22626409.463   117821469.594       -1657.008          32.973  
C28  26802590.053   139568117.333       -2817.177          28.937  
C29  25380978.414   132165449.456        3334.379          30.290  
C30  21627511.186   112620214.0871       1244.523          26.817  
C33  27139788.815                       -2964.878          21.545  
E07                                                                  25443200.639   133704958.828        -348.888          29.334    25443205.435    99844605.994        -260.489          33.217  
E24                                                                  26983963.291                        -148.235          20.864    26983956.096   105890846.148        -109.219          27.855  
E26                                                                  25383521.554   133391296.478       -1371.174          29.145    25383524.851    99610411.533       -1023.993          32.680  
E33                                                                  23521162.538   123604483.694         713.973          20.415    23521163.437                         532.569          24.533  
G01  20278973.659   106566707.959        1444.508          25.812    20278967.963    79579027.345        1078.721          33.606  
G10  24972168.527   131229546.927       -3037.011          32.891    24972176.022                       -2268.202          25.398  
G14  23237002.758   122111296.463        -134.995          32.037  
G17  24104471.122   126669825.134        3512.700          31.542  
G22  22250416.357   116926761.396        1122.058          37.406  
G27  24596263.861   129254162.407       -3451.915          30.172  
G28  24212957.618                        1385.600          18.283  
G32  22770270.570   119658556.654        -627.368          34.829    22770268.471    89355420.744        -468.488          33.513  
R05  20503176.746   109601153.0351      -2120.745          25.193  
R07  23502035.180                        4836.117          23.767  
R12  23281625.666   124366268.610       -1440.633          25.930  
R20  20993727.745                       -2142.087          19.362  
R21  19703085.838   105435279.585        1816.991          27.803  
> 2022  9 17  8 27  1.9997129  0 24
C06  39327775.048   204790039.077        1148.430          31.119  
C20  25541086.474                        3752.879          20.393  
C27  22626790.499   117823439.340       -1657.526          32.934  
C28  26803192.936   139571246.928       -2817.376          29.171  
C29  25380395.618   132162427.559        3334.117          29.610  
C30  21627334.608   112619282.497        1243.809          26.177  
C33  27140412.084                       -2963.165          21.887  
E07                                                                  25443327.151   133705623.361        -349.449          28.632    25443331.048    99845102.303        -261.019          33.374  
E24                                                                                                                                  26984043.635   105891191.169        -109.731          27.779  
E26                                                                  25383845.330   133392983.243       -1371.680          29.589    25383845.629    99611671.035       -1024.212          32.588  
E33                                                                  23521081.894                         713.259          21.262    23521085.491    92301810.6561        532.914          25.160  
G01  20278754.510                        1444.449          26.375    20278751.512    79578184.409        1078.226          34.251  
G10  24972805.586   131232899.150       -3037.138          33.058    24972813.381    97998613.1971      -2267.957          25.359  
G14  23237088.199   122111747.449        -135.902          31.863  
G17  24103864.342   126666627.842        3512.376          29.854  
G22  22250267.061   116925955.265        1121.216          37.420  
G27  24596979.166   129257929.655       -3452.165          30.219    24596986.960    96523854.6861      -2577.913          26.455  
G28  24212764.552                        1376.753          17.042  
G32  22770454.642   119659499.963        -628.226          34.205    22770447.447    89356125.139        -469.105          33.486  
R05  20503624.336                       -2121.876          25.463  
R07  23501193.662                        4835.549          24.012  
R12  23281958.436                       -1440.360          25.921  
R20  20994162.144                       -2146.533          18.333  
R21  19702813.026   105433784.256        1816.179          28.959  
> 2022  9 17  8 27  2.9997131  0 24
C06  39327616.458   204789203.189        1148.108          30.957  
C20  25540420.935                        3758.680          20.448  
C27  22627168.237   117825409.592       -1658.033          32.430  
C28  26803793.720   139574376.828       -2817.680          29.111  
C29  25379814.620   132159405.928        3333.851          29.602  
C30  21627157.131                        1242.895          26.648  
C33  27141041.948                       -2964.366          22.075  
E07                                                                  25443450.066   133706288.607        -350.161          29.146    25443459.060    99845599.055        -261.462          33.111  
E24                                                                  26984142.567                        -150.200          20.062    26984131.175   105891536.591        -110.132          27.390  
E26                                                                  25384167.606   133394670.201       -1371.874          29.690    25384166.707    99612930.812       -1024.487          32.397  
E33                                                                  23521006.946                         712.934          20.798    23521009.344    92301513.495         532.451          24.739  
G01  20278540.459   106564450.7711       1443.358          26.376    20278537.760    79577341.839        1077.860          34.259  
G10  24973447.742   131236251.624       -3037.390          33.652    24973450.740                       -2267.470          24.433  
G14  23237172.740   122112199.195        -136.662          31.573  
G17  24103254.264   126663430.892        3512.033          30.239  
G22  22250109.070   116925149.833        1120.516          37.316  
G27  24597698.068   129261697.200       -3452.461          30.423    24597703.164    96526667.966       -2577.990          26.636  
G28  24212545.104                        1377.455          17.858  
G32  22770634.518   119660443.890        -628.842          33.577    22770627.623    89356830.066        -469.636          33.173  
R05  20504104.604   109606038.2281      -2122.521          25.335  
R07  23500356.042                        4839.655          23.875  
R12  23282304.696   124369792.8601      -1442.143          25.545  
R20  20994654.703                       -2143.541          18.843  
R21  19702552.807   105432289.533        1815.574          28.822  
> 2022  9 17  8 27  3.9997133  0 24
C06  39327455.769   204788367.588        1147.820          30.856  
C20  25539764.389                        3758.144          20.548  
C27  22627542.378   117827380.241       -1658.429          32.523  
C28  26804394.804   139577506.853       -2817.806          28.978  
C29  25379234.821   132156384.397        3333.751          29.591  
C30  21626977.255   112617420.7971       1242.883          26.739  
C33  27141669.413                       -2966.406          22.719  
E07                                                                  25443582.574   133706954.432        -350.741          29.491    25443585.272    99846096.212        -261.867          32.870  
E24                                                                  26984228.607                        -148.980          20.366    26984219.613   105891882.595        -110.714          27.627  
E26                                                                  25384489.284   133396357.470       -1372.184          29.940    25384487.185    99614190.784       -1024.681          32.738  
E33                                                                                                                                  23520935.895                         532.420          24.893  
G01  20278329.704   106563323.038        1442.816          26.251    20278322.509    79576499.627        1077.502          34.368  
G10  24974081.503   131239604.223       -3037.515          33.649    24974087.799    98003620.2561      -2268.391          24.166  
G14  23237256.682   122112651.685        -137.406          31.454  
G17  24102645.985   126660234.172        3511.804          30.532  
G22  22249961.272   116924345.095        1119.822          37.003  
G27  24598412.773   129265464.851       -3452.566          30.985    24598421.167    96529481.596       -2578.341          26.299  
G28  24212347.541                        1382.770          17.497  
G32  22770812.894   119661388.643        -629.669          34.449    22770807.198    89357535.585        -470.229          33.246  
R05  20504563.886                       -2125.204          26.570  
R07  23499505.531                        4841.016          24.383  
R12  23282631.470   124371556.386       -1443.239          25.283  
R20  20995119.381                       -2144.530          18.025  
R21  19702266.205   105430795.292        1815.090          28.605  
> 2022  9 17  8 27  4.9997135  0 24
C06  39327296.279   204787532.132        1147.675          30.668  
C20  25539103.047                        3756.455          20.119  
C27  22627918.918   117829351.250       -1658.790          32.215  
C28  26804995.887   139580636.895       -2817.822          29.138  
C29  25378655.023   132153362.946        3333.670          30.407  
C30  21626798.279                        1242.398          25.630  
C33  27142301.975                       -2966.372          23.364  
E07                                                                  25443708.787   133707620.637        -351.121          29.755    25443712.085    99846593.751        -262.249          32.831  
E24                                                                                                                                  26984309.551   105892228.851        -110.966          27.841  
E26                                                                  25384810.961   133398044.901       -1372.347          30.004    25384808.863    99615450.858       -1024.784          32.250  
E33                                                                                                                                  23520859.148                         531.674          25.038  
G01  20278114.753   106562195.635        1442.487          26.180    20278108.458    79575657.734        1077.183          34.329  
G10  24974722.759   131242956.795       -3037.488          33.333    24974725.757    98006123.738       -2268.192          24.656  
G14  23237343.022   122113104.687        -137.918          31.473  
G17  24102039.805   126657037.552        3511.704          30.653  
G22  22249803.881   116923540.905        1119.274          36.924  
G27  24599129.277   129269232.584       -3452.649          31.415    24599136.472                       -2578.165          26.350  
G28  24212179.057                        1373.454          20.089  
G32  22770992.170   119662334.012        -630.285          34.395    22770987.373    89358241.486        -470.611          33.144  
R05  20504995.887                       -2124.280          26.415  
R07  23498643.328                        4835.923          23.815  
R12  23282954.346                       -1443.973          25.668  
R20  20995586.158                       -2141.026          18.192  
R21  19701988.897   105429301.596        1814.546          28.776  
> 2022  9 17  8 27  5.9997137  0 24
C06  39327134.092   204786696.798        1147.554          30.853  
C20  25538437.508                        3758.913          21.537  
C27  22628303.252   117831322.500       -1659.030          32.140  
C28  26805598.171   139583766.953       -2817.838          29.072  
C29  25378073.425   132150341.435        3333.730          30.606  
C30  21626616.005                        1241.654          25.034  
C33  27142933.038                       -2964.652          22.484  
E07                                                                  25443835.899   133708287.262        -351.541          29.954    25443837.997    99847091.580        -262.539          32.814  
E24                                                                                                                                  26984396.491   105892575.397        -111.256          27.747  
E26                                                                  25385130.840   133399732.326       -1372.341          29.817    25385129.940    99616710.978       -1024.830          32.182  
E33                                                                                                                                  23520783.001                         532.203          24.405  
G01  20277897.104   106561068.464        1442.255          25.318    20277893.806    79574816.017        1077.007          34.670  
G10  24975358.319   131246309.380       -3037.500          33.340    24975364.615                       -2268.350          24.475  
G14  23237432.360   122113558.292        -138.522          31.501  
G17  24101427.029   126653840.972        3511.664          30.756  
G22  22249650.987   116922737.192        1118.797          36.631  
G27  24599849.678   129273000.306       -3452.639          32.009    24599852.676    96535108.7221      -2578.286          25.769  
G28  24211947.018                        1378.034          21.041  
G32  22771172.046   119663279.872        -630.776          34.348    22771167.249    89358947.893        -471.117          33.337  
R05  20505463.863   109613371.7501      -2124.615          27.301  
R07  23497809.905                        4834.482          23.828  
R12  23283279.321   124375085.0951      -1444.312          25.276  
R20  20996065.826                       -2144.519          19.151  
R21  19701701.996   105427808.187        1814.260          28.874  
> 2022  9 17  8 27  6.9997139  0 24
C06  39326975.202   204785861.823        1147.194          31.146  
C20  25537777.664                        3754.309          19.836  
C27  22628677.992   117833294.307       -1659.588          31.900  
C28  26806198.955   139586897.295       -2818.123          29.496  
C29  25377496.625   132147320.222        3333.433          30.815  
C30  21626443.625   112614631.1771       1241.692          25.884  
C33  27143557.206                       -2965.838          22.275  
E07                                                                  25443963.611   133708954.561        -352.216          29.901    25443966.908    99847589.862        -262.991          33.098  
E24                                                                  26984505.316   141804570.4541       -149.741          19.522    26984485.230   105892922.419        -111.733          27.492  
E26                                                                  25385451.318   133401420.118       -1372.708          29.782    25385451.018    99617971.383       -1025.115          32.120  
E33                                                                  23520708.352   123602097.1521        712.247          20.108    23520707.453                         531.172          23.471  
G01  20277680.054   106559941.855        1441.693          25.688    20277680.354    79573974.711        1076.596          34.388  
G10  24975992.680   131249662.117       -3037.653          33.517    24976004.972    98011130.9181      -2268.332          24.616  
G14  23237518.701   122114012.686        -139.309          31.615  
G17  24100819.050   126650644.783        3511.273          31.074  
G22  22249497.194   116921934.201        1118.075          36.810  
G27  24600565.883   129276768.336       -3452.946          32.458    24600571.878                       -2578.795          26.297  
G28  24211757.249                        1376.826          19.392  
G32  22771347.724   119664226.538        -631.583          34.046    22771346.825    89359654.732        -471.549          33.439  
R05  20505910.554   109615817.717       -2125.454          27.405  
R07  23496973.784   125781259.3801       4837.293          24.267  
R12  23283607.594                       -1445.026          23.959  
R20  20996484.936                       -2147.671          19.020  
R21  19701422.289   105426315.502        1813.535          29.315  
> 2022  9 17  8 27  7.9997141  0 24
C06  39326813.613   204785026.984        1147.059          31.243  
C20  25537115.423                        3752.639          19.150  
C27  22629061.127   117835266.337       -1659.810          32.239  
C28  26806798.240   139590027.617       -2818.102          29.183  
C29  25376915.927   132144298.956        3333.486          30.715  
C30  21626266.447   112613702.129        1241.268          26.654  
C33  27144185.571                       -2962.377          20.864  
E07                                                                  25444090.423   133709622.142        -352.496          29.957    25444091.622    99848088.500        -263.348          33.115  
E24                                                                                                                                  26984573.668   105893269.709        -112.000          27.250  
E26                                                                  25385772.995   133403108.153       -1372.950          29.598    25385772.395    99619231.833       -1025.160          32.145  
E33                                                                                                                                  23520630.406                         531.653          23.805  
G01  20277465.403   106558815.540        1441.399          25.693    20277465.103    79573133.668        1076.333          34.100  
G10  24976634.236   131253014.809       -3037.609          32.930    24976640.232    98013634.562       -2268.354          24.509  
G14  23237604.441   122114467.652        -139.882          31.731  
G17  24100212.570   126647448.638        3511.229          31.176  
G22  22249347.597   116921131.790        1117.495          36.806  
G27  24601285.684   129280536.253       -3452.833          33.086    24601287.183    96540736.2101      -2578.465          25.955  
G28  24211559.086                        1373.562          18.782  
G32  22771529.698   119665173.675        -632.053          33.438    22771529.698    89360362.066        -472.044          33.818  
R05  20506359.343                       -2126.680          27.072  
R07  23496154.451                        4838.945          24.628  
R12  23283946.659                       -1448.060          24.182  
R20  20996952.612                       -2149.760          17.069  
R21  19701144.981   105424823.178        1813.174          29.182  
> 2022  9 17  8 27  8.9997143  0 24
C06  39326652.025   204784192.415        1146.788          30.988  
C20  25536459.777                        3754.901          21.154  
C27  22629438.266   117837238.795       -1660.239          32.138  
C28  26807401.122   139593158.083       -2818.246          29.330  
C29  25376333.430   132141277.924        3333.251          30.315  
C30  21626089.870                        1240.373          26.359  
C33  27144821.731                       -2964.300          20.690  
E07                                                                  25444218.734   133710290.430        -353.204          29.440    25444220.832    99848587.448        -263.658          33.134  
E24                                                                                                                                  26984661.508                        -112.574          27.448  
E26                                                                  25386092.874   133404796.220       -1372.983          29.786    25386093.173    99620492.482       -1025.359          32.184  
E33                                                                  23520558.156   123601303.6331        711.689          19.759    23520555.458    92299733.5631        531.488          24.067  
G01  20277248.953   106557689.833        1440.791          24.687    20277251.951    79572292.947        1076.012          34.760  
G10  24977268.597   131256367.629       -3037.735          33.197    24977278.490                       -2267.845          23.604  
G14  23237692.880   122114923.311        -140.575          31.755  
G17  24099606.689   126644252.635        3511.087          30.230  
G22  22249193.204   116920330.032        1116.842          36.811  
G27  24602001.289   129284304.451       -3453.114          33.421    24602005.786    96543550.078       -2578.579          25.513  
G28  24211338.439                        1370.456          18.459  
G32  22771712.871   119666121.612        -632.853          33.441    22771708.075    89361069.919        -472.563          33.213  
R05  20506831.816   109620711.6681      -2126.796          26.991  
R07  23495294.946                        4837.181          23.651  
R12  23284265.339   124380384.0101      -1446.796          25.275  
R20  20997423.886                       -2153.237          17.096  
R21  19700881.464   105423331.406        1812.621          29.132  
> 2022  9 17  8 27  9.9997145  0 23
C06  39326492.836   204783358.242        1146.392          31.000  
C27  22629822.000   117839211.840       -1660.825          31.989  
C28  26808001.607   139596288.821       -2818.518          29.244  
C29  25375754.231   132138257.095        3333.049          30.042  
C30  21625912.692   112611845.6641       1240.224          26.508  
C33  27145450.096                       -2962.236          21.563  
E07                                                                  25444344.647   133710959.299        -353.785          29.401    25444347.045    99849086.939        -264.201          33.135  
E24                                                                                                                                  26984749.946   105893965.7831       -112.998          27.301  
E26                                                                  25386413.052   133406484.819       -1373.515          29.230    25386414.551    99621753.407       -1025.634          32.383  
E33                                                                                                                                  23520482.009    92299437.673         531.180          24.439  
G01  20277033.702   106556564.513        1440.404          25.828    20277037.599    79571452.701        1075.536          34.459  
G10  24977904.756   131259720.672       -3037.959          32.828    24977917.048                       -2268.014          22.883  
G14  23237776.522   122115379.779        -141.384          31.486  
G17  24098995.413   126641057.079        3510.641          29.792  
G22  22249038.511   116919529.028        1116.088          37.076  
G27  24602717.793   129288072.856       -3453.321          33.609    24602720.491    96546364.099       -2578.731          25.642  
G28  24211161.861                        1369.517          17.966  
G32  22771887.650   119667070.305        -633.609          33.288    22771888.849    89361778.368        -473.159          32.971  
R05  20507309.085   109623160.041       -2127.861          26.958  
R07  23494418.353                        4836.833          23.475  
R12  23284594.211                       -1447.422          25.577  
R20  20997873.275                       -2149.315          17.649  
R21  19700603.256   105421840.299        1811.957          29.445  
> 2022  9 17  8 27 10.9997148  0 24
C06  39326360.627   204782680.336        1146.236          30.896  
C20  25535170.969                        3757.750          19.337  
C27  22630223.722   117841341.347       -1661.177          32.422  
C28  26808632.670   139599575.772       -2818.622          29.712  
C29  25375206.510   132135392.498        3332.926          30.358  
C30  21625765.794   112611074.237        1239.756          27.243  
C33  27146107.841                       -2964.995          21.405  
E07                                                                  25444503.837   133711786.193        -354.267          29.498    25444504.736    99849704.427        -264.552          33.483  
E24                                                                                                                                  26984869.564   105894432.020        -113.302          27.461  
E26                                                                  25386765.308   133408331.042       -1373.597          29.629    25386765.608    99623132.061       -1025.719          32.242  
E33                                                                                                                                  23520435.841                         530.597          24.221  
G01  20276850.828   106555597.212        1439.927          24.603    20276853.227    79570730.367        1075.268          34.613  
G10  24978576.591   131263231.296       -3037.998          32.306    24978588.583                       -2267.439          22.566  
G14  23237891.343   122115994.449        -142.044          31.211  
G17  24098416.813   126638019.203        3510.502          30.292  
G22  22248919.494   116918886.166        1115.488          37.234  
G27  24603467.574   129291998.882       -3453.400          34.214    24603467.274    96549295.941       -2578.907          25.282  
G28  24210978.089                        1375.314          15.714  
G32  22772098.704   119668177.153        -634.222          33.911    22772099.304    89362604.905        -473.602          33.256  
R05  20507790.852                       -2128.430          26.851  
R07  23493590.925                        4835.901          22.570  
R12  23284938.972                       -1450.240          24.339  
R20  20998355.641                       -2144.826          17.076  
R21  19700349.332   105420510.149        1811.425          29.173  
> 2022  9 17  8 27 11.9997150  0 24
C06  39326200.538   204781846.417        1146.138          31.210  
C20  25534491.040                        3752.947          19.132  
C27  22630610.454   117843314.921       -1661.354          32.266  
C28  26809234.353   139602706.531       -2818.539          29.700  
C29  25374626.711   132132371.721        3332.997          30.895  
C30  21625587.717   112610146.849        1239.607          26.985  
C33  27146738.304                       -2969.366          20.141  
E07                                                                  25444632.747   133712455.926        -354.649          29.359    25444631.248    99850204.546        -264.830          33.447  
E24                                                                                                                                  26984959.801   105894780.922        -113.611          27.054  
E26                                                                  25387087.285   133410019.847       -1373.722          29.070    25387087.285    99624393.170       -1025.819          32.130  
E33                                                                  23520372.585   123600272.8921        711.226          19.709    23520359.694    92298963.8421        530.999          24.022  
G01  20276637.676   106554472.606        1439.690          25.671    20276638.875    79569890.615        1075.043          34.711  
G10  24979215.149   131266584.234       -3037.854          32.254    24979225.042                       -2268.922          23.765  
G14  23237979.482   122116452.053        -142.520          31.755  
G17  24097807.935   126634823.781        3510.506          30.746  
G22  22248768.098   116918086.217        1115.033          37.329  
G27  24604184.078   129295767.397       -3453.431          34.528    24604184.378    96552110.067       -2578.835          24.923  
G28  24210789.219                        1375.147          16.485  
G32  22772279.179   119669127.002        -634.765          33.953    22772279.779    89363314.156        -473.961          33.205  
R05  20508231.247   109628218.8611      -2129.125          26.446  
R07  23492764.697                        4838.385          24.023  
R12  23285298.124                       -1451.423          23.704  
R20  20998836.808                       -2145.281          16.719  
R21  19700065.428   105419019.890        1811.109          28.468  
> 2022  9 17  8 27 12.9997152  0 23
C06  39326040.749   204781012.397        1146.240          31.466  
C20  25533837.792                        3751.730          15.775  
C27  22630986.394   117845288.570       -1661.430          31.949  
C28  26809834.538   139605837.073       -2818.322          29.575  
C29  25374044.515   132129350.681        3333.260          30.744  
C30  21625410.540   112609219.644        1239.425          27.691  
E07                                                                  25444760.159   133713125.859        -354.849          29.847    25444758.660    99850704.805        -264.969          32.742  
E24                                                                                                                                  26985046.741   105895129.892        -113.681          27.872  
E26                                                                  25387411.061   133411708.463       -1373.531          29.414    25387408.663    99625654.178       -1025.718          32.369  
E33                                                                  23520285.045   123599876.855         711.120          19.589    23520283.247                         530.385          23.791  
G01  20276421.825   106553348.140        1439.549          25.524    20276425.423    79569050.923        1074.982          34.666  
G10  24979853.407   131269936.939       -3037.620          33.168    24979861.202                       -2268.986          25.116  
G14  23238067.621   122116909.976        -142.839          31.363  
G17  24097197.557   126631628.210        3510.654          31.835  
G22  22248614.305   116917286.536        1114.765          37.227  
G27  24604902.381   129299535.637       -3453.156          34.771    24604899.982                       -2578.525          24.418  
G28  24210568.872                        1371.710          19.728  
G32  22772464.751   119670077.120        -635.035          33.491    22772461.153    89364023.720        -474.274          33.718  
R05  20508682.435   109630668.736       -2129.362          26.503  
R07  23491933.073                        4838.018          24.027  
R12  23285636.289                       -1450.363          24.443  
R20  20999321.572                       -2150.706          16.426  
R21  19699782.724   105417529.842        1810.898          28.410  
> 2022  9 17  8 27 13.9997154  0 25
C06  39325881.259   204780178.443        1146.174          31.244  
C20  25533198.634                        3754.458          15.961  
C27  22631361.734   117847262.454       -1661.664          31.496  
C28  26810433.823   139608967.604       -2818.312          29.961  
C29  25373463.817   132126329.609        3333.291          30.487  
C30  21625235.161   112608292.746        1239.118          28.388  
C32  22317223.008                        1887.004          23.171  
C33  27147998.032                       -2961.874          20.968  
E07                                                                  25444889.070   133713796.081        -355.138          30.159    25444885.472    99851205.311        -265.216          32.687  
E24                                                                                                                                  26985138.178   105895479.284        -114.102          28.142  
E26                                                                  25387731.539   133413397.136       -1373.590          29.675    25387730.940    99626915.159       -1025.692          32.414  
E33                                                                  23520216.993   123599480.895         711.044          20.296    23520207.699    92298372.4951        531.009          23.567  
G01  20276212.570   106552223.943        1439.281          25.154    20276210.771    79568211.389        1074.823          34.878  
G10  24980492.865   131273289.556       -3037.533          33.112    24980502.158    98028774.8141      -2268.213          25.361  
G14  23238155.160   122117368.426        -143.366          31.159  
G17  24096591.677   126628432.706        3510.588          32.147  
G22  22248462.010   116916487.338        1114.283          37.465  
G27  24605620.383   129303303.811       -3453.091          34.858    24605616.186                       -2578.942          23.516  
G28  24210389.896                        1371.546          20.849  
G32  22772642.528   119671027.813        -635.608          32.995    22772641.628    89364733.588        -474.578          33.257  
R05  20509160.004   109633119.293       -2130.045          26.146  
R07  23491087.359                        4834.551          22.999  
R12  23285965.162                       -1448.747          23.248  
R20  20999784.452                       -2151.452          16.440  
R21  19699494.324   105416040.056        1810.636          28.304  
> 2022  9 17  8 27 14.9997156  0 24
C06  39325722.369   204779344.656        1146.007          31.269  
C20  25532533.395                        3759.952          14.276  
C27  22631741.571   117849236.632       -1661.959          30.881  
C28  26811037.605   139612098.158       -2818.334          30.002  
C29  25372886.416   132123308.578        3333.251          30.824  
C30  21625054.087   112607366.226        1238.739          28.619  
C32  22316918.119                        1883.547          24.359  
C33  27148617.703                       -2955.988          21.054  
E07                                                                  25445015.282   133714466.759        -355.594          30.072    25445014.383    99851706.137        -265.535          32.739  
E24                                                                  26985233.811                        -147.106          22.472    26985226.317   105895828.785        -114.210          28.262  
E26                                                                  25388053.216   133415085.937       -1373.717          29.725    25388051.118    99628176.279       -1025.829          32.314  
E33                                                                  23520145.342   123599085.103         710.876          19.397    23520134.250    92298076.961         530.824          24.621  
G01  20275995.820   106551100.068        1438.959          24.774    20275997.019    79567372.141        1074.538          34.844  
G10  24981135.620   131276642.152       -3037.512          32.974    24981138.318    98031278.371       -2268.267          25.651  
G14  23238240.001   122117827.533        -144.022          30.930  
G17  24095983.398   126625237.266        3510.524          32.363  
G22  22248313.313   116915688.693        1113.728          37.672  
G27  24606335.988   129307072.084       -3453.189          34.803    24606335.388    96560551.8721      -2578.627          23.767  
G28  24210180.641                        1372.518          21.289  
G32  22772827.200   119671978.972        -636.076          33.397    22772822.403    89365443.953        -475.075          33.352  
R05  20509617.787   109635570.512       -2130.707          26.182  
R07  23490233.550                        4836.814          23.253  
R12  23286263.455                       -1450.918          23.317  
R21  19699234.404   105414550.780        1810.125          29.032  
