     3.03           OBSERVATION DATA    M: Mixed            RINEX VERSION / TYPE
Geo++ RINEX Logger  Geo++               20220917 100131 UTC PGM / RUN BY / DATE
************************************************************COMMENT
This file was generated by the Geo++ RINEX Logger App       COMMENT
for Android devices (Version 2.1.6). If you encounter       COMMENT
any issues, please send an email to android@geopp.de        COMMENT
Filtering Mode: BEST                                        COMMENT
************************************************************COMMENT
Geo++                                                       MARKER NAME
GEODETIC                                                    MARKER TYPE
Geo++               Geo++                                   OBSERVER / AGENCY
unknown             Xiaomi              MI 8                REC # / TYPE / VERS
unknown             MI 8                                    ANT # / TYPE
  4410324.5681   193655.2031  4588683.7352                  APPROX POSITION XYZ
        0.0000        0.0000        0.0000                  ANTENNA: DELTA H/E/N
G    8 C1C L1C D1C S1C C5Q L5Q D5Q S5Q                      SYS / # / OBS TYPES
R    4 C1C L1C D1C S1C                                      SYS / # / OBS TYPES
E   12 C1B L1B D1B S1B C1C L1C D1C S1C C5Q L5Q D5Q S5Q      SYS / # / OBS TYPES
C    4 C2I L2I D2I S2I                                      SYS / # / OBS TYPES
J    8 C1C L1C D1C S1C C5Q L5Q D5Q S5Q                      SYS / # / OBS TYPES
  2022     9    17    10     1   49.9110004     GPS         TIME OF FIRST OBS
 24 R01  1 R02 -4 R03  5 R04  6 R05  1 R06 -4 R07  5 R08  6 GLONASS SLOT / FRQ #
    R09 -2 R10 -5 R11  0 R12 -1 R13 -2 R14 -7 R15  0 R16 -1 GLONASS SLOT / FRQ #
    R17  4 R18 -3 R19  3 R20  2 R21  4 R22 -3 R23  3 R24  2 GLONASS SLOT / FRQ #
G L1C                                                       SYS / PHASE SHIFT
G L5Q -0.25000                                              SYS / PHASE SHIFT
R L1C                                                       SYS / PHASE SHIFT
E L1B                                                       SYS / PHASE SHIFT
E L1C +0.50000                                              SYS / PHASE SHIFT
E L5Q -0.25000                                              SYS / PHASE SHIFT
C L2I                                                       SYS / PHASE SHIFT
J L1C                                                       SYS / PHASE SHIFT
J L5Q -0.25000                                              SYS / PHASE SHIFT
 C1C    0.000 C1P    0.000 C2C    0.000 C2P    0.000        GLONASS COD/PHS/BIS
                                                            END OF HEADER
> 2022  9 17 10  1 49.9110004  0  0
> 2022  9 17 10  1 50.5330006  0  0
> 2022  9 17 10  1 51.5123505  0  0
> 2022  9 17 10  1 52.4927190  0  0
> 2022  9 17 10  1 53.4983473  0  0
> 2022  9 17 10  1 54.5126936  0  0
> 2022  9 17 10  1 55.5280944  0  0
> 2022  9 17 10  1 56.4951753  0  0
> 2022  9 17 10  1 57.4953415  0  0
> 2022  9 17 10  1 58.4912730  0  0
> 2022  9 17 10  1 59.4912732  0  0
> 2022  9 17 10  2  0.4901895  0  0
> 2022  9 17 10  2  1.4808228  0  0
> 2022  9 17 10  2  2.5066984  0  0
> 2022  9 17 10  2  3.5219809  0  0
> 2022  9 17 10  2  4.5437411  0  0
> 2022  9 17 10  2  5.5148008  0  0
> 2022  9 17 10  2  6.5027480  0  0
> 2022  9 17 10  2  7.5151879  0  0
> 2022  9 17 10  2  8.4940224  0  0
> 2022  9 17 10  2  9.5333402  0  0
> 2022  9 17 10  2 10.5078516  0  0
> 2022  9 17 10  2 11.5183992  0  0
> 2022  9 17 10  2 12.5138021  0  0
> 2022  9 17 10  2 13.4845302  0  0
> 2022  9 17 10  2 14.4830911  0  0
> 2022  9 17 10  2 15.4684073  0  0
> 2022  9 17 10  2 16.4955574  0  0
> 2022  9 17 10  2 17.4747717  0  0
> 2022  9 17 10  2 18.4545189  0  0
> 2022  9 17 10  2 19.4607543  0  0
> 2022  9 17 10  2 20.4833056  0  0
> 2022  9 17 10  2 21.5083550  0  0
> 2022  9 17 10  2 22.4987542  0  0
> 2022  9 17 10  2 23.5022123  0  0
> 2022  9 17 10  2 24.4985627  0  0
> 2022  9 17 10  2 25.4386571  0  0
> 2022  9 17 10  2 26.4695038  0  0
> 2022  9 17 10  2 27.4286265  0  0
> 2022  9 17 10  2 28.4730837  0  0
> 2022  9 17 10  2 29.4773934  0  0
> 2022  9 17 10  2 30.5147083  0  0
> 2022  9 17 10  2 31.5105162  0  0
> 2022  9 17 10  2 32.5105164  0  0
> 2022  9 17 10  2 33.4699367  0  0
> 2022  9 17 10  2 34.4699369  0  0
> 2022  9 17 10  2 35.4699371  0  0
> 2022  9 17 10  2 36.4372031  0  0
> 2022  9 17 10  2 37.4394514  0  0
> 2022  9 17 10  2 38.4588470  0  0
> 2022  9 17 10  2 39.4588472  0  0
> 2022  9 17 10  2 40.4697027  0  0
> 2022  9 17 10  2 41.4634886  0  0
> 2022  9 17 10  2 42.4634888  0  0
> 2022  9 17 10  2 43.4830059  0  0
> 2022  9 17 10  3 27.5056388  0  0
> 2022  9 17 10  3 28.5021672  0  0
> 2022  9 17 10  3 29.5099084  0  0
> 2022  9 17 10  3 30.5002078  0  0
> 2022  9 17 10  3 31.5034624  0  7
G01  20707714.647   108819775.3911      -1103.363          30.914  
G17  21568084.226   113341047.9961       1295.024          27.811  
G19  23135647.425   121578648.3591       3157.289          35.214  
G21  22557702.428   118541526.9101      -1763.538          34.570  
G22  23532048.902   123661751.7111      -2069.490          30.204  
G31  24350816.281   127964404.1721       1946.487          38.107  
G32  25696666.768                       -3039.774          23.276  
> 2022  9 17 10  3 32.5024627  0  7
G01  20408221.682   107245929.969       -1101.950          31.153    20408223.481    80086252.3341       -822.853          29.323  
G17  21268136.176   111764804.293        1296.327          29.951  
G19  22835344.120   120000542.387        3158.597          35.885  
G21  22258336.274   116968341.941       -1762.406          34.868  
G22  23232738.210   122088872.320       -2067.981          31.224  
G31  24050744.716   126387509.465        1947.332          37.875  
G32  25397537.151                       -3039.305          23.560  
> 2022  9 17 10  3 33.5024629  0 11
E07                                                                  27435312.229   144173539.8321      -2319.380          33.018  
E10                                                                  25905906.614                        2688.964          25.604  
E26                                                                  27777327.456                       -2286.111          30.452  
E33                                                                  23870774.207                        -795.371          27.770  
G01  20408489.996   107247346.270       -1101.217          30.993    20408493.294    80087310.027        -822.405          28.836  
G17  21267949.405   111763822.426        1296.957          29.643  
G19  22834803.594   119997698.121        3159.352          35.321  
G21  22258734.099   116970418.648       -1761.620          34.772  
G22  23233189.697   122091254.668       -2067.264          30.783  
G31  24050435.330   126385876.609        1947.940          38.189  
G32  25398182.004                       -3037.521          22.778  
> 2022  9 17 10  3 34.0004630  0 11
E07                                                                  27435561.956                       -2318.409          33.168  
E10                                                                  25905691.363                        2702.219          25.232    25905697.359                        2016.498          17.030  
E26                                                                  27777576.284                       -2284.010          30.657  
E33                                                                  23870877.635                        -792.592          27.732  
G01  20408626.102                       -1100.561          31.417    20408627.301                        -821.208          28.254  
G17  21267857.369                        1296.739          29.669  
G19  22834530.783                        3159.479          35.900  
G21  22258929.864                       -1761.482          34.570  
G22  23233415.441                       -2066.496          30.500  
G31  24050279.138                        1947.529          37.965  
G32  25398502.183                       -3038.270          21.549    25398506.380                       -2252.574          19.272  
> 2022  9 17 10  3 35.0004632  0 11
E07                                                                  27436064.108   144177484.9341      -2317.817          32.806    27436077.599                       -1736.929          19.658  
E10                                                                  25905232.681                        2704.916          23.479    25905245.871                        2013.235          27.146  
E26                                                                  27778073.040   145974737.5661      -2286.152          29.840  
E33                                                                  23871087.190   125443425.7231       -792.538          28.516  
G01  20408898.613   107249467.2891      -1100.257          30.984    20408896.515    80088893.9001       -821.659          27.038  
G17  21267669.998   111762351.3161       1297.728          27.844  
G19  22833991.157   119993436.7851       3160.342          34.146  
G21  22259319.594   116973528.3911      -1760.211          34.358  
G22  23233864.830   122094823.0121      -2066.549          28.599  
G31  24049966.455   126383430.0471       1948.949          38.062  
G32  25399137.443                       -3035.364          22.461    25399151.233                       -2265.984          20.239  
> 2022  9 17 10  3 36.0004635  0 12
E07                                                                  27436587.246                       -2314.925          29.960    27436607.032                       -1727.695          21.909  
E10                                                                  25904817.768   136130624.1911       2702.261          25.360    25904823.164   101656095.2421       2007.496          27.728  
E26                                                                  27778598.277                       -2283.787          30.187    27778609.968                       -1707.219          35.130  
E33                                                                  23871330.921                        -790.121          27.843    23871342.314    93676275.0201       -590.614          23.306  
G01  20409193.609   107251038.801       -1098.883          30.966    20409194.808    80090067.434        -820.598          28.337  
G03                                                                  20238612.000    79420660.7321        224.627          30.222  
G17  21267513.807   111761524.992        1298.950          28.460  
G19  22833476.413   119990747.777        3161.631          34.888  
G21  22259745.299   116975759.719       -1758.706          35.334  
G22  23234348.395   122097360.363       -2064.725          28.959  
G31  24049686.748   126381952.496        1950.176          37.742  
G32  25399805.381                       -3037.383          21.950    25399814.674                       -2265.621          21.757  
> 2022  9 17 10  3 37.0004637  0 12
E07                                                                  27437089.698   144182904.3091      -2315.454          31.830    27437105.887   107669108.6991      -1729.163          21.802  
E10                                                                  25904358.486   136128236.180        2703.097          26.353    25904367.779                        2019.448          27.657  
E26                                                                  27779095.033   145980092.8951      -2283.427          30.502    27779104.326                       -1703.070          35.313  
E33                                                                  23871552.768   125445794.7891       -790.390          27.429    23871549.770    93677100.482        -590.174          23.471  
G01  20409458.626   107252452.301       -1098.415          30.146    20409463.123    80091122.949        -820.228          29.625  
G03                                                                  20238614.699    79420671.049         224.971          31.146  
G17  21267326.436   111760540.852        1299.226          28.507  
G19  22832937.986   119987900.820        3162.046          34.956  
G21  22260139.826   116977832.902       -1758.095          34.571  
G22  23234804.380   122099739.191       -2063.741          28.137  
G31  24049374.664   126380316.969        1950.611          37.541  
G32  25400449.934                       -3033.638          21.903  
> 2022  9 17 10  3 38.0004639  0 12
E07                                                                  27437591.251   144185534.715       -2315.323          32.740    27437603.243   107671073.121       -1729.131          20.639  
E10                                                                  25903902.801                        2703.691          28.611    25903915.692   101652528.5211       2018.517          25.751  
E26                                                                  27779590.290   145982691.168       -2283.192          30.076    27779599.583   109013123.6021      -1705.017          34.692  
E33                                                                  23871758.426   125446900.191        -790.323          26.520    23871763.222                        -589.628          23.259  
G01  20409732.336   107253865.973       -1098.591          28.227    20409735.034    80092178.713        -820.472          27.610  
G03                                                                  20238617.996    79420681.443         224.897          31.238  
G17  21267140.565   111759556.945        1298.989          29.385  
G19  22832396.561   119985053.867        3162.035          37.210  
G21  22260536.751   116979905.996       -1758.014          34.841  
G22  23235253.769                       -2063.428          25.338  
G31  24049064.679   126378681.676        1950.376          36.243  
G32  25401074.402   133483569.0001      -3034.077          24.201    25401092.390                       -2264.837          22.841  
> 2022  9 17 10  3 39.0004641  0 12
E07                                                                  27438099.099   144188164.602       -2314.800          32.796    27438105.395   107673036.938       -1728.528          25.272  
E10                                                                  25903439.922   136123459.0471       2703.980          26.752    25903456.710   101650744.561        2019.252          27.893  
E26                                                                  27780084.048   145985288.914       -2282.660          29.485    27780092.142   109015063.459       -1704.568          33.890  
E33                                                                  23871968.280                        -790.363          26.859    23871973.077    93678751.0801       -589.793          24.115  
G01  20410000.051   107255279.348       -1098.291          26.891    20410000.651    80093234.023        -820.022          28.222  
G03                                                                  20238621.894    79420691.656         225.077          31.250  
G17  21266956.193   111758572.793        1299.235          27.717  
G19  22831855.435   119982206.813        3162.140          35.190  
G21  22260929.779   116981978.637       -1757.555          34.255  
G22  23235706.155                       -2062.399          22.949  
G31  24048753.195   126377046.141        1950.620          37.364  
G32  25401716.857                       -3035.214          23.437    25401730.348    99681821.5201      -2265.307          22.740  
> 2022  9 17 10  3 40.0004643  0 14
C06  39032595.197   203252966.1021         52.829          30.658  
C27  25752445.853   134099743.7891      -3069.669          34.357  
E07                                                                  27438602.151   144190794.688       -2315.005          32.912    27438606.048   107675001.000       -1728.771          25.546  
E10                                                                  25902993.231   136121070.367        2703.761          28.967    25903003.124   101648960.832        2019.018          28.377  
E26                                                                  27780579.605   145987886.859       -2282.864          30.333    27780586.800   109017003.445       -1704.696          34.780  
E33                                                                  23872179.634   125449110.6601       -790.270          28.405    23872182.332    93679576.574        -590.203          24.523  
G01  20410269.564                       -1099.471          28.666    20410268.665    80094289.814        -820.499          29.172  
G03                                                                  20238623.992    79420702.244         224.703          31.620  
G17  21266764.026   111757589.395        1298.484          28.313  
G19  22831313.411   119979360.227        3161.667          36.244  
G21  22261325.505   116984051.621       -1757.902          32.515  
G22  23236159.442                       -2063.892          22.535  
G31  24048441.710   126375411.133        1950.091          37.873  
G32  25402356.015                       -3035.756          22.991    25402364.709    99684322.510       -2265.701          21.396  
> 2022  9 17 10  3 41.0004645  0 14
C06  39032643.163   203253226.574          51.746          30.586  
C27  25753093.404   134103126.125       -3070.115          34.035  
E07                                                                  27439099.207   144193425.371       -2315.598          32.657    27439108.500   107676965.500       -1729.210          26.265  
E10                                                                  25902541.743   136118682.133        2703.323          29.379    25902547.440   101647177.385        2018.738          29.451  
E26                                                                  27781071.564   145990485.301       -2283.356          30.391    27781081.458   109018943.816       -1705.082          34.492  
E33                                                                  23872389.788   125450216.719        -790.971          28.074    23872393.086                        -590.745          26.709  
G01  20410539.078   107258107.9611      -1099.676          28.576    20410537.279    80095346.307        -821.203          31.233  
G03                                                                  20238627.889    79420713.420         224.113          31.858  
G17  21266576.056   111756607.004        1297.476          28.988  
G19  22830771.386   119976514.477        3160.835          36.275  
G21  22261725.728   116986125.203       -1758.496          33.095  
G22  23236603.434                       -2069.086          19.803  
G31  24048131.425   126373777.129        1949.090          37.242  
G32  25402996.671                       -3037.752          22.052    25403004.166    99686823.721       -2265.922          22.137  
> 2022  9 17 10  3 42.0004647  0 14
C06  39032693.229   203253486.859          51.933          30.668  
C27  25753744.554   134106508.418       -3070.075          34.050  
E07                                                                  27439599.261   144196055.938       -2315.484          32.482    27439608.554   107678929.766       -1728.976          26.765  
E10                                                                  25902086.059   136116293.801        2703.414          28.984    25902092.055   101645393.771        2018.905          29.599  
E26                                                                  27781567.121   145993083.570       -2283.189          30.008    27781576.415   109020884.084       -1704.975          34.566  
E33                                                                  23872601.742   125451322.797        -790.996          28.637    23872602.641    93681228.5761       -590.724          26.531  
G01  20410807.992   107259522.867       -1099.823          28.572    20410808.291    80096402.842        -821.243          31.095  
G03                                                                  20238629.988    79420724.750         223.961          31.952  
G17  21266391.983   111755624.906        1297.181          28.633  
G19  22830232.359   119973668.984        3160.575          35.718  
G21  22262114.859   116988198.863       -1758.579          33.993  
G22  23237057.320                       -2064.887          18.523  
G31  24047820.240   126372143.313        1948.898          37.114  
G32  25403628.634                       -3037.686          21.285    25403643.024                       -2265.893          21.738  
> 2022  9 17 10  3 43.0004649  0 15
C06  39032742.994   203253748.434          50.650          30.754  
C27  25754394.204   134109891.672       -3071.032          33.892  
E07                                                                  27440100.214   144198687.695       -2316.671          32.502    27440108.608                       -1730.510          27.422  
E10                                                                  25901633.073   136113906.504        2702.381          28.762    25901639.068   101643611.127        2017.933          29.604  
E26                                                                  27782060.580   145995683.070       -2284.413          30.231    27782069.873   109022825.223       -1705.850          34.278  
E33                                                                  23872813.095   125452430.270        -792.386          28.329    23872814.894    93682055.494        -591.629          25.590  
G01  20411071.209   107260939.230       -1101.280          28.303    20411076.306    80097460.570        -822.439          30.723  
G03  20238632.986   106354734.2731        298.918          28.185    20238632.386    79420737.109         222.930          32.089  
G09  24921551.869                        4214.397          22.229  
G17  21266207.011   111754644.398        1295.592          28.236  
G19  22829688.236   119970824.965        3159.107          36.194  
G21  22262508.786   116990273.828       -1759.879          33.771  
G22  23237509.407                       -2065.959          19.923  
G31  24047510.555   126370510.977        1947.422          37.132  
G32  25404271.988                       -3039.456          21.529    25404277.984                       -2266.361          22.616  
> 2022  9 17 10  3 44.0004651  0 15
C06  39032795.158   203254010.641          50.013          30.828  
C27  25755044.154   134113275.617       -3071.725          33.310  
E07                                                                  27440605.664   144201320.098       -2317.321          32.557    27440611.660   107682860.8261      -1730.457          27.174  
E10                                                                  25901177.088   136111519.816        2701.771          28.871    25901184.883   101641828.949        2017.468          29.467  
E26                                                                  27782555.537   145998283.117       -2284.965          30.698    27782564.231   109024766.807       -1706.293          34.246  
E33                                                                  23873023.849   125453538.434        -793.085          28.069    23873025.648    93682883.111        -592.327          25.268  
G01  20411337.725   107262356.547       -1102.234          28.183    20411346.419    80098518.959        -823.098          31.148  
G03  20238635.384   106354751.766         297.591          28.347    20238637.483    79420750.158         222.242          31.988  
G09  24920801.788                        4212.877          22.471  
G17  21266017.842   111753665.027        1294.452          28.786  
G19  22829148.609   119967981.840        3158.205          35.895  
G21  22262902.114   116992349.500       -1760.587          33.276  
G22  23237960.295                       -2069.411          17.817  
G31  24047200.270   126368879.695        1946.364          37.113  
G32  25404904.551                       -3041.245          20.853    25404917.142                       -2267.267          22.495  
> 2022  9 17 10  3 45.0004653  0 15
C06  39032847.022   203254272.688          50.172          30.497  
C27  25755690.806   134116659.313       -3071.477          32.882  
E07                                                                  27441103.619   144203952.359       -2317.175          32.298    27441112.913   107684826.484       -1730.371          26.930  
E10                                                                  25900722.303   136109132.973        2701.928          28.825    25900731.297   101640046.500        2017.739          29.566  
E26                                                                  27783051.394   146000883.027       -2284.824          30.861    27783058.889   109026708.332       -1706.237          34.155  
E33                                                                  23873236.103   125454646.648        -793.128          28.428    23873236.103    93683710.680        -592.278          25.867  
G01  20411614.134   107263774.070       -1102.438          28.061    20411617.731    80099577.461        -823.212          31.054  
G03  20238643.179   106354769.457         297.395          28.044    20238639.881    79420763.416         222.031          32.028  
G09  24920062.800                        4211.817          21.622  
G17  21265830.172   111752685.941        1294.173          28.414  
G19  22828609.582   119965138.980        3157.945          35.965  
G21  22263300.838   116994425.109       -1760.524          32.853  
G22  23238417.179                       -2069.140          17.219  
G31  24046888.785   126367248.656        1946.125          37.463  
G32  25405544.008                       -3040.034          20.523    25405555.700    99696831.9411      -2267.185          21.797  
> 2022  9 17 10  3 46.0004655  0 16
C06  39032893.190   203254534.957          49.947          30.243  
C09  39139056.295   203807337.9341        639.076          26.056  
C27  25756343.155   134120043.191       -3071.661          32.907  
E07                                                                  27441604.273   144206584.902       -2317.463          32.376    27441611.767   107686792.369       -1730.594          27.119  
E10                                                                  25900266.619   136106746.211        2701.845          28.608    25900277.111   101638264.184        2017.608          29.903  
E26                                                                  27783546.051   146003483.098       -2284.987          31.006    27783554.445   109028649.922       -1706.298          34.114  
E33                                                                  23873445.657   125455755.211        -793.481          28.308    23873446.257    93684538.533        -592.564          25.729  
G01  20411881.249   107265192.035       -1102.881          28.120    20411885.746    80100636.367        -823.616          31.133  
G03  20238646.177                         296.288          27.493    20238642.879    79420777.021         221.686          31.874  
G09  24919325.610                        4210.964          22.044  
G17  21265645.500   111751707.445        1293.579          28.574  
G19  22828064.860   119962296.586        3157.474          36.080  
G21  22263692.966   116996501.059       -1760.868          32.748  
G22  23238854.276                       -2061.773          17.502  
G31  24046579.999   126365618.148        1945.590          37.707  
G32  25406187.362                       -3034.137          20.876    25406194.557    99699334.510       -2267.277          22.532  
> 2022  9 17 10  3 47.0004658  0 15
C06  39032975.034   203254954.629          48.661          29.980  
C09  39139019.421                         636.511          25.690  
C27  25757021.885   134123584.426       -3072.900          33.028  
E07                                                                  27442135.505   144209376.262       -2318.730          31.894    27442142.400   107688876.793       -1731.488          27.840  
E10                                                                  25899840.314   136104518.223        2700.617          28.341    25899853.205   101636600.422        2016.696          29.982  
E26                                                                  27784071.288   146006241.961       -2286.236          31.093    27784079.382   109030710.131       -1707.274          33.916  
E33                                                                  23873687.290   125457022.785        -794.944          28.310    23873687.290    93685484.969        -593.498          26.622  
G01  20412183.439   107266769.168       -1104.505          28.845    20412185.838    80101814.109        -824.807          31.165  
G03  20238680.653   106354965.4301        295.327          27.436    20238676.456    79420909.414         220.542          31.933  
G09  24918613.903                        4215.692          22.013  
G17  21265486.610   111750888.227        1291.845          28.539  
G19  22827558.810   119959613.332        3155.884          35.868  
G21  22264118.072   116998735.941       -1762.254          33.490  
G31  24046301.492   126364146.809        1943.967          37.759  
G32  25406843.009                       -3031.320          20.825    25406860.397                       -2268.727          22.458  
> 2022  9 17 10  3 48.0004660  0 16
C06  39033024.499   203255218.563          48.286          30.125  
C09  39138958.263   203806844.7191        637.023          25.440  
C27  25757673.933   134126969.766       -3073.125          33.174  
E07                                                                  27442636.758   144212010.430       -2319.086          31.830    27442645.752   107690843.840       -1731.757          28.222  
E10                                                                  25899387.027   136102132.953        2700.350          28.087    25899398.420   101634819.268        2016.444          30.125  
E26                                                                  27784566.545   146008843.582       -2286.538          31.395    27784574.639   109032652.877       -1707.457          34.079  
E33                                                                  23873898.344   125458133.219        -795.349          28.324    23873898.044    93686314.246        -593.989          26.811  
G01  20412456.550   107268189.375       -1105.122          28.739    20412457.450    80102874.572        -825.174          31.098  
G03  20238675.856   106354985.828         294.682          26.959    20238680.953    79420924.604         220.101          32.324  
G09  24917873.715                        4214.991          21.966  
G17  21265300.439   111749912.270        1291.040          28.395  
G19  22827015.286   119956773.211        3155.202          35.885  
G21  22264518.295   117000813.715       -1762.693          33.696  
G22  23239794.425                       -2073.389          16.777  
G31  24045990.008   126362518.656        1943.237          37.835  
G32  25407478.569                       -3034.331          20.368    25407498.655                       -2268.042          22.138  
> 2022  9 17 10  3 49.0004662  0 15
C06  39033074.265   203255481.656          49.123          30.112  
C09  39138894.707   203806519.223         637.715          25.736  
C27  25758321.785   134130354.262       -3072.275          33.289  
E07                                                                  27443138.311   144214643.789       -2318.275          32.209    27443147.604   107692810.344       -1731.214          27.404  
E10                                                                  25898934.041   136099746.816        2701.223          28.655    25898945.433   101633037.395        2017.164          29.629  
E26                                                                  27785062.701   146011444.359       -2285.694          31.987    27785068.697   109034595.016       -1706.848          33.761  
E33                                                                  23874112.995   125459242.906        -794.602          28.376    23874111.197    93687142.939        -593.402          26.810  
G01  20412729.062   107269609.027       -1104.566          29.553    20412725.764    80103934.742        -824.879          31.203  
G03  20238679.454   106355005.070         295.844          26.927    20238684.550    79420939.406         220.488          32.401  
G09  24917137.724                        4212.648          22.178  
G17  21265119.064   111748935.836        1291.522          28.424  
G19  22826475.960   119953932.547        3155.753          35.927  
G21  22264908.624   117002890.867       -1762.065          32.803  
G31  24045682.121   126360889.996        1943.743          37.874  
G32  25408112.929                       -3038.928          20.515    25408137.812                       -2268.500          22.134  
> 2022  9 17 10  3 50.0004664  0 18
C06  39033126.729   203255745.633          48.246          30.646  
C09  39138834.149   203806194.555         636.891          25.530  
C27  25758973.534   134133739.488       -3073.006          33.526  
E07                                                                  27443639.863   144217277.973       -2319.101          32.289    27443645.859   107694777.404       -1731.771          27.512  
E10                                                                  25898480.155   136097361.516        2700.382          28.513    25898490.048   101631256.045        2016.639          29.739  
E26                                                                  27785557.359   146014045.910       -2286.467          31.973    27785564.854   109036537.748       -1707.443          33.660  
E33                                                                  23874323.150   125460353.781        -795.793          28.210    23874321.651    93687972.461        -594.233          26.413  
G01  20412997.676   107271029.820       -1105.715          30.092    20412997.976    80104995.738        -825.707          30.795  
G03  20238681.253   106355026.102         294.051          27.008    20238689.347    79420954.979         219.716          32.256  
G09  24916397.837                        4207.386          21.963  
G17  21264925.698   111747960.711        1290.204          28.372  
G19  22825935.734   119951093.016        3154.611          35.738  
G21  22265300.753   117004968.859       -1762.913          32.995  
G22  23240693.802                       -2061.124          14.365  
G31  24045371.536   126359262.555        1942.524          37.912  
G32  25408756.884                       -3033.400          20.673    25408774.571                       -2268.912          21.639  
R07  19717533.735   105549502.4451       2249.625          26.569  
R21  19981965.073                       -1878.732          25.510  
> 2022  9 17 10  3 51.0004666  0 18
C06  39033177.394   203256010.547          47.307          30.475  
C09  39138772.392   203805870.352         636.422          25.233  
C27  25759625.882   134137125.766       -3074.057          33.599  
E07                                                                  27444140.517   144219913.250       -2320.192          32.228    27444149.810   107696745.289       -1732.593          27.670  
E10                                                                  25898027.169   136094977.059        2699.546          28.251    25898037.062   101629475.777        2015.557          29.577  
E26                                                                  27786053.216   146016648.500       -2287.506          31.883    27786060.111   109038481.232       -1708.193          33.738  
E33                                                                  23874534.504   125461465.703        -796.835          28.521    23874532.705    93688802.801        -595.050          25.827  
G01  20413271.686   107272451.930       -1107.022          30.131    20413268.089    80106057.668        -826.639          30.800  
G03  20238682.452   106355048.262         292.926          27.268    20238694.144    79420971.658         218.612          32.245  
G09  24915653.452                        4208.363          21.286  
G17  21264744.624   111746987.047        1288.751          28.326  
G19  22825396.707   119948254.863        3153.237          35.714  
G21  22265702.775   117007047.977       -1764.031          33.137  
G22  23241128.801                       -2064.131          15.941  
G31  24045061.250   126357636.473        1941.171          37.840  
G32  25409403.236                       -3035.424          20.026    25409410.731    99711971.2441      -2269.296          22.336  
R07  19717189.574   105547575.320        2248.090          25.808  
R21  19982392.278   106929733.1021      -1879.944          26.321  
> 2022  9 17 10  3 52.0004668  0 19
C06  39033228.358   203256276.480          46.283          30.618  
C09  39138710.335   203805547.691         634.881          25.031  
C27  25760271.035   134140512.840       -3074.857          33.787  
C32  22158127.947   115383187.0701       -844.355          27.444  
E07                                                                  27444641.470   144222549.418       -2321.085          31.931    27444649.564   107698713.857       -1733.279          27.711  
E10                                                                  25897574.482   136092593.504        2698.634          28.085    25897583.476   101627695.582        2015.485          29.726  
E26                                                                  27786548.773   146019251.965       -2288.380          32.130    27786555.068   109040425.377       -1708.855          33.896  
E33                                                                  23874744.059   125462578.625        -797.842          28.568    23874745.558    93689633.891        -595.799          25.928  
G01  20413544.497   107273875.258       -1108.245          30.045    20413538.202    80107120.584        -827.627          31.281  
G03  20238694.443   106355071.727         291.618          27.046    20238697.441    79420989.170         217.778          32.195  
G09  24914911.166                        4209.132          21.473  
G17  21264554.855                        1287.256          28.169  
G19  22824855.881   119945417.910        3152.037          35.771  
G21  22266094.603   117009128.188       -1765.128          32.656  
G22  23241630.054                       -2068.311          13.755  
G31  24044751.565   126356011.668        1939.886          37.828  
G32  25410031.601                       -3035.826          20.787    25410048.989                       -2269.289          22.512  
R07  19716832.821                        2244.975          25.168  
R21  19982792.201   106931935.262       -1881.308          26.308  
> 2022  9 17 10  3 53.0004670  0 18
C06  39033281.122   203256542.504          46.198          30.768  
C09  39138645.579                         634.219          25.631  
C27  25760922.484   134143900.016       -3074.954          33.755  
C32  22158349.194   115384344.457        -845.167          27.596  
E07                                                                  27445142.723   144225185.773       -2321.267          32.004    27445151.417   107700682.533       -1733.386          27.703  
E10                                                                  25897119.098   136090210.043        2698.548          27.959    25897129.890   101625915.746        2015.127          29.847  
E26                                                                  27787044.030   146021855.516       -2288.468          32.337    27787051.225   109042369.641       -1708.974          33.996  
E33                                                                  23874956.611   125463691.945        -798.234          28.372    23874956.012                        -596.170          26.054  
G01  20413811.912   107275299.000       -1108.658          30.538    20413810.113    80108183.797        -827.922          31.114  
G03  20238700.739   106355095.633         291.180          27.726    20238701.938    79421006.984         217.477          32.194  
G09  24914173.676                        4207.782          21.017  
G17  21264374.380   111745042.9611       1286.770          28.523  
G19  22824319.852   119942581.453        3151.543          35.852  
G21  22266492.728   117011208.703       -1765.428          32.555  
G31  24044441.879   126354387.367        1939.387          37.862  
G32  25410672.857                       -3042.248          21.716    25410687.247                       -2270.286          22.156  
R07  19716454.183                        2245.646          24.866  
R21  19983218.206   106934138.188       -1882.076          27.711  
> 2022  9 17 10  3 54.0004672  0 18
C06  39033329.388   203256809.715          45.012          30.421  
C09  39138588.619   203804904.1481        633.669          24.674  
C27  25761576.931   134147288.164       -3075.928          34.355  
C32  22158571.340                        -846.466          27.441  
E07                                                                  27445648.173   144227823.184       -2322.328          32.158    27445653.569   107702652.072       -1734.249          27.854  
E10                                                                  25896666.411   136087827.629        2697.498          27.983    25896677.803   101624136.658        2014.377          29.887  
E26                                                                  27787537.488   146024460.176       -2289.576          32.343    27787546.182   109044314.635       -1709.703          33.919  
E33                                                                  23875170.663   125464806.406        -799.379          28.100    23875168.265                        -597.335          25.536  
G01  20414082.625   107276724.188       -1110.105          30.565    20414079.927    80109248.057        -828.969          30.447  
G03  20238704.636   106355120.902         289.814          27.725    20238706.435    79421025.848         216.426          32.249  
G09  24913434.388                        4205.378          20.601  
G17  21264188.808                        1284.463          28.304  
G19  22823774.530   119939746.391        3150.144          35.869  
G21  22266884.856   117013290.398       -1766.614          33.047  
G31  24044134.592   126352764.508        1937.938          37.859  
G32  25411318.310                       -3041.524          21.524    25411330.602    99719488.1931      -2270.996          21.407  
R07  19716103.126                        2244.845          24.593  
R21  19983621.727   106936342.648       -1883.613          27.160  
> 2022  9 17 10  3 55.0004674  0 18
C06  39033382.452   203257076.992          44.939          30.649  
C09  39138523.264   203804582.816         633.553          24.649  
C27  25762226.582   134150676.461       -3076.078          34.332  
C32  22158790.788   115386662.2501       -846.914          27.848  
E07                                                                  27446147.927   144230460.809       -2322.539          31.991    27446155.722   107704621.715       -1734.350          27.592  
E10                                                                  25896215.223   136085445.305        2697.411          27.829    25896222.718   101622357.600        2014.349          29.817  
E26                                                                  27788035.443   146027064.926       -2289.666          32.080    27788042.938   109046259.727       -1709.802          34.110  
E33                                                                  23875384.415   125465921.242        -799.748          28.231    23875380.518    93692130.0181       -597.189          25.351  
G01  20414355.436   107278149.785       -1110.509          30.740    20414352.438    80110312.641        -829.294          30.585  
G03  20238709.733   106355146.547         289.438          27.927    20238712.731    79421045.033         216.105          32.489  
G09  24912688.205                        4208.475          20.416  
G17  21264002.637   111743103.1291       1284.762          28.038  
G19  22823239.400   119936911.730        3149.745          35.766  
G21  22267285.079   117015372.227       -1766.742          33.274  
G31  24043827.305   126351142.117        1937.479          37.817  
G32  25411960.166                       -3039.309          22.345    25411965.862    99721994.578       -2271.093          22.371  
R07  19715734.981   105539878.6211       2243.636          25.434  
R21  19984024.048   106938547.863       -1884.364          27.411  
> 2022  9 17 10  3 56.0004676  0 18
C06  39033432.517   203257344.617          44.593          30.600  
C09  39138458.209   203804261.828         633.205          24.331  
C27  25762878.031   134154064.934       -3076.254          34.330  
C32  22159016.232   115387821.840        -847.374          27.503  
E07                                                                  27446649.480   144233098.707       -2322.817          31.912    27446657.275   107706591.533       -1734.530          28.096  
E10                                                                  25895758.939   136083063.141        2697.246          27.885    25895769.432   101620578.803        2014.087          29.620  
E26                                                                  27788530.401   146029669.914       -2289.905          31.723    27788538.495   109048205.037       -1710.020          34.612  
E33                                                                  23875594.870   125467036.469        -800.146          28.289    23875592.171    93692962.785        -597.479          25.574  
G01  20414627.048   107279575.957       -1111.093          30.477    20414624.050    80111377.580        -829.650          30.860  
G03  20238714.829   106355172.770         288.860          27.760    20238716.628    79421064.643         215.679          32.462  
G09  24911947.118                        4207.119          19.066  
G17  21263820.064                        1284.130          28.022  
G19  22822697.375   119934077.766        3149.050          35.632  
G21  22267684.403   117017454.559       -1767.251          33.761  
G31  24043515.521   126349520.441        1936.757          37.977  
G32  25412602.321                       -3040.239          22.477    25412605.919                       -2271.476          22.178  
R07  19715382.725                        2242.581          25.686  
R21  19984448.854   106940753.750       -1885.039          27.655  
> 2022  9 17 10  3 57.0004678  0 17
C06  39033483.781   203257611.461          45.376          30.380  
C09  39138394.653   203803939.594         634.454          24.778  
C27  25763526.182   134157452.664       -3075.510          34.416  
C32  22159242.276   115388980.914        -846.853          27.152  
E07                                                                  27447150.133   144235735.898       -2322.108          32.009    27447160.626   107708560.898       -1734.074          28.409  
E10                                                                  25895306.253   136080680.246        2697.979          27.639    25895315.846   101618799.293        2014.801          29.767  
E26                                                                  27789025.358   146032274.168       -2289.170          31.683    27789035.251   109050149.770       -1709.441          34.785  
E33                                                                  23875808.322   125468151.113        -799.560          28.267    23875803.825    93693795.230        -597.155          26.486  
G01  20414897.461   107281001.703       -1110.661          30.260    20414895.962    80112442.324        -829.455          31.297  
G03  20238724.123   106355198.625         289.233          27.553    20238723.223    79421083.932         216.002          32.412  
G17  21263635.392   111741164.8951       1284.281          28.156  
G19  22822158.049   119931243.305        3149.544          35.704  
G21  22268075.032   117019536.203       -1766.555          33.557  
G31  24043209.432   126347898.289        1937.237          37.818  
G32  25413233.385                       -3043.379          22.102    25413242.678    99727007.0821      -2270.662          22.020  
R07  19715018.477   105536034.5821       2243.128          25.777  
R21  19984861.069   106942959.473       -1884.871          27.281  
> 2022  9 17 10  3 58.0004681  0 18
C06  39033567.424   203258033.020          46.772          30.467  
C09  39138361.976   203803772.988         634.933          24.403  
C20  22382626.330   116552209.6991       2291.798          25.271  
C27  25764208.510   134160994.977       -3073.985          34.284  
C32  22159489.305   115390294.813        -845.571          28.448  
E07                                                                  27447682.565   144238529.059       -2320.535          32.057    27447690.659   107710646.715       -1732.883          28.247  
E10                                                                  25894884.145   136078453.195        2699.675          28.220    25894891.640   101617136.293        2015.933          29.634  
E26                                                                  27789550.894   146035034.387       -2287.592          30.915    27789558.989   109052210.936       -1708.233          34.705  
E33                                                                  23876049.655   125469421.871        -798.133          28.965    23876044.558    93694744.199        -596.034          25.708  
G01  20415196.653   107282583.754       -1109.425          30.600    20415196.953    80113623.721        -828.463          31.207  
G03  20238756.500   106355380.688         290.564          27.251    20238756.500    79421219.914         216.951          32.220  
G17  21263481.898   111740352.066        1285.455          28.517  
G19  22821650.800   119928565.168        3150.764          35.640  
G21  22268502.836   117021774.004       -1765.178          33.818  
G31  24042928.227   126346432.559        1938.356          38.118  
G32  25413898.024                       -3036.966          21.176    25413910.016                       -2269.249          21.751  
R07  19714677.613                        2244.204          26.239  
R21  19985298.466   106945324.520       -1883.774          28.398  
> 2022  9 17 10  3 59.0004683  0 18
C06  39033618.688   203258298.129          47.106          30.247  
C09  39138303.216                         635.885          24.456  
C20  22382249.191   116550230.012        2291.907          25.393  
C27  25764858.460   134164380.738       -3073.542          34.286  
C32  22159712.950   115391452.566        -845.537          28.219  
E07                                                                  27448184.717   144241164.543       -2320.402          31.843    27448192.812   107712614.748       -1732.742          28.179  
E10                                                                  25894429.659   136076068.441        2699.837          27.969    25894438.953   101615355.461        2016.123          29.864  
E26                                                                  27790044.652   146037636.824       -2287.355          30.500    27790056.344   109054154.320       -1708.095          35.126  
E33                                                                  23876260.109   125470534.996        -798.042          28.706    23876257.111    93695575.436        -595.947          26.355  
G01  20415470.364   107284008.277       -1109.439          29.741    20415468.265    80114687.459        -828.446          31.216  
G03  20238759.498   106355405.305         290.464          27.472    20238762.496    79421238.264         216.942          32.475  
G17  21263294.827   111739381.934        1285.214          27.586  
G19  22821109.075   119925729.605        3150.644          35.514  
G21  22268900.361   117023854.129       -1765.044          33.719  
G31  24042618.242   126344809.410        1938.232          37.810  
G32  25414533.585                       -3036.381          21.966    25414550.073    99732134.3501      -2269.416          22.438  
R07  19714323.558   105532349.0781       2243.861          26.084  
R21  19985712.779   106947529.438       -1884.063          27.964  
> 2022  9 17 10  4  0.0004685  0 18
C06  39033665.755   203258562.945          47.408          30.127  
C09  39138246.556                         636.292          24.592  
C20  22381869.654                        2290.285          25.210  
C27  25765508.110   134167766.227       -3073.266          34.031  
C32  22159937.195   115392610.270        -845.480          28.106  
E07                                                                  27448686.270   144243799.629       -2320.000          32.037    27448694.364   107714582.473       -1732.436          28.486  
E10                                                                  25893976.673   136073683.195        2700.332          27.775    25893985.067   101613574.193        2016.558          29.846  
E26                                                                  27790537.211   146040238.793       -2286.883          31.034    27790550.103   109056097.393       -1707.782          35.031  
E33                                                                  23876469.964   125471647.945        -797.863          28.404    23876469.364    93696406.469        -595.743          25.802  
G01  20415742.576   107285432.785       -1109.424          29.765    20415739.278    80115751.191        -828.444          31.324  
G03  20238763.995   106355429.820         290.572          27.654    20238766.993    79421256.533         217.020          32.676  
G17  21263111.055   111738411.871        1285.148          28.370  
G19  22820570.048   119922893.957        3150.734          35.300  
G21  22269292.490   117025934.008       -1764.792          33.815  
G31  24042310.355   126343186.293        1938.204          37.756  
G32  25415166.746                       -3038.501          21.956    25415192.229                       -2269.206          22.534  
R07  19713969.503   105530426.367        2243.674          26.110  
R21  19986107.306   106949734.523       -1884.242          27.356  
> 2022  9 17 10  4  1.0004687  0 20
C06  39033720.018   203258827.574          47.591          31.028  
C09  39138181.201   203802801.9531        636.051          23.167  
C20  22381488.918                        2291.159          25.340  
C27  25766161.657   134171151.523       -3073.076          34.338  
C32  22160159.341   115393768.039        -845.550          28.128  
E07                                                                  27449187.523   144246434.586       -2319.874          32.574    27449196.517   107716550.137       -1732.374          28.158  
E10                                                                  25893521.588   136071297.707        2700.569          27.952    25893531.781   101611792.906        2016.577          29.398  
E26                                                                  27791033.368   146042840.707       -2286.834          31.032    27791046.859   109058040.336       -1707.653          34.948  
E33                                                                  23876682.816   125472760.895        -797.867          28.181    23876679.219                        -595.941          24.880  
G01  20416010.290   107286857.469       -1109.601          29.831    20416010.590    80116815.082        -828.600          30.958  
G03  20238769.691   106355454.484         290.414          28.116    20238770.591    79421274.996         216.827          32.600  
G04  22183127.640                        3430.120          21.146  
G09  24908268.365                        4207.972          18.828  
G17  21262926.083   111737442.137        1284.818          27.998  
G19  22820032.520   119920058.520        3150.518          35.319  
G21  22269687.616   117028013.871       -1764.783          34.565  
G31  24042003.068   126341563.363        1938.012          38.182  
G32  25415813.698                       -3043.063          21.137    25415825.390    99737143.1721      -2269.033          22.106  
R07  19713621.444                        2240.940          25.788  
R21  19986541.405   106951939.977       -1884.601          28.659  
> 2022  9 17 10  4  2.0004689  0 19
C06  39033769.484   203259092.004          47.788          30.957  
C09  39138114.347                         638.697          23.456  
C20  22381109.380   116544290.6331       2292.172          25.914  
C27  25766806.511   134174536.379       -3072.639          33.223  
C32  22160380.888   115394925.504        -845.245          28.050  
E10                                                                  25893067.702   136068911.770        2701.023          27.778    25893076.396   101610011.240        2016.956          29.259  
E26                                                                  27791527.426   146045442.223       -2286.427          30.371    27791540.617   109059982.990       -1707.366          35.744  
G01  20416279.504   107288282.020       -1109.464          29.215    20416280.703    80117878.879        -828.509          31.085  
G03  20238774.188   106355479.125         290.446          28.143    20238775.088    79421293.367         216.918          32.274  
G04  22182535.550                        3428.002          19.873  
G09  24907517.684                        4212.577          16.109  
G17  21262740.211   111736472.348        1284.873          28.321  
G19  22819490.495   119917223.090        3150.517          35.035  
G21  22270083.642   117030093.426       -1764.468          33.991  
G22  23246194.095                       -2074.343          14.365  
G31  24041692.782   126339940.371        1938.076          38.172  
G32  25416453.156                       -3038.529          21.883    25416463.948                       -2268.458          22.202  
R07  19713252.100   105526581.6801       2243.265          26.126  
R21  19986936.532   106954145.520       -1884.691          28.159  
> 2022  9 17 10  4  3.0004691  0 19
C06  39033819.249   203259355.430          48.793          31.105  
C09  39138053.489                         641.104          21.779  
C20  22380725.646                        2292.615          25.660  
C27  25767456.761   134177920.234       -3071.636          33.119  
C32  22160603.034   115396082.469        -844.747          29.090  
E10                                                                  25892613.816   136066525.047        2701.807          27.744    25892621.011   101608228.893        2017.639          26.551  
E26                                                                  27792021.784   146048042.762       -2285.457          28.279    27792035.274   109061924.920       -1706.638          35.466  
G01  20416549.317   107289705.988       -1108.888          28.010    20416555.013    80118942.273        -828.103          31.600  
G03  20238778.685   106355503.055         291.153          27.732    20238778.685    79421311.314         217.344          32.806  
G04  22181947.957                        3426.338          20.052  
G09  24906783.792                        4216.999          18.265  
G17  21262553.141   111735502.215        1285.217          27.621  
G19  22818953.867   119914386.957        3151.214          35.883  
G21  22270483.865   117032172.258       -1763.749          35.926  
G22  23246661.471                       -2072.906          20.431  
G31  24041382.797   126338316.875        1938.578          37.934  
G32                                                                  25417104.305                       -2267.894          23.098  
R07  19712890.550                        2244.207          24.895  
R21  19987344.250   106956350.656       -1884.289          27.998  
> 2022  9 17 10  4  4.0004693  0 20
C06  39033869.914   203259618.742          48.912          32.033  
C09  39137996.829                         637.246          20.350  
C20  22380344.910   116540329.4491       2292.852          25.404  
C27  25768106.711   134181303.973       -3071.515          32.348  
C30  22082043.619                       -1469.874          23.683  
C32  22160828.478   115397239.523        -844.831          27.820  
E10                                                                  25892159.931                        2702.449          28.528  
E26                                                                  27792516.141   146050643.145       -2285.296          27.655    27792532.030   109063866.746       -1706.538          36.224  
G01  20416817.631   107291130.117       -1109.041          26.768  
G03  20238781.983   106355527.125         291.017          27.777    20238783.182    79421329.242         217.362          32.366  
G04  22181348.972                        3423.774          18.981  
G09  24906043.305                        4213.656          20.422  
G17  21262372.965                        1285.151          27.507  
G19  22818412.742   119911551.094        3150.951          36.410  
G21  22270883.488   117034251.047       -1763.703          35.382  
G22  23247117.755   122164180.0781      -2072.578          25.308  
G31  24041075.510   126336693.621        1938.340          37.019  
G32  25417723.376   133571055.5081      -3037.177          25.691    25417740.764                       -2267.719          24.113  
R07  19712526.902                        2241.944          23.084  
R21  19987773.552   106958556.184       -1884.677          29.388  
> 2022  9 17 10  4  5.0004695  0 22
C06  39033921.478   203259880.867          50.093          31.914  
C09  39137923.379                         637.716          17.789  
C20  22379965.372   116538347.887        2293.780          25.054  
C27  25768758.160   134184686.371       -3070.180          32.237  
C30  22082384.184   114988777.9141      -1469.539          23.979  
C32  22161054.221   115398395.500        -843.758          27.137  
E07                                                                                                                                  27451203.327                       -1736.244          22.330  
E10                                                                  25891705.445   136061749.6641       2703.456          27.789    25891714.139                        2019.678          24.295  
E26                                                                  27793009.300                       -2283.141          26.469    27793026.388   109065807.576       -1705.540          35.720  
E33                                                                                                                                  23877528.831                        -596.283          22.443  
G01  20417089.843   107292553.277       -1108.076          26.967    20417097.038    80121068.5061       -827.473          29.506  
G03  20238790.377   106355550.262         291.947          28.552    20238789.178    79421346.543         217.990          32.986  
G04  22180747.288                        3424.938          20.447  
G09  24905285.729                        4210.871          19.182  
G17  21262189.493   111733561.4841       1285.892          27.982  
G19  22817870.717   119908714.184        3151.994          35.724  
G21  22271274.118   117036328.617       -1762.485          35.791  
G22  23247573.140                       -2071.716          24.455  
G31  24040764.625   126335069.426        1939.282          38.337  
G32  25418367.330   133574406.496       -3035.905          27.014    25418379.322                       -2266.061          24.459  
R07  19712166.851   105520813.9301       2244.021          23.076  
R21  19988179.471   106960760.832       -1883.800          28.851  
> 2022  9 17 10  4  6.0004697  0 22
C06  39033970.644   203260141.441          51.645          31.586  
C09  39137867.018                         643.439          16.279  
C20  22379582.537   116536365.016        2295.093          25.717  
C27  25769407.810   134188067.109       -3068.519          32.039  
C30  22082722.050                       -1468.177          23.987  
C32  22161274.569   115399550.090        -842.374          27.320  
E07                                                                                                                                  27451698.884                       -1736.965          22.016  
E10                                                                  25891251.260   136059359.617        2705.128          28.210  
E26                                                                  27793506.056   146055839.6131      -2282.323          26.605    27793520.146   109067747.242       -1704.376          35.563  
E33                                                                                                                                  23877740.184    93701380.1331       -592.954          22.486  
G01  20417360.256                       -1106.540          27.336    20417365.952    80122130.273        -826.479          29.489  
G03  20238793.675   106355572.129         293.215          28.458    20238792.476    79421362.826         219.006          32.823  
G04  22180158.496                        3429.748          19.648  
G09  24904565.628                        4216.016          20.189  
G17  21262003.022   111732589.633        1286.936          28.190  
G19  22817332.589   119905876.063        3153.205          36.227  
G21  22271667.745   117038404.777       -1761.079          36.091  
G22  23248023.128                       -2070.317          24.857  
G31  24040457.637   126333443.965        1940.543          37.837  
G32  25419002.291   133577755.914       -3034.334          27.384    25419016.081    99749657.5411      -2265.977          24.837  
R07  19711811.597                        2245.604          23.588  
R21  19988588.388   106962964.516       -1882.830          28.945  
> 2022  9 17 10  4  7.0004700  0 22
C06  39034050.689   203260556.844          52.924          31.711  
C09  39137829.844                         645.480          17.122  
C20  22379234.478   116534537.207        2296.137          26.012  
C27  25770084.742   134191602.773       -3067.338          31.974  
C30  22083095.891                       -1467.019          24.353  
C32  22161524.596   115400859.816        -841.398          27.586  
E07                                                                                                                                  27452231.915                       -1724.988          22.700  
E10                                                                  25890824.955   136057125.930        2706.312          27.930  
E26                                                                  27794028.894   146058593.379       -2281.139          27.609    27794045.083   109069803.605       -1703.430          35.730  
E33                                                                                                                                  23877979.719    93702325.400        -592.335          22.859  
G01  20417671.140   107295553.6601      -1105.854          27.347    20417666.044    80123309.020        -825.813          29.834  
G03  20238831.748   106355750.559         294.198          28.529    20238826.352    79421496.084         219.675          33.231  
G04  22179593.387                        3432.800          18.512  
G09  24903854.520                        4220.650          21.013  
G17  21261847.729   111731774.480        1287.778          28.634  
G19  22816821.143   119903194.523        3154.164          36.750  
G21  22272099.446   117040637.316       -1759.913          36.378  
G22  23248509.991   122171496.0081      -2069.977          24.492  
G31  24040175.533   126331975.211        1941.379          37.872  
G32  25419676.824   133581261.676       -3033.140          26.799    25419680.721    99752275.396       -2264.922          24.669  
R07  19711477.028                        2246.788          24.175  
R21  19989049.169   106965327.813       -1882.023          28.847  
> 2022  9 17 10  4  8.0004702  0 22
C06  39034100.155   203260817.000          52.063          30.979  
C09  39137768.387                         637.835          22.034  
C20  22378856.140   116532554.363        2295.061          26.449  
C27  25770731.993   134194983.027       -3068.035          31.585  
C30  22083430.159                       -1465.174          22.776  
C32  22161747.641   115402014.547        -842.512          27.684  
E07                                                                                                                                  27452729.271                       -1727.262          21.721  
E10                                                                  25890372.268   136054735.488        2705.521          26.587  
E26                                                                  27794526.250   146061190.363       -2281.905          29.791    27794539.441   109071742.906       -1704.010          35.036  
E33                                                                                                                                  23878191.672    93703153.688        -592.997          23.219  
G01  20417933.459   107296975.578       -1106.838          26.757    20417934.358    80124370.928        -826.617          29.542  
G03  20238831.449   106355772.758         292.882          27.813    20238829.650    79421512.594         218.782          32.283  
G04  22178994.102                        3433.759          16.661  
G09  24903117.630                        4220.587          19.983  
G17  21261661.558   111730803.188        1286.375          29.613  
G19  22816282.716   119900356.742        3152.862          35.531  
G21  22272490.676   117042713.391       -1760.993          35.835  
G22  23248956.982                       -2073.344          24.674  
G31  24039867.046   126330350.133        1940.157          38.718  
G32  25420312.384   133584610.652       -3033.891          26.086    25420321.677    99754776.283       -2265.597          23.513  
R07  19711115.179                        2244.647          23.030  
R21  19989444.895   106967532.090       -1883.426          28.394  
> 2022  9 17 10  4  9.0004704  0 21
C06  39034150.220                          49.191          29.206  
C09  39137705.131                         636.463          23.541  
C20  22378470.907   116530573.297        2293.286          28.696  
C27  25771387.340   134198364.891       -3069.643          31.870  
C30  22083775.221                       -1470.615          23.519  
C32  22161967.089                        -843.654          25.416  
E07                                                                                                                                  27453233.222   107732367.1311      -1730.247          24.249  
E10                                                                  25889916.284   136052346.527        2704.047          28.958  
E26                                                                  27795020.008   146063789.098       -2283.646          30.607    27795031.700   109073683.510       -1705.316          34.089  
E33                                                                                                                                  23878402.126    93703983.695        -594.717          24.794  
G01  20418203.872   107298399.922       -1109.257          27.881    20418203.572    80125434.348        -828.132          29.471  
G03  20238835.646   106355796.734         291.109          26.385    20238834.147    79421530.563         217.320          33.634  
G09  24902387.936                        4215.725          18.519  
G17  21261475.986   111729833.988        1284.282          29.588  
G19  22815744.289   119897520.938        3150.891          35.682  
G21  22272887.901   117044791.199       -1762.724          36.640  
G22  23249416.264   122176270.2771      -2073.014          27.189  
G31  24039557.361   126328727.070        1938.149          38.162  
G32  25420943.447   133587961.559       -3035.821          26.626    25420958.736    99757278.551       -2266.977          23.320  
R07  19710778.212                        2240.117          23.332  
R21  19989854.112   106969738.762       -1885.826          27.157  
> 2022  9 17 10  4 10.0004706  0 20
C06  39034200.885   203261342.7931         48.401          27.837  
C09  39137643.373                         637.030          23.934  
C20  22378091.670   116528594.387        2291.130          26.472  
C27  25772038.189   134201748.625       -3071.512          31.296  
C30  22084120.581   114997842.5231      -1472.749          24.468  
C32  22162187.737                        -847.079          24.492  
E07                                                                                                                                  27453735.075   107734334.088       -1731.666          25.409  
E10                                                                  25889461.499   136049959.633        2701.978          28.588  
E26                                                                  27795512.567   146066389.648       -2285.468          29.021    27795526.957   109075625.469       -1706.668          34.019  
E33                                                                                                                                  23878614.379    93704814.904        -595.918          24.921  
G01  20418475.783   107299826.160       -1111.157          27.595    20418474.884    80126499.412        -829.773          30.566  
G03  20238847.937                         284.222          24.097    20238841.042    79421550.074         215.780          34.081  
G09  24901640.253                        4205.821          17.542  
G17  21261298.210   111728867.078        1281.993          30.376  
G19  22815201.065   119894687.227        3148.795          35.431  
G21  22273283.327   117046871.074       -1764.793          37.113  
G22  23249872.548   122178661.668       -2076.306          26.457  
G31  24039252.472   126327106.340        1935.815          38.542  
G32  25421586.202   133591314.012       -3037.374          26.855    25421595.196                       -2269.228          22.740  
R21  19990277.719   106971947.563       -1887.948          27.122  
> 2022  9 17 10  4 11.0004708  0 21
C06  39034247.653   203261608.020          46.993          27.458  
C09  39137580.717   203799697.8161        635.526          24.130  
C20  22377715.130   116526617.094        2289.512          25.467  
C27  25772687.540   134205133.867       -3073.026          30.049  
C30  22084465.343   114999629.063       -1474.321          25.586  
C32  22162417.977                        -849.394          24.991  
E07                                                                                                                                  27454236.328   107736302.264       -1732.886          24.061  
E10                                                                  25889006.714   136047574.039        2700.679          27.980    25889017.806   101594030.0451       2016.600          27.553  
E26                                                                  27796007.824   146068991.664       -2286.932          28.524    27796022.814   109077568.555       -1707.797          34.028  
E33                                                                                                                                  23878826.932    93705647.457        -597.264          25.778  
G01  20418742.898   107301254.168       -1112.923          26.984    20418746.796    80127565.813        -831.112          30.638  
G03  20238850.935                         286.034          23.629    20238846.138    79421570.893         214.471          34.305  
G09  24900917.154                        4200.941          16.314  
G17  21261113.238   111727902.008        1280.159          31.728  
G19  22814663.237   119891855.387        3146.923          35.953  
G21  22273678.453   117048952.488       -1766.329          36.856  
G22  23250323.136                       -2081.267          22.671  
G31  24038943.985   126325487.367        1934.058          38.688  
G32  25422223.861   133594668.293       -3039.194          27.446    25422237.351    99762286.9181      -2269.459          21.929  
R07  19710069.803                        2235.798          23.300  
R21  19990683.038   106974158.586       -1890.176          28.389  
> 2022  9 17 10  4 12.0004710  0 21
C06  39034300.116   203261875.309          44.930          26.916  
C09  39137520.758                         632.157          24.081  
C20  22377335.593                        2286.820          26.157  
C27  25773337.190   134208520.973       -3074.883          28.996  
C30  22084809.205   115001418.070       -1476.787          25.397  
C32  22162640.723   115406653.3161       -850.357          24.833  
E07                                                                                                                                  27454739.379   107738271.959       -1734.404          22.973  
E10                                                                  25888560.323   136045190.422        2698.704          29.119    25888561.822   101592250.143        2015.193          26.606  
E26                                                                  27796504.580   146071595.676       -2288.924          28.917    27796516.272   109079513.098       -1709.252          32.989  
E33                                                                                                                                  23879038.885    93706481.598        -598.850          26.089  
G01  20419015.710   107302684.594       -1115.338          26.603    20419019.007    80128634.033        -832.929          30.522  
G03  20238855.432   106355882.5941        284.857          23.220    20238852.134    79421593.566         212.617          34.404  
G09  24900143.389                        4200.382          14.701  
G17  21260928.266   111726939.500        1277.591          32.061  
G19  22814123.911   119889025.922        3144.551          35.498  
G21  22274072.081   117051036.016       -1768.441          36.836  
G22  23250777.322                       -2084.232          21.708  
G31  24038634.600   126323870.840        1931.613          38.373  
G32  25422857.022   133598024.531       -3041.152          26.463    25422873.211    99764793.107       -2270.898          21.913  
R07  19709687.567                        2233.966          22.980  
R21  19991106.045   106976372.145       -1892.707          29.021  
> 2022  9 17 10  4 13.0004712  0 20
C06  39034352.880   203262144.672          42.856          26.953  
C09  39137459.001   203799057.4611        631.391          24.020  
C20  22376957.854                        2283.780          25.341  
C27  25773986.540   134211910.016       -3076.826          28.433  
C30  22085152.767   115003209.301       -1479.015          25.564  
C32  22162865.567   115407818.246        -852.712          26.596  
E07                                                                                                                                  27455242.731   107740243.066       -1735.820          22.940  
E10                                                                  25888105.238   136042808.730        2696.772          27.653    25888108.835   101590471.557        2013.876          27.570  
E26                                                                  27797000.737   146074201.625       -2290.867          29.193    27797011.829   109081459.129       -1710.742          32.919  
E33                                                                                                                                  23879250.239    93707317.211        -600.324          25.497  
G01  20419289.420   107304117.285       -1117.611          27.016    20419291.519    80129703.867        -834.545          30.272  
G03  20238856.032                         282.632          22.861    20238858.430    79421617.838         211.017          34.097  
G09  24899410.996                        4200.899          14.396  
G17  21260744.793   111725979.383        1275.198          31.682  
G19  22813586.383   119886198.758        3142.247          35.476  
G21  22274471.704   117053121.684       -1770.585          37.037  
G31  24038329.711   126322256.637        1929.286          37.828  
G32  25423495.280   133601382.668       -3043.055          27.900    25423514.467    99767300.922       -2272.527          22.763  
R07  19709338.009                        2229.194          22.903  
R21  19991517.960   106978588.289       -1895.293          28.456  
> 2022  9 17 10  4 14.0004714  0 21
C06  39034406.543   203262415.789          41.107          26.940  
C09  39137394.546   203798739.910         629.773          23.279  
C20  22376581.615   116520698.4061       2283.170          24.109  
C27  25774640.088   134215300.836       -3078.599          28.274  
C30  22085498.428   115005002.508       -1480.983          27.136  
C32  22163090.112                        -855.795          26.149  
E07                                                                                                                                  27455743.384   107742215.658       -1737.300          22.618  
E10                                                                  25887652.251   136040428.797        2695.022          28.013    25887660.945   101588694.227        2012.620          25.028  
E26                                                                  27797494.795   146076809.383       -2292.675          28.644    27797509.185   109083406.461       -1712.040          32.890  
E33                                                                                                                                  23879464.291    93708154.398        -601.896          25.769  
G01  20419563.730   107305552.066       -1119.692          27.202    20419565.529    80130775.266        -836.109          31.115  
G03  20238864.126                         278.252          22.669    20238863.826    79421643.760         209.369          34.323  
G09  24898642.329                        4203.876          14.532  
G17  21260565.517   111725021.484        1272.985          32.029  
G19  22813045.257   119883373.656        3140.186          34.876  
G21  22274868.330   117055209.270       -1772.498          37.041  
G22  23251707.578   122188548.3871      -2083.276          24.178  
G31  24038020.625   126320644.602        1927.118          38.707  
G32  25424136.237                       -3045.618          26.684    25424154.224    99769809.906       -2273.693          22.080  
R07  19708989.950                        2227.602          23.184  
R21  19991946.663   106980806.684       -1897.548          28.998  
> 2022  9 17 10  4 15.0004717  0 20
C06  39034491.084   203262844.516          39.599          27.110  
C09  39137364.866                         621.431          22.789  
C20  22376228.459   116518885.520        2281.214          24.929  
C27  25775318.219   134218849.219       -3080.055          28.306  
C30  22085873.168   115006953.871       -1483.035          27.233  
C32  22163341.638   115410309.2341       -855.834          26.474  
E07                                                                                                                                  27456277.015   107744306.943       -1738.350          23.662  
E10                                                                  25887230.743   136038207.883        2693.539          28.057  
E26                                                                  27798023.029   146079576.258       -2294.248          28.395    27798033.522   109085472.607       -1713.212          32.692  
E33                                                                                                                                  23879707.423    93709110.588        -603.253          25.824  
G01  20419863.822   107307146.293       -1121.605          27.223    20419870.118    80131965.795        -837.593          31.382  
G03  20238898.902                         277.567          24.250    20238901.000    79421788.691         208.004          33.818  
G17  21260412.023   111724223.219        1270.890          31.645  
G19  22812540.707   119880708.020        3138.264          34.364  
G21  22275296.433   117057456.051       -1774.158          37.298  
G22  23252189.344   122191106.289       -2085.277          25.602  
G31  24037746.614   126319192.090        1925.138          38.710  
G32  25424805.673   133608261.7811      -3046.543          25.955    25424826.659                       -2275.459          22.153  
R07  19708671.870                        2228.794          22.570  
R21  19992380.163   106983187.727       -1899.766          29.142  
> 2022  9 17 10  4 16.0004719  0 20
C06  39034539.051   203263118.746          37.988          27.082  
C09  39137306.706                         624.455          23.037  
C20  22375853.719                        2278.872          25.026  
C27  25775965.470   134222242.988       -3081.548          27.628  
C30  22086219.129   115008750.945       -1484.857          27.579  
C32  22163567.082   115411479.734        -858.280          26.325  
E07                                                                                                                                  27456779.467   107746281.719       -1739.487          23.038  
E10                                                                  25886775.658   136035830.945        2692.023          28.498  
E26                                                                  27798520.385   146082187.152       -2295.808          28.712    27798531.177   109087422.273       -1714.376          32.005  
E33                                                                                                                                  23879920.575    93709950.328        -604.452          25.436  
G01  20420139.032                       -1124.431          26.941    20420143.229    80133040.039        -838.955          31.670  
G03  20238910.594                         275.565          24.631    20238907.896    79421817.396         206.585          34.333  
G17  21260230.349   111723269.359        1268.946          31.512  
G19  22812003.179   119877886.758        3136.347          34.495  
G21  22275693.658   117059547.070       -1775.932          36.987  
G22  23252643.530   122193508.305       -2086.930          26.327  
G31  24037439.927   126317583.969        1923.208          38.982  
G32  25425446.929   133611624.961       -3048.091          26.210    25425461.319                       -2277.047          22.341  
R07  19708334.304                        2225.951          22.723  
R21  19992787.281   106985410.434       -1901.854          29.163  
> 2022  9 17 10  4 17.0004721  0 21
C06  39034595.412   203263394.195          36.774          26.806  
C09  39137243.750                         627.419          22.462  
C20  22375475.980                        2277.558          24.719  
C27  25776620.517   134225637.863       -3082.652          27.865  
C30  22086563.590   115010549.316       -1486.147          27.839  
C32  22163794.324   115412651.430        -859.471          27.036  
E07                                                                                                                                  27457282.219   107748257.549       -1740.538          22.358  
E10                                                                  25886324.470   136033455.086        2690.941          28.662  
E25                                                                                                                                  28456879.013                        -334.691          19.775  
E26                                                                  27799018.040   146084799.078       -2296.846          28.033    27799027.334   109089372.807       -1715.242          31.851  
E33                                                                                                                                  23880136.725    93710791.014        -605.394          25.869  
G01  20420411.843   107310024.8361      -1124.903          27.719    20420417.239    80134115.307        -839.977          31.596  
G03  20238919.288   106356222.1051        275.280          24.806    20238914.791    79421847.104         205.584          34.704  
G17  21260049.574   111722317.008        1267.433          31.644  
G19  22811467.450   119875066.934        3134.906          34.514  
G21  22276089.384   117061639.266       -1777.114          36.496  
G22  23253103.411   122195911.809       -2088.422          26.714  
G31  24037132.939   126315977.332        1921.719          38.688  
G32  25426087.286   133614989.188       -3049.145          25.994    25426104.074                       -2277.757          22.318  
R07  19707957.165                        2219.070          22.861  
R21  19993207.590   106987634.754       -1903.473          29.579  
> 2022  9 17 10  4 18.0004723  0 21
C06  39034648.775   203263670.449          35.964          26.976  
C09  39137181.693                         625.787          22.988  
C20  22375093.745                        2275.525          24.548  
C27  25777270.467   134229033.652       -3083.571          27.398  
C30  22086912.249   115012349.016       -1487.479          27.320  
C32  22164018.269   115413824.234        -860.587          27.422  
E07                                                                                                                                  27457787.969   107750234.066       -1741.228          22.986  
E10                                                                  25885872.683   136031080.027        2690.144          27.989    25885876.281                        2008.796          26.834  
E25                                                                                                                                  28457022.613                        -345.154          20.457  
E26                                                                  27799514.197   146087411.941       -2297.774          28.605    27799524.390   109091323.939       -1715.844          31.897  
E33                                                                                                                                  23880348.978    93711632.498        -606.195          25.746  
G01  20420687.652   107311466.012       -1126.092          27.932    20420690.350    80135191.527        -840.932          31.186  
G03  20238925.883                         273.595          24.451    20238924.684    79421877.701         204.691          34.180  
G17  21259869.099   111721366.051        1266.044          31.984  
G19  22810927.523   119872248.305        3133.716          34.971  
G21  22276490.507   117063732.426       -1778.075          36.914  
G22  23253565.392   122198316.453       -2089.561          26.117  
G31  24036829.249   126314371.910        1920.505          38.405  
G32  25426727.043   133618354.410       -3050.140          26.041    25426741.733                       -2277.612          21.585  
R07  19707610.005                        2219.910          22.012  
R21  19993626.400   106989860.555       -1904.949          28.752  
> 2022  9 17 10  4 19.0004725  0 21
C06  39034699.140                          35.085          27.335  
C09  39137120.535                         623.152          24.130  
C20  22374720.803   116511023.1721       2276.427          24.427  
C27  25777922.516   134232429.863       -3083.993          27.934  
C30  22087257.910   115014149.594       -1488.359          27.168  
C32  22164243.713   115414997.938        -861.484          27.901  
E07                                                                                                                                  27458292.520   107752210.852       -1741.495          21.403  
E10                                                                  25885420.296   136028705.684        2689.427          28.843    25885426.292   101579939.9901       2008.499          26.216  
E25                                                                                                                                  28457171.910                        -341.755          20.036  
E26                                                                  27800012.752                       -2298.909          28.000    27800020.546   109093275.482       -1716.252          31.546  
E33                                                                                                                                  23880566.028    93712474.613        -606.824          25.274  
G01  20420962.262   107312908.035       -1126.940          28.537    20420966.159    80136268.410        -841.592          30.908  
G03  20238940.873   106356304.5631        273.653          23.709    20238933.378    79421909.000         203.992          34.291  
G17  21259686.525   111720416.113        1265.019          31.186  
G19  22810392.994   119869430.641        3132.745          35.001  
G21  22276889.830   117065826.430       -1778.919          36.498  
G22  23254020.776                       -2091.111          23.403  
G31  24036521.363   126312767.508        1919.485          38.542  
G32  25427370.098   133621720.254       -3050.760          27.091    25427385.088                       -2279.320          21.858  
R07  19707218.177                        2219.429          21.550  
R21  19994050.607   106992087.426       -1906.025          29.172  
> 2022  9 17 10  4 20.0004727  0 21
C06  39034755.501   203264225.6521         34.380          27.423  
C09  39137069.870                         622.682          24.812  
C20  22374342.765                        2274.962          24.367  
C27  25778577.262   134235826.961       -3084.878          28.198  
C30  22087607.468                       -1490.296          27.348  
C32  22164469.757   115416172.648        -862.492          28.271  
E07                                                                                                                                  27458797.370   107754188.408       -1742.268          22.803  
E10                                                                  25884967.910   136026332.039        2688.731          28.058  
E25                                                                                                                                  28457320.007                        -336.263          21.248  
E26                                                                  27800511.606   146092639.5981      -2299.206          27.715    27800517.003   109095227.713       -1716.942          31.215  
E33                                                                                                                                  23880780.080    93713317.455        -607.553          25.129  
G01  20421237.471   107314351.355       -1128.235          28.667    20421239.870    80137346.180        -842.481          30.723  
G03  20238941.173   106356347.668         271.978          23.476    20238939.674    79421941.148         203.142          34.448  
G17  21259504.851   111719467.566        1263.633          30.675  
G19  22809857.864   119866614.148        3131.578          34.621  
G21  22277289.154   117067921.348       -1779.836          36.857  
G22  23254488.153                       -2091.073          23.252  
G31  24036217.373   126311164.246        1918.349          38.457  
G32  25428010.754   133625086.852       -3051.514          28.114    25428023.346                       -2278.591          22.350  
R07  19706898.298                        2221.559          20.449  
R21  19994460.423   106994315.742       -1907.463          29.063  
> 2022  9 17 10  4 21.0004729  0 21
C06  39034807.965   203264503.672          34.204          28.164  
C09  39137006.914                         618.317          23.520  
C20  22373967.125                        2273.483          24.656  
C27  25779229.311   134239224.664       -3085.483          28.290  
C30  22087948.931   115017754.0391      -1490.492          27.621  
C32  22164698.199   115417348.418        -863.549          27.792  
E07                                                                                                                                  27459299.223   107756166.473       -1742.772          23.269  
E10                                                                  25884516.722   136023959.023        2688.096          27.372    25884522.718                        2007.224          25.379  
E25                                                                                                                                  28457463.308                        -332.989          20.683  
E26                                                                  27801008.662   146095254.586       -2299.908          27.858    27801017.056   109097180.492       -1717.489          30.844  
E33                                                                                                                                  23880994.132    93714160.893        -608.147          24.870  
G01  20421515.079   107315795.621       -1129.183          28.229    20421515.679    80138424.674        -843.203          31.399  
G03  20238952.565                         269.238          24.730    20238948.368    79421974.037         202.402          34.251  
G17  21259327.374   111718520.168        1262.482          30.857  
G19  22809322.435   119863798.691        3130.539          34.759  
G21  22277684.580   117070017.094       -1780.662          37.073  
G22  23254941.439   122205535.9261      -2092.375          24.559  
G31  24035912.784   126309562.129        1917.198          38.738  
G32  25428649.612   133628454.320       -3052.386          26.883    25428666.700    99787516.7811      -2279.484          21.865  
R07  19706523.258                        2223.430          19.684  
R21  19994860.646   106996545.309       -1908.717          28.646  
> 2022  9 17 10  4 22.0004731  0 22
C06  39034861.328   203264783.426          32.464          27.582  
C09  39136947.855                         618.753          21.586  
C20  22373597.481                        2271.707          23.447  
C27  25779884.058   134242623.578       -3086.695          28.504  
C29  22618540.810   117780678.1171       1850.523          26.153  
C30  22088300.288   115019558.289       -1492.029          28.794  
C32  22164923.043   115418525.582        -864.945          26.600  
E07                                                                                                                                  27459801.075   107758145.578       -1743.816          22.345  
E10                                                                  25884065.534   136021587.191        2686.921          27.416  
E25                                                                                                                                  28457609.907                        -340.898          20.179  
E26                                                                  27801506.018   146097870.676       -2301.002          27.626    27801514.412   109099134.098       -1718.316          30.983  
E33                                                                                                                                  23881208.783    93715005.414        -609.232          24.916  
G01  20421792.987   107317241.406       -1130.699          28.367    20421790.589    80139504.303        -844.340          31.785  
G03  20238968.454                         266.364          23.720    20238956.462    79422008.078         201.247          35.057  
G17  21259149.597   111717574.344        1260.909          31.490  
G19  22808787.305   119860984.758        3129.020          34.233  
G21  22278085.702   117072114.176       -1781.995          36.720  
G22  23255390.828   122207944.949       -2093.936          24.186  
G31  24035608.195   126307961.605        1915.612          38.836  
G32  25429294.766   133631822.992       -3053.585          25.787    25429305.558                       -2280.586          21.522  
R07  19706151.515                        2216.235          18.689  
R21  19995288.450   106998776.609       -1910.452          29.034  
> 2022  9 17 10  4 23.0004733  0 21
C06  39034914.991   203265064.273          31.372          28.159  
C09  39136890.295                         619.376          22.487  
C20  22373216.145                        2272.594          22.312  
C27  25780534.307   134246023.469       -3087.672          29.179  
C29  22618244.615   117779141.090        1849.250          27.284  
C30  22088645.949   115021363.887       -1493.383          28.947  
C32  22165147.288   115419703.980        -866.178          26.883  
E07                                                                                                                                  27460308.324   107760125.320       -1744.451          22.671  
E10                                                                  25883614.047   136019216.422        2685.849          27.430  
E25                                                                                                                                  28457756.805                        -345.605          19.005  
E26                                                                  27802002.174   146100487.848       -2302.092          27.724    27802011.468   109101088.492       -1719.102          30.835  
E33                                                                                                                                  23881424.934    93715850.686        -609.981          24.766  
G01  20422071.494   107318688.559       -1132.072          28.280    20422064.599    80140585.012        -845.418          31.755  
G03  20238971.751                         267.696          24.325    20238965.156    79422043.072         200.297          35.382  
G17  21258965.225   111716630.004        1259.422          31.654  
G19  22808251.876   119858172.223        3127.617          33.579  
G21  22278479.030   117074212.438       -1783.181          36.226  
G31  24035304.805   126306362.484        1914.202          38.626  
G32  25429933.024   133635192.723       -3054.647          25.586    25429948.313                       -2281.388          22.277  
R07  19705751.592                        2210.999          15.707  
R21  19995722.549   107001009.449       -1911.989          28.951  
> 2022  9 17 10  4 24.0004735  0 21
C06  39034967.754   203265345.969          30.524          27.695  
C09  39136832.135                         617.949          22.298  
C20  22372842.004                        2268.943          22.031  
C27  25781187.855   134249424.211       -3088.524          29.665  
C29  22617952.917   117777605.258        1848.049          27.226  
C30  22088992.209   115023170.582       -1494.473          28.857  
C32  22165374.531   115420883.496        -867.298          27.026  
E07                                                                                                                                  27460814.074   107762105.834       -1745.226          22.021  
E10                                                                  25883162.260   136016846.348        2685.160          27.710  
E25                                                                                                                                  28457905.502                        -342.965          19.264  
E26                                                                  27802495.933   146103105.883       -2302.950          27.214    27802510.323   109103043.480       -1719.700          30.849  
E33                                                                                                                                  23881638.686    93716696.900        -610.926          25.219  
G01  20422348.502   107320136.871       -1133.224          28.735    20422341.307    80141666.533        -846.232          31.567  
G03  20238980.146                         266.885          25.185    20238975.349    79422078.959         199.402          35.383  
G17  21258786.249   111715687.043        1258.048          31.416  
G19  22807712.249   119855360.855        3126.453          33.654  
G21  22278881.052   117076311.715       -1784.192          36.060  
G22  23256311.491   122212766.6051      -2096.359          26.121  
G31  24034999.916   126304764.566        1913.002          38.807  
G32  25430571.582                       -3056.152          26.124    25430588.970    99795065.5701      -2281.720          22.194  
R21  19996136.263   107003243.816       -1913.519          29.876  
> 2022  9 17 10  4 25.0004737  0 22
C06  39035028.312   203265628.488          29.698          27.634  
C09  39136769.178                         616.264          22.792  
C20  22372465.464                        2268.043          22.752  
C27  25781842.002   134252825.605       -3089.176          29.906  
C29  22617660.020   117776070.535        1846.942          27.156  
C30  22089338.469   115024978.496       -1495.698          28.813  
C32  22165605.970                        -869.165          26.758  
E07                                                                                                                                  27461316.526   107764087.016       -1745.889          22.309  
E10                                                                  25882709.873   136014477.152        2684.278          27.505  
E25                                                                                                                                  28458052.700                        -344.536          19.794  
E26                                                                  27802995.687                       -2304.604          27.085    27803010.077   109104999.113       -1720.342          30.930  
E33                                                                                                                                  23881857.234    93717543.828        -611.637          25.553  
G01  20422622.213   107321586.340       -1134.387          28.862    20422616.817    80142748.918        -847.095          31.419  
G03  20238990.339   106356590.2731        266.321          25.146    20238984.343    79422115.682         198.570          35.118  
G17  21258605.474   111714745.313        1256.812          31.412  
G19  22807182.516   119852550.684        3125.255          33.768  
G21  22279279.776   117078411.844       -1785.047          36.211  
G22  23256765.976   122215179.016       -2097.330          25.816  
G31  24034696.226   126303167.910        1911.742          39.141  
G32  25431209.540   133641934.6641      -3056.315          26.324    25431234.723    99797583.121       -2282.259          21.442  
R07  19705148.709                        2215.660          14.938  
R21  19996551.176   107005479.461       -1914.792          30.117  
> 2022  9 17 10  4 26.0004739  0 23
C06  39035078.677   203265911.457          29.256          27.790  
C09  39136711.319   203795173.9571        617.688          23.388  
C20  22372083.229                        2271.503          23.041  
C27  25782497.348   134256227.477       -3089.649          29.949  
C29  22617363.225                        1847.540          27.350  
C30  22089684.729   115026787.109       -1496.391          27.557  
C32  22165830.515                        -868.709          26.569  
E07                                                                                                                                  27461823.475   107766068.490       -1746.185          22.889  
E10                                                                  25882258.985                        2685.380          27.421    25882265.880   101567548.9431       2003.904          25.646  
E25                                                                                                                                  28458202.596                        -347.311          20.742  
E26                                                                  27803493.342   146108344.0081      -2304.098          27.415    27803508.631   109106955.055       -1720.651          31.088  
E33                                                                                                                                  23882072.485    93718391.074        -611.957          25.117  
G01  20422894.724   107323036.484       -1135.061          29.429    20422892.925    80143831.838        -847.631          31.402  
G03  20239002.930   106356640.078         265.282          23.768    20238994.835    79422152.961         198.008          34.348  
G04  22168399.436                        3407.899          14.769  
G17  21258429.196   111713804.367        1256.031          32.158  
G19  22806646.487   119849741.254        3124.515          34.467  
G21  22279682.397   117080512.535       -1785.605          37.166  
G22  23257225.258                       -2096.867          26.119  
G31  24034391.037   126301571.953        1911.042          38.426  
G32  25431855.893                       -3055.973          26.929    25431873.880    99800101.018       -2282.607          21.598  
R07  19704758.679                        2204.462          15.986  
R21  19996959.493   107007716.004       -1915.693          29.927  
> 2022  9 17 10  4 27.0004741  0 22
C06  39035133.839   203266194.023          29.650          27.598  
C09  39136653.159                         618.356          23.687  
C20  22371711.486                        2269.183          24.200  
C27  25783151.196   134259628.875       -3089.178          30.993  
C29  22617068.829                        1846.898          25.538  
C30  22090037.585   115028595.574       -1496.246          27.704  
C32  22166051.462   115424426.2271       -868.300          27.442  
E07                                                                                                                                  27462326.227   107768049.668       -1745.887          22.548  
E10                                                                  25881812.894   136009738.9841       2684.366          29.452    25881815.592   101565779.590        2004.645          26.514  
E25                                                                                                                                  28458346.197                        -346.051          20.176  
E26                                                                  27803993.096   146110962.809       -2303.718          27.509    27804007.486   109108910.600       -1720.254          31.503  
E33                                                                                                                                  23882288.636    93719238.244        -611.878          25.762  
G01  20423171.133   107324486.488       -1134.922          29.369    20423166.936    80144914.658        -847.528          30.983  
G03  20239002.630   106356689.988         265.172          23.041    20239003.529    79422190.125         198.128          34.423  
G04  22167807.946                        3406.873          15.378  
G17  21258247.521   111712863.508        1255.944          32.245  
G19  22806113.156   119846931.688        3124.648          34.353  
G21  22280083.519   117082612.969       -1785.350          36.826  
G22  23257685.439   122220005.0631      -2097.835          24.099  
G31  24034088.847   126299975.988        1911.047          38.263  
G32  25432501.346   133648677.9651      -3056.347          26.886    25432512.738                       -2282.125          21.927  
R21  19997384.299   107009952.641       -1915.789          30.238  
> 2022  9 17 10  4 28.0004743  0 23
C06  39035188.102   203266476.527          29.716          27.435  
C09  39136594.999   203794562.2191        617.983          24.461  
C20  22371332.849                        2269.181          23.928  
C27  25783807.142   134263030.137       -3089.045          30.936  
C29  22616772.035                        1845.740          26.254  
C30  22090385.944   115030404.281       -1496.489          27.770  
C32  22166282.002                        -868.796          26.818  
E07                                                                                                                                  27462836.474   107770030.842       -1745.885          21.656  
E10                                                                  25881361.406   136007369.586        2684.487          29.736    25881361.706   101564010.154        2004.723          26.016  
E25                                                                                                                                  28458496.393                        -342.967          20.771  
E26                                                                  27804492.251   146113581.480       -2303.588          26.561    27804506.641   109110866.162       -1720.274          32.186  
E33                                                                                                                                  23882507.484    93720085.510        -611.976          25.710  
G01  20423447.841   107325936.844       -1135.266          29.700    20423444.843    80145997.666        -847.719          31.521  
G03  20239019.119                         262.747          22.463    20239012.523    79422227.479         197.935          35.355  
G04  22167223.650                        3401.992          15.595  
G17  21258070.644   111711923.098        1255.496          31.856  
G19  22805580.725   119844122.516        3124.257          34.437  
G21  22280480.744   117084713.531       -1785.477          36.797  
G22  23258131.830                       -2093.712          22.205  
G31  24033783.958   126298380.336        1910.737          39.357  
G32  25433144.700   133652049.422       -3056.373          28.152    25433152.495                       -2282.306          21.964  
R07  19704067.058                        2216.819          18.546  
R21  19997811.503   107012189.738       -1916.245          30.855  
> 2022  9 17 10  4 29.0004745  0 22
C06  39035242.064   203266760.129          28.617          27.726  
C09  39136531.743                         617.160          23.490  
C20  22370960.207   116491436.3871       2267.900          24.428  
C27  25784457.991   134266432.207       -3089.852          30.665  
C29  22616478.238   117769935.8591       1844.832          26.414  
C30  22090730.406   115032214.285       -1497.785          27.292  
C32  22166503.549   115426789.6881       -869.996          26.955  
E10                                                                  25880910.518   136005000.957        2683.709          29.454    25880911.418   101562241.381        2004.066          26.024  
E25                                                                                                                                  28458644.191                        -340.304          20.257  
E26                                                                  27804989.906   146116201.090       -2304.526          26.471    27805005.495   109112822.330       -1720.877          32.369  
E33                                                                                                                                  23882721.236    93720933.398        -612.598          26.023  
G01  20423726.948   107327388.313       -1136.387          30.324    20423719.753    80147081.652        -848.696          31.395  
G03  20239026.913                         263.198          21.684    20239022.716    79422265.750         197.020          35.204  
G04  22166636.057                        3400.514          16.640  
G17  21257894.966   111710984.016        1254.163          32.702  
G19  22805046.195   119841314.418        3123.180          34.364  
G21  22280884.565   117086814.996       -1786.385          36.953  
G22  23258592.012                       -2096.059          22.786  
G31  24033482.067   126296785.969        1909.450          39.154  
G32  25433783.258   133655421.637       -3057.134          27.510    25433795.550    99807654.7301      -2283.033          21.672  
R07  19703733.389                        2217.374          17.095  
R21  19998222.219   107014428.332       -1917.742          30.525  
> 2022  9 17 10  4 30.0004747  0 22
C06  39035296.327   203267044.465          27.886          27.540  
C09  39136466.988                         615.599          22.978  
C20  22370583.667                        2265.378          23.212  
C27  25785113.038   134269835.211       -3090.779          30.884  
C29  22616184.441   117768404.395        1843.688          26.393  
C30  22091079.064   115034025.422       -1498.914          27.360  
C32  22166734.389   115427973.203        -871.294          25.443  
E10                                                                  25880458.132   136002633.230        2682.811          28.476    25880462.329                        2002.252          25.216  
E25                                                                                                                                  28458792.288                        -344.307          21.303  
E26                                                                  27805486.362   146118821.574       -2305.400          27.136    27805502.851   109114779.189       -1721.570          32.385  
E33                                                                                                                                  23882936.787    93721782.145        -613.457          25.917  
G01  20424001.858   107328841.059       -1137.663          30.286    20423998.860    80148166.396        -849.456          31.751  
G03  20239038.006                         262.404          21.232    20239032.010    79422304.867         196.172          35.267  
G04  22166049.064                        3403.479          17.955  
G17  21257710.593   111710046.195        1252.907          32.405  
G19  22804508.068   119838507.691        3121.814          34.800  
G21  22281280.890   117088917.555       -1787.473          36.878  
G22  23259068.382                       -2100.571          23.223  
G31  24033178.677   126295192.867        1908.186          39.340  
G32  25434420.917   133658794.969       -3058.244          27.078    25434440.104    99810173.715       -2283.695          20.257  
R07  19703365.244                        2210.038          13.513  
R21  19998641.628   107016668.363       -1919.185          30.737  
> 2022  9 17 10  4 31.0004749  0 23
C06  39035353.887   203267329.555          27.131          27.387  
C09  39136414.224                         613.225          22.887  
C20  22370207.727                        2265.992          23.101  
C27  25785768.084   134273238.852       -3091.425          30.741  
C29  22615895.142   117766873.945        1842.667          27.309  
C30  22091424.425   115035837.723       -1500.079          27.166  
C32  22166959.533                        -872.479          25.234  
E07                                                                                                                                  27464351.025   107775978.3281      -1747.933          22.205  
E10                                                                  25880006.944   136000266.180        2682.135          28.256    25880012.640   101558705.8321       2002.865          25.108  
E25                                                                                                                                  28458938.287                        -346.186          21.269  
E26                                                                  27805986.716   146121442.730       -2306.074          27.037    27806003.504   109116736.613       -1722.133          32.468  
E33                                                                                                                                  23883153.837    93722631.592        -614.157          25.841  
G01  20424280.065   107330294.813       -1138.669          30.507    20424273.470    80149252.049        -850.361          32.118  
G03  20239044.601                         257.759          20.578    20239043.402    79422344.785         195.372          35.010  
G04  22165453.076                        3401.452          17.588  
G17  21257540.011   111709109.656        1251.620          32.536  
G19  22803980.433   119835701.934        3120.840          35.083  
G21  22281682.612   117091020.949       -1788.311          36.825  
G22  23259518.970                       -2107.124          22.579  
G31  24032875.586   126293600.824        1907.127          39.273  
G32  25435063.972   133662168.926       -3058.874          26.823    25435081.959                       -2285.198          19.748  
R07  19702977.912                        2214.281          13.447  
R21  19999059.539   107018909.656       -1920.441          30.801  
> 2022  9 17 10  4 32.0004751  0 22
C06  39035404.852   203267615.414          26.358          27.195  
C09  39136358.163                         614.233          22.929  
C20  22369836.884                        2269.537          22.945  
C27  25786422.831   134276643.152       -3092.081          31.106  
C29  22615603.444   117765344.414        1841.749          27.923  
C30  22091769.786   115037650.832       -1500.891          26.394  
C32  22167183.778   115430343.4181       -873.135          24.826  
E10                                                                  25879557.555   135997899.820        2681.444          27.772  
E25                                                                                                                                  28459088.483                        -349.263          21.565  
E26                                                                  27806484.371   146124064.660       -2306.842          27.067    27806501.460   109118694.469       -1722.565          32.728  
E33                                                                                                                                  23883368.488    93723481.635        -614.755          26.160  
G01  20424556.774   107331749.637       -1139.739          30.872    20424551.377    80150338.406        -851.068          31.765  
G03  20239045.201                         263.310          20.320    20239052.396    79422385.414         194.662          34.849  
G04  22164888.867                        3399.357          20.117  
G17  21257355.939   111708174.141        1250.599          32.436  
G19  22803440.507   119832897.199        3119.820          34.720  
G21  22282081.636   117093125.133       -1789.099          37.134  
G22  23259985.747                       -2103.356          22.824  
G31  24032572.496   126292009.910        1905.998          39.152  
G32  25435704.328   133665543.641       -3059.630          26.978    25435721.117                       -2282.078          19.575  
R07  19702638.547                        2204.045          14.270  
R21  19999481.347   107021152.168       -1921.665          30.936  
> 2022  9 17 10  4 33.0004753  0 22
C06  39035461.812   203267902.031          25.601          27.155  
C09  39136300.903                         615.577          22.702  
C20  22369457.647                        2261.396          22.618  
C29  22615309.347   117763815.883        1840.750          28.674  
C30  22092118.744   115039464.965       -1501.913          25.955  
C32  22167411.021                        -875.295          24.305  
E07                                                                                                                                  27465359.527   107779945.9961      -1748.760          22.083  
E10                                                                  25879109.965   135995533.992        2680.910          28.432    25879111.164                        2002.232          25.505  
E25                                                                                                                                  28459234.782                        -348.697          21.439  
E26                                                                  27806981.427   146126687.203       -2307.461          26.545    27807002.113   109120652.838       -1723.078          32.839  
E33                                                                                                                                  23883587.636    93724332.273        -615.346          26.254  
G01  20424835.880   107333205.348       -1140.628          31.100    20424826.887    80151425.443        -851.745          31.595  
G03  20239056.892                         258.797          21.277    20239063.488    79422426.756         193.948          34.992  
G04  22164293.479                        3400.066          20.720  
G17  21257181.160   111707239.875        1249.349          32.884  
G19  22802907.176   119830093.531        3118.747          34.726  
G21  22282481.559   117095230.156       -1789.942          37.167  
G22  23260436.935   122234499.9881      -2103.150          23.093  
G31  24032267.607   126290419.996        1904.998          39.271  
G32  25436347.683   133668919.016       -3060.292          26.679    25436364.771                       -2282.163          19.336  
R07  19702301.880                        2205.250          15.123  
R21  19999894.761   107023395.871       -1922.851          30.331  
> 2022  9 17 10  4 34.0004755  0 23
C06  39035514.276   203268189.031          25.222          27.533  
C09  39136243.043                         613.257          22.251  
C20  22369083.806                        2257.837          22.289  
C27  25787729.626   134283453.4651      -3093.187          30.830  
C29  22615017.349   117762288.242        1839.861          28.206  
C30  22092467.103   115041280.082       -1502.901          25.732  
C32  22167638.563                        -876.030          24.147  
E07                                                                                                                                  27465864.977   107781930.639       -1749.355          21.475  
E10                                                                  25878653.081   135993168.691        2680.387          28.230    25878663.874                        2001.217          25.565  
E25                                                                                                                                  28459384.378                        -352.149          21.527  
E26                                                                  27807477.884   146129310.238       -2307.950          26.294    27807500.068   109122611.643       -1723.515          33.122  
E33                                                                                                                                  23883802.588    93725183.539        -615.976          26.312  
G01  20425110.790   107334661.961       -1141.528          31.330    20425105.394    80152513.188        -852.455          31.935  
G03  20239062.289                         259.939          22.151    20239073.681    79422468.746         193.299          35.118  
G04  22163708.284                        3395.798          20.755  
G17  21257003.383   111706306.488        1248.474          32.659  
G19  22802375.944   119827290.684        3117.937          34.766  
G21  22282882.981   117097335.828       -1790.585          37.195  
G22  23260892.319                       -2100.755          22.596  
G31  24031968.414   126288831.016        1904.065          39.320  
G32  25436987.740   133672294.898       -3060.799          26.533    25437008.426                       -2285.321          20.140  
R07  19701922.643                        2204.863          19.284  
R21  20000314.171   107025640.691       -1923.969          30.447  
> 2022  9 17 10  4 35.0004757  0 22
C06  39035571.536   203268476.797          24.457          27.512  
C09  39136183.384                         611.123          22.001  
C20  22368709.665                        2262.280          22.037  
C27  25788384.073   134286859.402       -3093.715          30.209  
C29  22614724.152   117760761.535        1838.928          28.286  
C30  22092813.663                       -1504.288          25.738  
C32  22167866.106                        -878.071          24.353  
E10                                                                  25878205.491   135990804.066        2679.708          28.314  
E25                                                                                                                                  28459534.574                        -353.129          21.877  
E26                                                                  27807979.137   146131933.910       -2308.591          25.709    27808000.422   109124570.871       -1723.938          33.195  
E33                                                                                                                                  23884019.637    93726035.309        -616.479          26.052  
G01  20425390.796   107336119.484       -1142.443          31.457    20425382.102    80153601.598        -853.119          31.810  
G03  20239078.777                         257.950          21.187    20239084.174    79422511.441         192.596          34.972  
G04  22163132.383                        3392.125          21.220  
G17  21256830.103   111705374.215        1247.353          32.600  
G19  22801843.812   119824488.859        3116.905          34.865  
G21  22283284.103   117099442.223       -1791.312          37.252  
G22  23261354.000   122239339.0661      -2104.967          23.202  
G31  24031666.523   126287243.047        1903.052          39.354  
G32  25437628.996   133675671.570       -3061.590          26.614    25437652.080                       -2286.023          20.540  
R07  19701580.280                        2196.136          19.492  
R21  20000749.169   107027886.633       -1925.094          30.593  
> 2022  9 17 10  4 36.0004759  0 23
C06  39035626.098   203268765.348          23.668          27.165  
C09  39136128.222                         615.206          22.261  
C20  22368326.830                        2267.744          21.546  
C27  25789039.420   134290266.191       -3094.571          29.784  
C29  22614432.454   117759235.879        1837.875          28.566  
C30  22093156.926                       -1505.910          25.054  
C32  22168090.650   115435093.2851       -876.672          23.676  
E07                                                                  27466862.687                       -2344.367          32.696  
E10                                                                  25877759.400   135988440.066        2679.087          28.302  
E25                                                                                                                                  28459684.171                        -351.584          21.439  
E26                                                                  27808477.691                       -2309.667          25.582    27808500.476   109126530.604       -1724.444          33.267  
E33                                                                                                                                  23884239.085    93726887.756        -617.158          25.371  
G01  20425666.305   107337578.109       -1143.539          31.208    20425660.609    80154690.855        -853.969          31.758  
G03  20239090.169                         255.209          21.180    20239096.465    79422554.941         191.789          35.025  
G04  22162546.888                        3391.278          21.989  
G17  21256652.925   111704443.199        1246.102          32.798  
G19  22801315.278   119821688.113        3115.830          34.733  
G21  22283684.326   117101549.570       -1792.261          36.958  
G22  23261825.573   122241760.020       -2105.869          23.542  
G31  24031364.632   126285656.188        1901.947          39.424  
G32  25438275.049   133679048.895       -3062.238          26.929    25438294.535                       -2287.858          19.196  
R07  19701229.523                        2197.358          19.590  
R21  20001159.885   107030133.887       -1926.401          30.459  
> 2022  9 17 10  4 37.0004761  0 23
C06  39035680.361   203269054.348          23.219          26.885  
C09  39136072.761                         610.264          22.678  
C20  22367963.781                        2261.474          21.895  
C27  25789695.365   134293673.359       -3094.948          29.083  
C29  22614140.756   117757710.992        1837.106          28.977  
C30  22093507.383                       -1505.775          24.475  
C32  22168323.889                        -878.558          23.318  
E07                                                                  27467367.837   144341998.3281      -2344.439          32.711  
E10                                                                  25877308.812   135986076.531        2678.618          28.499  
E25                                                                                                                                  28459833.467                        -350.522          21.621  
E26                                                                  27808975.947   146137183.2341      -2309.849          25.545    27808999.031   109128490.777       -1724.884          33.190  
E33                                                                                                                                  23884453.437    93727740.752        -617.706          25.884  
G01  20425944.813   107339037.527       -1144.334          31.159    20425937.318    80155780.691        -854.545          32.017  
G03                                                                  20239106.358    79422598.961         191.272          34.963  
G04  22161962.892                        3394.215          22.468  
G17  21256472.151   111703513.023        1245.258          32.609  
G19  22800779.549   119818888.148        3115.049          34.591  
G21  22284087.847   117103657.457       -1792.806          37.196  
G22  23262282.457                       -2107.688          23.452  
G31  24031063.941   126284070.176        1901.092          39.425  
G32  25438919.303                       -3062.851          27.130    25438934.592                       -2288.294          19.716  
R07  19700884.461                        2200.857          18.726  
R21  20001582.892   107032382.102       -1927.367          30.246  
> 2022  9 17 10  4 38.0004763  0 23
C06  39035735.822   203269343.617          22.949          27.249  
C09  39136015.200                         608.156          22.321  
C20  22367594.137                        2258.238          22.169  
C27  25790348.313   134297080.559       -3094.981          28.163  
C29  22613848.159   117756186.523        1836.686          28.786  
C30  22093858.740   115048549.1601      -1506.131          25.301  
C32  22168546.035                        -879.752          22.615  
E07                                                                  27467875.985   144344658.023       -2344.610          32.443  
E10                                                                  25876860.922   135983713.035        2678.581          28.501    25876862.121   101546344.6371       2000.211          25.300  
E25                                                                                                                                  28459980.066                        -349.492          21.424  
E26                                                                  27809476.000   146139808.160       -2309.840          25.482    27809497.885   109130450.955       -1724.887          33.427  
E33                                                                                                                                  23884671.986    93728593.867        -617.826          26.021  
G01  20426222.420   107340497.371       -1144.757          30.965    20426214.626    80156870.834        -854.854          32.104  
G03  20239100.662                         251.966          20.748    20239118.650    79422643.375         190.874          34.999  
G04  22161380.995                        3395.054          22.402  
G17  21256297.671   111702583.441        1244.669          32.924  
G19  22800243.820   119816088.637        3114.598          34.685  
G21  22284487.770   117105765.582       -1793.037          37.744  
G22  23262745.936   122246603.7661      -2106.902          23.162  
G31  24030759.951   126282484.676        1900.586          39.475  
G32  25439563.257   133685804.7731      -3062.926          27.376  
R07  19700567.281                        2206.542          19.455  
R21  20001991.809   107034631.020       -1928.067          30.749  
> 2022  9 17 10  4 39.0004765  0 23
C06  39035792.483   203269633.074          22.766          27.222  
C09  39135952.544                         611.968          22.192  
C20  22367217.897                        2256.353          21.797  
C27  25791003.660   134300487.973       -3095.193          26.883  
C29  22613552.264   117754662.582        1836.166          29.107  
C30  22094205.600                       -1506.761          25.245  
C32  22168778.374                        -879.552          22.350  
E07                                                                  27468383.534   144347318.008       -2344.902          32.186  
E10                                                                  25876413.332   135981349.727        2678.391          28.434    25876413.632   101544579.686        2000.243          25.675  
E25                                                                                                                                  28460129.962                        -351.198          21.264  
E26                                                                  27809977.853   146142433.348       -2310.104          26.030    27809997.339   109132411.350       -1725.103          33.180  
E33                                                                                                                                  23884891.434    93729447.336        -618.177          25.674  
G01  20426500.328   107341957.719       -1145.269          30.889    20426492.234    80157961.334        -855.208          32.225  
G03  20239113.253                         253.248          20.193    20239129.742    79422688.109         190.557          35.001  
G04  22160793.702                        3393.159          22.483  
G17  21256120.194   111701654.566        1243.959          32.701  
G19  22799712.587   119813289.727        3113.992          34.851  
G21  22284890.691   117107874.121       -1793.458          37.699  
G22  23263199.822                       -2108.309          22.937  
G31  24030457.161   126280899.777        1899.979          39.524  
G32  25440207.811   133689183.125       -3063.272          27.210  
R07  19700185.645                        2201.064          18.939  
R21  20002410.319   107036880.656       -1928.786          30.549  
> 2022  9 17 10  4 40.0004767  0 23
C06  39035850.043   203269922.516          22.777          27.150  
C09  39135893.185                         611.691          23.158  
C20  22366839.859                        2261.723          22.136  
C27  25791659.006   134303895.430       -3095.235          26.316  
C29  22613260.565   117753139.023        1835.779          29.050  
C30  22094549.462                       -1506.669          25.058  
C32  22169008.015                        -877.930          22.077  
E07                                                                  27468889.284   144349978.078       -2344.985          32.220    27468906.672                       -1753.225          21.107  
E10                                                                  25875962.144   135978986.492        2678.320          28.524    25875963.044   101542815.014        1999.960          25.561  
E25                                                                                                                                  28460281.957                        -352.020          21.499  
E26                                                                  27810479.706   146145058.652       -2310.220          26.194    27810497.993   109134371.752       -1725.115          33.199  
E33                                                                                                                                  23885106.985    93730300.934        -618.308          26.153  
G01  20426777.936   107343418.465       -1145.657          30.908    20426770.741    80159052.184        -855.561          32.118  
G03  20239130.641                         257.697          21.603    20239141.434    79422733.150         190.247          35.041  
G04  22160206.109                        3393.108          23.713  
G17  21255945.115   111700726.219        1243.432          32.595  
G19  22799181.655   119810491.191        3113.620          34.387  
G21  22285289.715   117109982.789       -1793.582          37.367  
G22  23263652.209                       -2107.909          23.079  
G31  24030155.569   126279315.336        1899.529          39.481  
G32  25440851.765   133692561.449       -3063.237          27.241    25440863.157                       -2289.575          19.678  
R07  19699869.664                        2191.253          19.322  
R21  20002842.920   107039130.930       -1929.426          30.779  
> 2022  9 17 10  4 41.0004769  0 23
C06  39035900.708   203270212.328          22.406          27.169  
C09  39135839.222                         609.333          22.888  
C20  22366464.219                        2262.733          21.578  
C27  25792309.855   134307302.973       -3095.325          25.220  
C29  22612967.368   117751615.984        1835.255          28.803  
C30  22094899.619                       -1506.456          24.432  
C32  22169237.057                        -879.903          22.694  
E07                                                                  27469395.034   144352638.316       -2345.158          32.237    27469410.623                       -1750.787          21.052  
E10                                                                  25875510.357   135976623.324        2678.250          28.317    25875513.355   101541050.367        1999.937          25.401  
E25                                                                                                                                  28460428.256                        -352.941          20.307  
E26                                                                  27810980.059   146147684.082       -2310.346          25.955    27810996.848   109136332.264       -1725.220          33.166  
E33                                                                                                                                  23885324.334    93731154.855        -618.631          25.879  
G01  20427055.544   107344879.723       -1146.178          30.705    20427049.548    80160143.373        -855.898          32.130  
G03  20239136.637                         251.730          21.946    20239152.526    79422778.572         189.870          34.895  
G04  22159614.318                        3392.340          23.190  
G17  21255768.837   111699798.445        1242.854          32.923  
G19  22798648.624   119807693.211        3113.062          34.605  
G21  22285691.437   117112091.789       -1793.919          37.549  
G22  23264116.287   122253872.4611      -2108.149          23.247  
G31  24029855.177   126277731.414        1899.003          39.488  
G32  25441492.122   133695939.867       -3063.334          27.436    25441507.711                       -2286.926          20.055  
R07  19699448.456                        2191.290          19.153  
R21  20003256.034   107041381.820       -1930.041          30.680  
> 2022  9 17 10  4 42.0004771  0 23
C06  39035958.868   203270502.695          21.851          27.053  
C09  39135784.660                         611.933          22.943  
C20  22366102.070                        2255.057          21.697  
C27  25792964.302   134310711.141       -3095.951          25.210  
C29  22612677.769   117750093.793        1834.414          28.807  
C30  22095248.877                       -1508.293          24.785  
C32  22169460.702                        -882.928          22.893  
E07                                                                  27469901.083   144355299.164       -2345.760          32.439    27469916.073                       -1750.487          21.204  
E10                                                                  25875059.469   135974260.777        2677.632          28.251    25875061.867   101539286.070        1999.586          25.581  
E25                                                                                                                                  28460582.649                        -353.369          21.431  
E26                                                                  27811479.813   146150309.988       -2310.820          26.142    27811496.002   109138293.186       -1725.632          32.838  
E33                                                                                                                                  23885542.283    93732009.219        -619.074          25.749  
G01  20427336.149   107346341.848       -1147.036          30.714    20427326.856    80161235.180        -856.519          32.063  
G03  20239156.723                         251.316          22.224    20239165.417    79422824.584         189.278          34.750  
G04  22159028.824   116446578.5391       3392.128          23.149  
G17  21255588.962   111698871.773        1241.758          32.906  
G19  22798116.792   119804896.082        3112.215          34.415  
G21  22286093.758   117114201.473       -1794.596          37.727  
G22  23264580.366   122256296.609       -2109.062          23.505  
G31  24029553.886   126276148.441        1898.060          39.348  
G32  25442145.969   133699319.016       -3064.064          27.331    25442151.065                       -2289.997          18.965  
R07  19699115.986                        2192.888          19.899  
R21  20003676.643   107043633.875       -1931.207          31.240  
> 2022  9 17 10  4 43.0004773  0 23
C06  39036015.829   203270793.676          21.236          27.235  
C09  39135724.702                         614.165          22.867  
C20  22365726.430                        2255.646          21.776  
C27  25793613.953                       -3096.945          25.072  
C29  22612384.872   117748572.551        1833.460          28.781  
C30  22095605.331   115057648.7231      -1509.329          25.133  
C32  22169687.345                        -879.821          22.395  
E07                                                                  27470408.332   144357960.801       -2346.556          32.290    27470421.823                       -1752.326          21.972  
E10                                                                  25874611.579   135971898.738        2677.121          28.584    25874612.179   101537522.260        1999.102          25.902  
E25                                                                                                                                  28460732.245                        -354.060          21.421  
E26                                                                  27811980.167   146152936.660       -2311.593          25.809    27811995.756   109140254.629       -1726.153          32.402  
E33                                                                                                                                  23885760.232    93732864.277        -619.768          25.942  
G01  20427611.059   107347804.957       -1148.028          30.539    20427606.562    80162327.814        -857.343          32.216  
G03  20239162.719                         250.304          22.489    20239176.210    79422871.338         188.537          34.900  
G04  22158446.926                        3391.147          24.131  
G17  21255417.181   111697946.176        1240.680          33.078  
G19  22797583.761   119802099.941        3111.223          34.438  
G21  22286494.281   117116311.977       -1795.421          37.718  
G22  23265041.147   122258721.559       -2109.868          23.612  
G31  24029251.096   126274566.516        1897.006          39.487  
G32  25442782.428   133702698.816       -3064.718          27.058    25442792.022                       -2280.762          19.628  
R07  19698756.235                        2193.794          19.654  
R21  20004096.052   107045887.117       -1932.390          31.264  
> 2022  9 17 10  4 44.0004775  0 23
C06  39036070.091   203271085.180          20.721          27.562  
C09  39135663.244                         610.438          22.644  
C20  22365349.890                        2258.957          21.692  
C27  25794267.200                       -3100.036          24.569  
C29  22612091.974   117747052.063        1832.712          28.892  
C30  22095951.291                       -1510.165          25.266  
C32  22169922.982                        -881.692          21.632  
E07                                                                  27470914.681   144360622.840       -2346.952          32.239    27470929.671                       -1754.157          21.443  
E10                                                                  25874163.389   135969537.207        2676.616          28.136    25874165.188   101535758.813        1998.736          25.883  
E25                                                                                                                                  28460880.343                        -353.283          21.116  
E26                                                                  27812479.021   146155563.730       -2311.981          25.785    27812495.210   109142216.404       -1726.484          32.126  
E33                                                                                                                                  23885977.582    93733719.791        -620.224          26.354  
G01  20427885.069   107349268.840       -1148.799          30.560    20427885.069    80163420.939        -857.837          32.126  
G03  20239180.707                         251.985          22.596    20239187.902    79422918.695         187.931          34.783  
G04  22157852.438   116440427.0511       3390.513          23.346  
G17  21255241.802   111697021.496        1239.766          32.986  
G19  22797052.529   119799304.664        3110.365          34.272  
G21  22286896.603   117118423.055       -1795.996          37.796  
G22  23265507.025                       -2111.447          23.545  
G31  24028951.903   126272985.500        1896.102          39.462  
G32  25443425.183   133706079.176       -3065.275          26.711    25443435.376                       -2294.118          19.658  
R07  19698429.761                        2192.518          18.184  
R21  20004511.865   107048141.395       -1933.424          31.714  
> 2022  9 17 10  4 45.0004777  0 23
C06  39036127.651   203271377.320          20.077          27.527  
C09  39135610.181                         605.409          22.075  
C20  22364979.347                        2258.530          22.619  
C27  25794924.046   134320938.6411      -3097.400          25.840  
C29  22611800.576   117745532.488        1831.793          28.322  
C30  22096305.346   115061294.2231      -1510.999          25.501  
C32  22170145.727                        -882.258          21.293  
E07                                                                  27471421.331   144363285.492       -2347.569          32.148    27471435.421                       -1754.814          22.225  
E10                                                                  25873705.606   135967176.160        2676.130          28.323    25873712.801   101533995.637        1998.467          25.389  
E25                                                                                                                                  28461031.138                        -357.585          20.966  
E26                                                                  27812979.375                       -2313.125          25.508    27812994.365   109144178.582       -1726.888          32.071  
E33                                                                                                                                  23886196.131    93734575.824        -620.741          25.714  
G01  20428165.675   107350733.590       -1149.667          30.556    20428162.377    80164514.740        -858.510          32.354  
G03  20239196.896   106357730.5471        250.765          23.466    20239200.793    79422966.688         187.299          34.682  
G04  22157264.845                        3389.219          23.243  
G17  21255064.325   111696097.746        1238.831          33.162  
G19  22796521.896   119796510.289        3109.454          34.228  
G21  22287298.924   117120534.828       -1796.691          37.888  
G22  23265965.108   122263574.0081      -2111.527          24.051  
G31  24028652.410   126271405.336        1895.244          39.457  
G32  25444062.842   133709460.016       -3065.756          26.586    25444080.530                       -2291.161          18.851  
R07  19698057.419                        2190.019          16.979  
R21  20004935.771   107050396.793       -1934.552          31.837  
> 2022  9 17 10  4 46.0004779  0 23
C06  39036179.815   203271669.809          19.732          27.539  
C09  39135554.120                         605.840          22.601  
C20  22364601.608                        2261.090          21.253  
C27  25795577.293   134324348.676       -3097.814          27.433  
C29  22611506.180   117744013.535        1831.172          28.535  
C30  22096658.801   115063117.980       -1511.540          25.600  
C32  22170367.574                        -881.985          21.576  
E07                                                                  27471927.980   144365948.508       -2347.932          32.198    27471944.169                       -1753.867          21.610  
E10                                                                  25873263.113   135964815.430        2675.818          28.187    25873265.211   101532232.811        1998.116          25.248  
E25                                                                                                                                  28461184.032                        -356.775          20.287  
E26                                                                  27813478.829   146160819.3161      -2312.917          25.849    27813494.718   109146141.006       -1727.135          31.997  
E33                                                                                                                                  23886414.979    93735432.297        -621.185          25.744  
G01  20428446.881   107352199.039       -1150.364          30.519    20428442.683    80165609.057        -859.026          32.172  
G03  20239207.388   106357795.461         250.175          24.447    20239213.684    79423015.141         186.836          34.971  
G04  22156679.050                        3389.533          22.909  
G17  21254886.248   111695174.906        1237.926          33.350  
G19  22795986.467   119793716.555        3108.823          34.110  
G21  22287700.046   117122647.109       -1797.192          37.899  
G22  23266433.983                       -2112.071          24.244  
G31  24028350.519   126269825.926        1894.496          39.487  
G32  25444709.794   133712841.172       -3066.072          26.791    25444723.884                       -2283.398          19.474  
R07  19697665.890                        2186.847          17.300  
R21  20005361.476   107052653.047       -1935.403          31.986  
> 2022  9 17 10  4 47.0004781  0 23
C06  39036235.876   203271962.656          19.370          27.404  
C09  39135496.559                         609.524          22.352  
C20  22364234.962                        2252.914          21.689  
C27  25796232.040   134327758.953       -3098.058          28.435  
C29  22611212.683   117742495.313        1830.439          28.565  
C30  22097010.158   115064942.484       -1512.286          26.111  
C32  22170600.812                        -884.772          20.314  
E07                                                                  27472434.629   144368611.969       -2348.378          32.247    27472449.619                       -1753.609          21.426  
E10                                                                  25872810.726   135962455.047        2675.463          28.253    25872816.422   101530470.205        1997.897          25.331  
E25                                                                                                                                  28461328.832                        -352.908          20.465  
E26                                                                  27813981.281   146163447.625       -2313.226          26.074    27813993.873   109148103.758       -1727.461          31.498  
E33                                                                                                                                  23886631.729    93736289.121        -621.533          26.063  
G01  20428723.289   107353665.137       -1151.016          30.154    20428721.490    80166703.869        -859.522          32.189  
G03  20239225.376   106357861.117         249.422          24.702    20239225.376    79423064.148         186.284          34.856  
G04  22156096.254                        3387.987          23.574  
G17  21254715.667   111694252.836        1237.152          33.213  
G19  22795454.635   119790923.531        3108.106          34.131  
G21  22288102.967   117124759.887       -1797.698          37.866  
G22  23266893.865                       -2109.130          23.972  
G31  24028051.326   126268247.320        1893.690          39.415  
G32  25445349.851   133716222.887       -3066.632          26.958    25445364.241                       -2285.432          19.045  
R07  19697367.596                        2193.866          15.895  
R21  20005779.087   107054910.219       -1936.327          32.110  
> 2022  9 17 10  4 48.0004783  0 23
C06  39036298.833   203272255.508          19.372          27.261  
C09  39135438.700                         605.817          22.126  
C20  22363851.828                        2256.882          21.021  
C27  25796890.085   134331169.125       -3097.950          28.644  
C29  22610923.683   117740977.254        1830.282          28.252  
C30  22097359.416   115066767.211       -1512.504          26.486  
C32  22170834.051                        -885.475          19.598  
E07                                                                  27472940.979   144371275.297       -2348.243          32.158    27472952.970   107809743.7731      -1753.410          21.086  
E10                                                                  25872364.035   135960094.523        2675.609          28.417    25872366.733   101528707.398        1998.095          25.097  
E25                                                                                                                                  28461485.024                        -353.337          20.787  
E26                                                                  27814480.736   146166075.816       -2313.104          26.541    27814494.526   109150066.326       -1727.279          31.297  
E33                                                                                                                                  23886852.976    93737146.041        -621.631          26.096  
G01  20429003.595   107355131.461       -1151.236          29.936    20428999.698    80167798.879        -859.722          32.320  
G03  20239236.168                         249.610          25.283    20239237.967    79423113.273         186.164          35.069  
G04  22155518.554   116428131.7421       3388.419          23.661  
G17  21254530.395   111693331.168        1236.755          33.068  
G19  22794922.803   119788130.832        3107.785          33.786  
G21  22288502.891   117126872.652       -1797.679          37.842  
G22  23267359.442   122270856.8131      -2112.884          24.769  
G31  24027750.035   126266668.934        1893.472          39.397  
G32  25445999.201   133719604.406       -3066.435          26.738  
R07  19697003.049                        2192.546          16.013  
R21  20006211.688   107057167.785       -1936.715          32.140  
> 2022  9 17 10  4 49.0004785  0 23
C06  39036352.196   203272547.875          19.852          27.105  
C09  39135378.441                         607.291          22.519  
C20  22363485.781                        2257.740          20.032  
C27  25797548.129   134334578.762       -3097.418          29.707  
C29  22610631.386   117739459.105        1830.369          28.062  
C30  22097711.373                       -1512.627          26.674  
C32  22171056.497                        -884.017          19.341  
E07                                                                  27473447.628   144373938.223       -2347.844          31.772    27473464.117   107811732.467       -1753.403          22.101  
E10                                                                  25871914.946   135957733.438        2676.168          28.208    25871917.944   101526944.326        1998.364          25.256  
E25                                                                                                                                  28461632.822                        -356.987          21.827  
E26                                                                  27814982.888                       -2312.673          26.510    27814993.681   109152028.672       -1727.055          30.944  
E33                                                                                                                                  23887069.726    93738002.672        -621.340          25.991  
G01  20429281.203   107356597.723       -1151.179          29.294    20429278.505    80168893.787        -859.616          32.317  
G03  20239252.657   106357991.8751        250.003          25.829    20239251.458    79423162.260         186.304          34.773  
G04  22154941.753   116425058.184        3388.643          24.062  
G17  21254356.215   111692409.465        1236.786          33.156  
G19  22794391.871   119785337.871        3108.042          33.919  
G21  22288907.011   117128985.098       -1797.362          38.025  
G22  23267818.125   122273284.605       -2112.712          24.643  
G31  24027449.943   126265090.484        1893.532          39.403  
G32  25446643.156   133722985.547       -3066.058          26.472  
R07  19696617.815                        2195.707          14.744  
R21  20006635.295   107059425.449       -1936.811          32.071  
> 2022  9 17 10  4 50.0004787  0 22
C06  39036410.056   203272840.113          19.980          27.555  
C09  39135324.778                         611.574          22.676  
C20  22363119.435                        2256.193          20.436  
C27  25798201.976   134337988.195       -3097.216          30.521  
C29  22610338.788   117737941.039        1830.283          28.224  
C30  22098063.929   115070416.4531      -1512.437          26.662  
E07                                                                  27473955.476   144376600.984       -2347.676          31.986  
E10                                                                  25871467.356   135955372.199        2676.326          28.000    25871467.955   101525181.047        1998.567          25.479  
E25                                                                                                                                  28461784.217                        -359.313          21.790  
E26                                                                  27815484.441   146171331.0901      -2312.408          26.753    27815492.835   109153990.783       -1726.821          30.694  
E33                                                                                                                                  23887288.274    93738859.270        -621.309          25.812  
G01  20429560.909   107358063.926       -1151.119          28.765    20429557.612    80169988.732        -859.657          32.280  
G03  20239265.548   106358057.648         249.315          26.418    20239262.850    79423211.365         186.183          34.919  
G04  22154352.061   116421984.637        3388.633          23.953  
G17  21254183.835   111691487.996        1236.555          33.046  
G19  22793860.339   119782545.148        3107.810          33.515  
G21  22289309.632   117131097.504       -1797.321          37.960  
G22  23268278.906   122275712.434       -2112.743          24.863  
G31  24027148.351   126263512.242        1893.326          39.569  
G32  25447282.913   133726366.449       -3065.814          26.765    25447300.900                       -2285.048          18.687  
R21  20007048.409   107061683.410       -1937.112          31.651  
R23  23634920.885                        4495.882          22.969  
> 2022  9 17 10  4 51.0004789  0 21
C06  39036466.117   203273132.387          19.945          27.740  
C09  39135271.116                         608.002          22.971  
C20  22362740.797                        2255.256          20.570  
C27  25798859.721   134341397.539       -3097.127          31.074  
C29  22610047.090   117736423.227        1830.032          28.376  
C30  22098414.986   115072241.414       -1512.741          26.809  
E07                                                                  27474461.226   144379263.793       -2347.724          31.946  
E10                                                                  25871018.567   135953010.859        2676.422          28.173    25871018.567   101523417.717        1998.623          25.560  
E26                                                                  27815983.295                       -2312.596          26.377    27815994.688   109155952.838       -1726.764          30.509  
E33                                                                                                                                  23887506.224    93739715.982        -621.422          25.787  
G01  20429833.421                       -1152.174          28.956    20429837.618    80171083.877        -859.853          32.265  
G03  20239276.341   106358123.648         249.082          26.767    20239275.441    79423260.668         185.989          34.841  
G04  22153757.873                        3387.675          23.465  
G17  21254012.653   111690567.051        1236.027          32.729  
G19  22793329.706   119779752.762        3107.467          33.691  
G21  22289712.853   117133210.020       -1797.433          37.988  
G22  23268743.584   122278140.465       -2112.946          24.876  
G31  24026850.358   126261934.309        1893.016          39.618  
G32  25447928.066   133729747.383       -3065.853          26.667  
R21  20007470.217   107063941.832       -1937.572          31.781  
R23  23634126.135                        4494.917          23.632  
> 2022  9 17 10  4 52.0004791  0 23
C06  39036520.979   203273425.301          19.305          27.396  
C09  39135215.954                         605.625          23.179  
C20  22362361.859                        2250.562          19.333  
C27  25799511.770   134344807.551       -3097.793          31.622  
C29  22609753.593   117734906.387        1829.060          28.118  
C30  22098765.143   115074067.402       -1513.771          27.210  
C32  22171746.020                        -884.235          19.717  
E07                                                                  27474967.276   144381927.242       -2348.365          32.112    27474982.865                       -1753.758          21.720  
E10                                                                  25870566.779   135950650.094        2675.852          28.092    25870570.077                        1998.749          25.560  
E25                                                                                                                                  28462086.108                        -356.231          21.608  
E26                                                                  27816482.450   146176586.7541      -2313.042          26.628    27816492.943   109157915.445       -1727.318          30.267  
E33                                                                                                                                  23887725.971    93740573.340        -622.067          25.594  
G01  20430114.026   107360998.0631      -1152.399          29.181    20430116.125    80172179.748        -860.583          32.413  
G03  20239293.429   106358190.602         248.131          27.053    20239287.733    79423310.648         185.308          34.818  
G04  22153172.378   116415838.9491       3387.661          24.164  
G17  21253836.975   111689647.070        1235.065          32.806  
G19  22792797.874   119776961.285        3106.564          33.480  
G21  22290113.675   117135323.270       -1798.165          37.886  
G22  23269214.558                       -2114.229          24.806  
G31  24026551.764   126260357.402        1891.992          39.634  
G32  25448574.718   133733129.008       -3066.539          26.656    25448582.813                       -2285.081          18.843  
R21  20007901.618   107066201.531       -1938.849          32.287  
R23  23633354.169                        4492.554          23.371  
> 2022  9 17 10  4 53.0004793  0 24
C06  39036577.340   203273718.711          18.812          27.562  
C09  39135154.796                         607.022          23.565  
C20  22361991.316                        2255.089          19.039  
C27  25800168.315   134348217.965       -3098.189          31.823  
C29  22609459.497   117733390.430        1828.177          27.930  
C30  22099116.200   115075894.141       -1514.514          27.027  
C32  22171981.057                        -885.026          19.860  
E07                                                                  27475475.424   144384591.266       -2348.936          31.815    27475486.516   107819687.6481      -1754.116          21.279  
E10                                                                  25870117.390   135948289.797        2675.381          28.299    25870118.889                        1997.199          25.499  
E25                                                                                                                                  28462234.805                        -356.949          21.137  
E26                                                                  27816983.403   146179215.430       -2313.589          26.357    27816993.896   109159878.359       -1727.625          30.301  
E33                                                                                                                                  23887943.621    93741431.270        -622.641          25.490  
G01  20430395.531   107362466.516       -1153.368          29.151    20430396.131    80173276.316        -861.278          32.480  
G03  20239308.718   106358258.461         247.228          27.304    20239300.924    79423361.320         184.618          34.675  
G04  22152591.380   116412767.355        3386.679          23.376  
G17  21253659.198   111688728.164        1233.994          32.891  
G19  22792264.843   119774170.695        3105.675          33.042  
G21  22290516.297   117137437.230       -1798.874          38.079  
G22  23269669.643   122282999.1211      -2114.633          24.958  
G31  24026250.773   126258781.473        1891.014          39.660  
G32  25449214.176                       -3067.441          27.020    25449226.467                       -2291.206          19.530  
R07  19695267.850                        2187.274          13.833  
R21  20008321.327   107068462.211       -1939.829          32.446  
R23  23632560.319                        4494.021          24.301  
> 2022  9 17 10  4 54.0004795  0 23
C06  39036632.801   203274012.234          18.694          27.177  
C09  39135096.037                         605.531          23.255  
C20  22361616.875                        2253.178          18.043  
C27  25800823.062   134351628.414       -3098.230          32.276  
C29  22609171.996   117731874.684        1827.967          27.925  
C30  22099468.157                       -1514.907          26.914  
C32  22172202.304                        -885.746          19.210  
E07                                                                  27475981.174   144387255.328       -2348.982          31.757    27475997.363                       -1754.201          20.844  
E10                                                                  25869668.002   135945929.598        2675.282          28.145    25869670.700   101518129.7071       1997.862          25.853  
E25                                                                                                                                  28462385.900                        -359.000          21.361  
E26                                                                  27817481.658   146181844.039       -2313.527          26.448    27817493.650   109161841.338       -1727.688          29.955  
E33                                                                                                                                  23888161.570    93742289.203        -622.644          25.265  
G01  20430671.640   107363935.230       -1153.633          28.754    20430674.938    80174373.059        -861.451          32.644  
G03  20239322.209   106358326.508         247.034          27.592    20239313.815    79423412.146         184.465          34.602  
G04  22152001.988                        3386.960          22.874  
G17  21253484.119   111687809.746        1233.501          32.793  
G19  22791731.513   119771380.422        3105.355          33.211  
G21  22290919.518   117139551.250       -1798.937          38.145  
G22  23270130.424   122285429.098       -2114.893          25.585  
G31  24025950.680   126257205.879        1890.679          39.741  
G32  25449864.725   133739893.3911      -3067.149          26.550    25449873.119                       -2298.177          18.866  
R21  20008738.638   107070723.465       -1940.402          32.483  
R23  23631784.456                        4497.582          24.181  
> 2022  9 17 10  4 55.0004797  0 22
C06  39036689.762   203274305.910          18.542          27.358  
C09  39135042.674                         604.724          22.895  
C20  22361242.434                        2248.051          16.464  
C27  25801479.008   134355038.863       -3098.230          32.357  
C29  22608878.199   117730359.445        1827.455          27.518  
C30  22099820.113   115079548.8011      -1515.361          27.284  
E07                                                                  27476488.723   144389919.531       -2349.121          31.744    27476503.113   107823666.7171      -1754.309          21.494  
E10                                                                  25869219.812   135943569.336        2675.343          27.559    25869221.311   101516367.164        1997.831          26.013  
E25                                                                                                                                  28462537.595   111693124.1411       -357.696          22.113  
E26                                                                  27817981.112   146184472.793       -2313.672          26.262    27817993.104   109163804.318       -1727.693          29.832  
E33                                                                                                                                  23888380.119    93743147.336        -622.846          25.578  
G01  20430952.246   107365404.367       -1154.055          29.103    20430954.644    80175470.207        -861.862          32.539  
G03  20239337.798   106358394.961         246.629          28.065    20239326.706    79423463.311         184.121          34.550  
G04  22151417.992                        3386.753          22.018  
G17  21253310.539   111686891.770        1233.057          32.901  
G19  22791204.178   119768590.691        3104.815          33.090  
G21  22291317.942   117141665.559       -1799.225          37.932  
G22  23270597.800   122287859.418       -2115.241          25.816  
G31  24025652.687   126255630.770        1890.190          39.535  
G32  25450501.185   133743275.684       -3067.209          27.199    25450516.174                       -2290.680          18.814  
R21  20009164.943   107072985.316       -1941.005          32.507  
R23  23631020.585                        4493.737          23.913  
> 2022  9 17 10  4 56.0004799  0 23
C06  39036743.425   203274599.934          18.198          27.446  
C09  39134984.514                         610.736          23.114  
C20  22360859.599                        2245.461          18.041  
C27  25802134.954   134358449.734       -3098.655          32.391  
C29  22608592.197   117728844.926        1826.740          27.224  
C30  22100170.270   115081377.035       -1516.016          27.300  
C32  22172667.282                        -886.558          19.563  
E07                                                                  27476995.672   144392584.172       -2349.559          31.732  
E10                                                                  25868769.224   135941209.523        2674.893          27.727    25868772.222   101514604.988        1997.466          25.851  
E25                                                                                                                                  28462690.789   111693717.529        -358.099          21.927  
E26                                                                  27818481.766                       -2314.149          26.119    27818494.057   109165767.678       -1728.069          29.537  
E33                                                                                                                                  23888598.667    93744006.059        -623.430          25.201  
G01  20431234.950   107366874.246       -1154.798          29.395    20431233.751    80176567.859        -862.362          32.604  
G03  20239347.092   106358464.316         245.726          28.103    20239340.196    79423515.018         183.584          34.566  
G04  22150837.594                        3385.459          23.266  
G17  21253138.159   111685974.738        1232.112          32.723  
G19  22790672.945   119765801.617        3104.154          33.107  
G21  22291719.963   117143780.406       -1799.766          37.858  
G22  23271058.881   122290290.461       -2115.957          26.140  
G31  24025351.995   126254056.477        1889.374          39.538  
G32  25451147.237   133746658.387       -3067.623          26.987    25451155.632                       -2289.390          19.590  
R21  20009589.150   107075248.145       -1941.983          32.579  
R23  23630247.720                        4490.022          24.272  
> 2022  9 17 10  4 57.0004801  0 23
C06  39036801.884   203274894.504          17.646          27.383  
C09  39134925.455                         608.615          22.808  
C20  22360497.750                        2246.910          16.763  
C27  25802789.700   134361860.938       -3098.985          32.471  
C29  22608300.199   117727331.051        1826.094          27.325  
C30  22100524.325   115083205.996       -1516.744          27.593  
C32  22172893.325                        -884.919          19.810  
E07                                                                  27477503.820   144395249.223       -2349.963          31.663    27477516.711                       -1755.930          20.633  
E10                                                                  25868319.535   135938850.023        2674.589          28.116    25868323.133   101512843.020        1997.258          25.893  
E25                                                                                                                                  28462839.486   111694311.590        -358.771          20.980  
E26                                                                  27818982.119   146189731.5271      -2314.444          25.781    27818993.811   109167731.270       -1728.302          29.618  
E33                                                                                                                                  23888819.614    93744865.002        -623.654          25.376  
G01  20431517.655   107368344.813       -1155.481          29.127    20431514.957    80177665.953        -862.803          32.664  
G03  20239360.282   106358534.180         245.221          28.345    20239353.987    79423567.258         183.050          34.650  
G04  22150253.599   116400484.7421       3384.795          23.265  
G17  21252963.080   111685058.613        1231.213          32.874  
G19  22790136.617   119763013.375        3103.329          32.714  
G21  22292123.784   117145895.750       -1800.258          38.001  
G22  23271521.761   122292722.105       -2116.560          26.146  
G31  24025050.703   126252482.926        1888.636          39.299  
G32  25451787.294   133750041.543       -3068.072          26.660    25451802.284                       -2289.267          19.263  
R21  20010013.056   107077511.898       -1942.900          32.473  
R23  23629470.658   126401674.2271       4493.759          24.336  
> 2022  9 17 10  4 58.0004802  0 23
C06  39036830.065   203275033.195          17.421          27.081  
C09  39134843.012                         600.260          23.511  
C20  22360099.026                        2256.314          15.987  
C27  25803414.168   134365116.277       -3099.228          32.343  
C29  22607980.021   117725661.758        1825.402          27.278  
C30  22100841.806   115084879.449       -1517.342          27.011  
C32  22173095.985                        -888.682          20.210  
E07                                                                  27477980.490   144397757.070       -2350.306          31.914    27477993.981                       -1754.870          21.283  
E10                                                                  25867838.068   135936333.273        2674.292          28.027    25867845.863   101510963.623        1997.043          25.593  
E25                                                                                                                                  28462961.502   111694788.316        -359.080          21.691  
E26                                                                  27819453.393   146192203.750       -2314.679          26.376    27819463.886   109169577.537       -1728.620          29.461  
E33                                                                                                                                  23889006.985    93745606.820        -624.173          25.200  
G01  20431764.983   107369658.516       -1156.159          29.367    20431763.484    80178646.965        -863.366          32.554  
G03  20239347.092   106358447.199         244.525          28.128    20239337.198    79423502.264         182.640          34.780  
G04  22149633.928                        3380.876          21.827  
G17  21252761.919   111683985.598        1230.555          32.800  
G19  22789582.900   119760068.168        3102.750          32.539  
G21  22292497.025   117147854.043       -1800.750          38.028  
G22  23271956.460   122294996.727       -2117.077          26.668  
G31  24024723.330   126250752.527        1887.943          39.182  
G32  25452406.965   133753267.453       -3068.368          26.843    25452419.557                       -2292.563          19.343  
R21  20010403.686   107079616.066       -1943.744          32.287  
R23  23628639.633                        4493.526          24.137  
> 2022  9 17 10  4 59.0004804  0 23
C06  39036887.025   203275328.121          17.295          27.088  
C09  39134791.747                         603.065          22.939  
C20  22359716.790                        2251.921          16.206  
C27  25804070.714   134368527.691       -3099.192          32.396  
C29  22607690.721   117724148.766        1825.216          27.479  
C30  22101194.961   115086709.367       -1517.694          27.011  
C32  22173340.616                        -890.677          19.020  
E07                                                                  27478487.439   144400422.496       -2350.345          31.885    27478503.028                       -1755.133          21.264  
E10                                                                  25867389.879   135933973.969        2674.384          27.674    25867396.474   101509201.850        1997.065          25.973  
E25                                                                                                                                  28463112.297   111695382.867        -359.259          21.331  
E26                                                                  27819953.747   146194833.539       -2314.708          26.222    27819964.839   109171541.258       -1728.431          29.291  
E33                                                                                                                                  23889226.133    93746466.283        -624.171          25.949  
G01  20432046.788   107371130.031       -1156.435          29.501    20432044.990    80179745.781        -863.525          32.543  
G03  20239355.786   106358517.953         244.329          28.343    20239351.588    79423555.152         182.403          34.642  
G04  22149047.234                        3379.542          22.018  
G17  21252582.343   111683070.547        1230.135          32.787  
G19  22789051.368   119757280.836        3102.414          32.385  
G21  22292898.448   117149969.961       -1800.837          37.855  
G22  23272423.536   122297429.195       -2117.390          26.827  
G31  24024423.837   126249180.031        1887.576          39.160  
G32  25453047.022   133756650.980       -3068.445          26.547    25453062.012                       -2294.237          18.575  
R21  20010831.789   107081881.160       -1944.242          32.228  
R23  23627859.573                        4490.062          24.128  
> 2022  9 17 10  5  0.0004806  0 24
C06  39036945.785   203275623.086          17.255          27.174  
C09  39134733.288                         605.544          23.391  
C20  22359357.339                        2253.143          16.390  
C27  25804725.161   134371939.215       -3099.306          32.188  
C29  22607399.323   117722636.289        1824.692          27.986  
C30  22101544.519   115088539.691       -1518.107          26.591  
C32  22173576.852                        -886.600          19.970  
E07                                                                  27478994.388   144403088.047       -2350.464          31.932    27479011.776   107833500.2441      -1755.312          20.695  
E10                                                                  25866946.785   135931614.738        2674.317          27.636    25866946.486   101507440.084        1997.055          25.898  
E25                                                                                                                                  28463266.690   111695977.879        -359.723          21.845  
E26                                                                  27820457.098   146197463.523       -2314.895          26.516    27820466.092   109173505.150       -1728.603          29.512  
E33                                                                                                                                  23889446.780    93747325.959        -624.386          25.517  
G01  20432326.794   107372601.898       -1156.782          29.845    20432323.797    80180844.939        -863.869          32.537  
G03  20239372.574   106358589.281         243.757          28.128    20239363.580    79423608.350         182.092          34.534  
G04  22148468.035                        3384.051          22.149  
G17  21252406.665   111682156.125        1229.509          32.961  
G19  22788520.735   119754494.016        3101.906          32.485  
G21  22293302.268   117152086.129       -1801.082          37.961  
G22  23272885.217                       -2118.009          26.568  
G31  24024124.045   126247608.055        1887.065          38.973  
G32  25453687.079   133760034.531       -3068.465          27.165    25453704.167                       -2291.583          19.418  
R07  19692803.256                        2180.739          15.039  
R21  20011250.899   107084146.918       -1944.911          32.178  
R23  23627079.513                        4493.054          23.227  
> 2022  9 17 10  5  1.0004808  0 24
C06  39036999.747                          16.698          27.407  
C09  39134675.728                         606.561          23.991  
C20  22358970.007                        2250.648          17.477  
C27  25805380.807   134375350.789       -3099.356          31.807  
C29  22607108.824   117721124.227        1824.282          27.609  
C30  22101896.475   115090370.426       -1518.513          26.115  
C32  22173791.803                        -886.178          21.140  
E07                                                                  27479501.037   144405753.789       -2350.656          31.562    27479518.125   107835490.799       -1755.263          21.302  
E10                                                                  25866494.698   135929255.648        2674.177          27.775    25866498.596                        1996.999          25.598  
E25                                                                                                                                  28463417.786   111696573.201        -360.031          21.406  
E26                                                                  27820955.054   146200093.539       -2314.930          26.324    27820966.146   109175469.166       -1728.725          29.721  
E33                                                                                                                                  23889664.130    93748185.922        -624.672          25.663  
G01  20432609.799   107374074.301       -1157.315          29.885    20432603.803    80181944.473        -864.242          32.628  
G03  20239384.566   106358660.973         243.392          28.441    20239377.970    79423661.914         181.726          34.340  
G04  22147884.639                        3382.628          22.634  
G17  21252234.884   111681242.359        1228.851          32.393  
G19  22787988.904   119751707.617        3101.485          32.412  
G21  22293706.388   117154202.566       -1801.353          37.944  
G22  23273349.296   122302295.1561      -2118.077          27.203  
G31  24023821.854   126246036.605        1886.535          38.931  
G32  25454334.631   133763418.285       -3068.666          26.963    25454348.721                       -2287.341          17.585  
R07  19692471.386                        2184.034          15.489  
R21  20011682.600   107086413.293       -1945.521          32.206  
R23  23626325.535   126384822.4101       4493.622          23.689  
> 2022  9 17 10  5  2.0004810  0 24
C06  39037057.607   203276213.7231         16.750          27.333  
C09  39134621.765   203784295.5081        604.948          24.084  
C20  22358611.455                        2250.742          16.492  
C27  25806037.352   134378762.629       -3099.620          31.389  
C29  22606821.023   117719612.785        1823.663          28.121  
C30  22102245.734   115092201.797       -1519.153          25.716  
C32  22174028.040                        -889.596          21.111  
E07                                                                  27480007.687   144408419.832       -2350.961          31.550    27480021.177                       -1756.006          21.522  
E10                                                                  25866045.010   135926896.805        2673.924          27.801    25866050.706   101503916.9471       1996.739          25.791  
E25                                                                                                                                  28463568.282   111697168.934        -360.443          21.651  
E26                                                                  27821454.808   146202723.863       -2315.244          27.031    27821466.799   109177433.348       -1728.892          29.496  
E33                                                                                                                                  23889883.278    93749046.219        -625.009          25.653  
G01  20432894.601   107375547.270       -1157.889          29.693    20432883.809    80183044.357        -864.596          32.751  
G03  20239399.255   106358733.242         242.815          28.372    20239391.161    79423715.834         181.368          34.390  
G04  22147308.737                        3380.379          22.952  
G17  21252056.507   111680329.160        1228.281          32.878  
G19  22787462.168   119748921.805        3100.894          32.347  
G21  22294107.810   117156319.371       -1801.721          37.604  
G22  23273814.573   122304728.941       -2118.704          27.215  
G31  24023525.959   126244465.754        1885.933          38.879  
G32  25454982.183   133766802.430       -3069.061          26.533  
R07  19692148.509                        2180.869          16.116  
R21  20012097.813   107088680.469       -1946.331          31.920  
R23  23625528.087                        4493.406          23.981  
> 2022  9 17 10  5  3.0004812  0 24
C06  39037113.968   203276509.578          16.366          27.053  
C09  39134562.406                         604.577          24.249  
C20  22358238.813                        2246.249          16.986  
C27  25806689.401   134382174.703       -3099.853          30.753  
C29  22606526.927   117718101.867        1823.140          27.973  
C30  22102595.591   115094033.750       -1519.733          25.688  
C32  22174263.677                        -890.771          21.240  
E07                                                                  27480516.135   144411086.211       -2351.293          31.577    27480532.923   107839472.6481      -1755.702          21.238  
E10                                                                  25865594.721                        2673.150          27.597    25865600.118                        1996.938          25.409  
E25                                                                                                                                  28463720.576   111697765.045        -360.821          22.604  
E26                                                                  27821955.461   146205354.496       -2315.547          27.351    27821968.652   109179397.736       -1729.097          30.097  
E33                                                                                                                                  23890103.326    93749906.807        -625.297          25.170  
G01  20433170.710   107377020.891       -1158.532          29.239    20433164.415    80184144.824        -865.176          32.721  
G03  20239414.545   106358806.148         242.179          28.414    20239405.251    79423770.271         180.854          34.429  
G04  22146727.739                        3382.318          23.565  
G17  21251888.624   111679416.969        1227.278          32.925  
G19  22786931.835   119746136.738        3100.151          32.377  
G21  22294510.132   117158436.699       -1802.241          37.414  
G22  23274279.552   122307163.164       -2119.135          27.297  
G31  24023227.666   126242895.676        1885.165          38.776  
G32  25455624.938   133770186.777       -3069.264          26.717  
R07  19691762.377                        2179.635          17.126  
R21  20012517.522   107090948.566       -1947.244          31.823  
R23  23624747.727                        4490.071          24.264  
> 2022  9 17 10  5  4.0004814  0 24
C06  39037170.329   203276805.871          15.928          27.618  
C09  39134509.043                         605.730          23.708  
C20  22357880.861                        2242.716          18.157  
C27  25807346.246   134385587.156       -3100.236          30.219  
C29  22606237.927   117716591.805        1822.279          28.255  
C30  22102946.948                       -1520.021          25.022  
C32  22174501.112                        -892.214          21.374  
E07                                                                  27481021.884   144413752.938       -2351.644          31.531    27481036.274   107841464.266       -1756.329          20.681  
E10                                                                  25865146.831   135922179.9691       2673.387          27.361    25865151.928   101500394.5981       1996.293          25.536  
E25                                                                                                                                  28463874.670   111698361.836        -361.502          21.602  
E26                                                                  27822455.815   146207985.402       -2315.824          27.424    27822469.305   109181362.426       -1729.399          30.081  
E33                                                                                                                                  23890324.273    93750767.775        -625.679          25.277  
G01  20433448.018   107378495.148       -1159.177          29.513    20433445.320    80185245.701        -865.587          32.826  
G03  20239430.434   106358879.625         241.604          28.473    20239419.342    79423825.199         180.361          34.330  
G04  22146144.643                        3380.918          22.605  
G17  21251712.046   111678505.355        1226.696          32.772  
G19  22786403.601   119743352.277        3099.542          32.571  
G21  22294914.852   117160554.461       -1802.680          37.466  
G22  23274737.934   122309598.125       -2119.878          27.324  
G31  24022925.775   126241326.285        1884.470          38.889  
G32  25456265.294   133773571.625       -3069.764          27.613    25456279.984                       -2287.835          17.346  
R07  19691364.252                        2176.807          16.720  
R21  20012942.628   107093217.496       -1948.077          31.597  
R23  23623959.573                        4492.701          24.072  
> 2022  9 17 10  5  5.0004816  0 23
C06  39037227.290   203277102.344          15.745          27.587  
C09  39134450.584                         606.667          23.917  
C27  25808002.791   134388999.867       -3100.492          29.744  
C29  22605951.925   117715082.180        1821.847          28.135  
C30  22103294.707   115097699.6761      -1521.030          24.494  
C32  22174726.556                        -892.530          21.546  
E07                                                                  27481530.632   144416420.102       -2352.076          31.476    27481545.922   107843455.850       -1756.293          20.488  
E10                                                                  25864696.243   135919821.953        2673.101          27.070    25864703.438   101498633.730        1996.157          25.816  
E25                                                                                                                                  28464028.163   111698958.852        -361.726          21.963  
E26                                                                  27822957.367   146210616.637       -2316.147          27.299    27822969.359   109183327.301       -1729.584          30.534  
E33                                                                                                                                  23890541.622    93751629.225        -626.159          25.651  
G01  20433728.324   107379970.012       -1159.779          29.225    20433726.825    80186347.117        -866.125          32.714  
G03  20239439.727   106358953.816         240.897          28.412    20239433.432    79423880.600         179.890          34.438  
G04  22145556.450                        3376.703          22.140  
G17  21251543.263   111677594.594        1225.847          32.789  
G19  22785870.270   119740568.531        3098.834          32.284  
G21  22295317.773   117162672.645       -1803.097          37.811  
G22  23275202.013   122312033.625       -2120.415          27.449  
G31  24022627.181   126239757.578        1883.793          38.686  
G32  25456912.546   133776956.625       -3069.915          27.365    25456926.936                       -2298.017          18.859  
R07  19690998.805                        2173.152          14.840  
R21  20013362.637   107095487.277       -1948.934          31.638  
R23  23623180.712                        4492.503          24.472  
> 2022  9 17 10  5  6.0004818  0 23
C06  39037284.850   203277399.453          15.110          27.538  
C09  39134392.124                         600.179          23.968  
C27  25808657.238   134392413.063       -3100.976          28.908  
C29  22605662.625   117713573.500        1820.898          28.344  
C30  22103646.664                       -1522.991          23.895  
C32  22174953.199                        -890.370          21.941  
E07                                                                  27482040.279   144419087.707       -2352.526          31.369  
E10                                                                  25864245.356   135917464.461        2672.572          27.085    25864255.249   101496873.291        1995.729          26.007  
E25                                                                                                                                  28464178.359   111699556.629        -362.489          22.155  
E26                                                                  27823458.620   146213248.379       -2316.660          27.240    27823472.111   109185292.570       -1729.980          30.726  
E33                                                                                                                                  23890762.869    93752491.033        -626.519          25.890  
G01  20434008.630   107381445.746       -1160.652          28.890    20434007.731    80187449.113        -866.707          32.982  
G03  20239454.417   106359028.777         240.120          28.841    20239447.522    79423936.537         179.352          34.493  
G04  22144969.157                        3379.211          22.050  
G17  21251369.383   111676684.820        1224.855          32.980  
G19  22785342.336   119737785.676        3097.938          32.058  
G21  22295718.895   117164791.465       -1803.739          37.901  
G22  23275663.394   122314469.832       -2121.128          27.785  
G31  24022328.588   126238189.805        1882.857          38.565  
G32  25457557.100   133780342.367       -3070.658          27.384    25457569.691                       -2299.690          19.178  
R07  19690668.734                        2176.661          16.132  
R21  20013789.242   107097758.129       -1950.001          31.487  
R23  23622410.845                        4491.925          24.156  
> 2022  9 17 10  5  7.0004820  0 23
C06  39037340.911   203277696.961          14.709          27.669  
C09  39134342.359   203782837.4571        603.029          24.306  
C27  25809311.685   134395826.543       -3101.262          28.765  
C29  22605371.527   117712065.453        1820.264          28.489  
C30  22103997.421                       -1522.049          22.751  
C32  22175180.442                        -891.220          21.523  
E07                                                                  27482547.828   144421755.824       -2353.029          31.331  
E10                                                                  25863797.466   135915107.262        2672.285          27.197    25863806.459   101495113.080        1995.502          25.958  
E25                                                                                                                                  28464327.956   111700154.668        -362.748          21.472  
E26                                                                  27823959.274   146215880.508       -2317.044          27.206    27823973.364   109187258.096       -1730.235          30.841  
E33                                                                                                                                  23890980.518    93753353.279        -626.954          25.795  
G01  20434291.334   107382922.168       -1161.336          28.615    20434288.037    80188551.641        -867.237          32.889  
G03  20239469.707   106359104.457         239.405          28.351    20239461.612    79423993.078         178.750          34.512  
G04  22144393.256                        3382.216          22.677  
G17  21251196.103   111675775.902        1224.006          33.097  
G19  22784806.007   119735003.512        3097.249          32.094  
G21  22296120.617   117166910.859       -1804.310          37.674  
G22  23276128.671   122316906.734       -2121.815          27.537  
G31  24022033.292   126236622.793        1882.095          38.399  
G32  25458198.656   133783728.379       -3070.926          27.266    25458212.446                       -2295.304          18.704  
R07  19690364.145                        2182.754          16.690  
R21  20014220.943   107100029.855       -1950.881          31.615  
R23  23621633.783                        4493.688          24.876  
> 2022  9 17 10  5  8.0004822  0 23
C06  39037396.073   203277994.461          14.725          27.659  
C09  39134284.798   203782546.723         602.958          24.279  
C27  25809962.835   134399240.008       -3101.239          28.101  
C29  22605081.028   117710557.719        1819.956          28.717  
C30  22104343.382                       -1524.704          22.715  
C32  22175413.081                        -889.310          22.332  
E07                                                                  27483054.477   144424423.883       -2352.978          31.323  
E10                                                                  25863348.676   135912750.066        2672.277          27.195    25863359.169   101493352.736        1995.633          25.720  
E25                                                                                                                                  28464482.649   111700753.219        -363.262          22.141  
E26                                                                  27824459.328   146218512.621       -2317.032          26.804    27824473.418   109189223.670       -1730.286          30.602  
E33                                                                                                                                  23891201.465    93754215.709        -627.142          25.536  
G01  20434572.540   107384398.895       -1161.646          28.188    20434568.942    80189654.416        -867.487          32.791  
G03  20239485.596   106359180.379         239.161          28.388    20239476.302    79424049.777         178.591          34.423  
G04  22143803.864                        3382.735          21.680  
G17  21251021.924   111674867.363        1223.621          33.214  
G19  22784280.771   119732221.578        3097.015          31.877  
G21  22296528.035   117169030.316       -1804.377          37.537  
G22  23276593.949   122319343.848       -2122.030          27.388  
G31  24021733.500   126235056.105        1881.771          38.395  
G32  25458844.409   133787114.379       -3070.920          27.172    25458860.298                       -2293.084          18.464  
R07  19690052.360                        2171.555          18.105  
R21  20014649.047   107102302.117       -1951.409          31.750  
R23  23620872.310                        4489.960          24.390  
> 2022  9 17 10  5  9.0004824  0 23
C06  39037455.132   203278291.387          15.293          27.729  
C09  39134231.435   203782254.973         603.970          24.431  
C27  25810622.378   134402652.805       -3100.580          28.017  
C29  22604792.328   117709049.605        1820.331          28.732  
C30  22104692.640                       -1525.691          22.662  
C32  22175644.221                        -893.354          22.839  
E07                                                                  27483560.227   144427091.379       -2352.410          31.353    27483576.116                       -1756.103          20.586  
E10                                                                  25862899.587   135910392.160        2672.994          27.165    25862908.281   101491591.951        1996.076          26.050  
E25                                                                                                                                  28464634.044   111701351.496        -362.986          21.389  
E26                                                                  27824961.180   146221144.070       -2316.363          26.790    27824973.771   109191188.684       -1729.722          30.559  
E33                                                                                                                                  23891420.314    93755077.721        -626.721          26.086  
G01  20434850.447   107385875.359       -1161.377          27.781    20434849.848    80190756.945        -867.238          32.873  
G03  20239500.585   106359256.016         239.450          28.098    20239490.692    79424106.229         178.840          34.199  
G04  22143218.069                        3379.202          21.427  
G17  21250849.843   111673958.707        1223.740          33.204  
G19  22783748.939   119729439.445        3097.218          32.009  
G21  22296930.356   117171149.293       -1803.889          37.588  
G22  23277059.227   122321780.602       -2121.671          27.238  
G31  24021436.705   126233489.164        1882.028          38.192  
G32  25459487.763   133790499.883       -3070.417          27.008    25459501.854                       -2292.131          18.161  
R07  19689723.488                        2169.633          18.103  
R21  20015066.358   107104574.293       -1951.323          31.687  
R23  23620077.261                        4492.164          25.045  
> 2022  9 17 10  5 10.0004826  0 23
C06  39037513.592   203278586.969          16.635          27.636  
C09  39134178.672                         604.903          24.940  
C27  25811274.427   134406064.109       -3099.084          27.985  
C29  22604501.529   117707540.438        1821.388          28.944  
C30  22105052.990                       -1521.696          21.959  
C32  22175876.260                        -893.219          21.841  
E07                                                                  27484068.675   144429757.422       -2350.961          31.060  
E10                                                                  25862451.397                        2675.969          26.855    25862460.391   101489830.078        1997.162          26.016  
E25                                                                                                                                  28464787.238   111701948.684        -361.898          21.778  
E26                                                                  27825462.733   146223774.027       -2314.874          26.700    27825476.523   109193152.672       -1728.700          31.004  
E33                                                                                                                                  23891640.362    93755938.828        -625.818          25.687  
G01  20435128.655   107387350.605       -1160.165          27.973    20435130.454    80191858.549        -866.315          33.086  
G03  20239513.476   106359330.449         240.646          27.316    20239504.483    79424161.832         179.684          34.218  
G04  22142636.772                        3382.278          21.915  
G17  21250676.563   111673048.953        1224.836          33.297  
G19  22783219.805   119726656.172        3098.356          31.857  
G21  22297329.980   117173266.930       -1802.555          37.367  
G22  23277521.207   122324216.152       -2120.469          27.329  
G31  24021136.913   126231921.219        1883.025          37.991  
G32  25460132.917   133793883.832       -3068.867          26.916    25460143.110                       -2286.911          18.882  
R07  19689308.575                        2177.392          16.731  
R21  20015494.462   107106845.477       -1950.337          31.691  
R23  23619307.094                        4495.761          24.967  
> 2022  9 17 10  5 11.0004828  0 23
C06  39037568.454   203278880.977          18.211          28.134  
C09  39134119.913   203781668.6291        606.317          25.008  
C27  25811929.773   134409473.941       -3097.613          28.268  
C29  22604214.328   117706030.047        1822.609          28.880  
C30  22105398.351                       -1519.159          22.002  
C32  22176096.308                        -890.083          21.240  
E07                                                                  27484577.123   144432422.016       -2349.508          30.947  
E10                                                                  25862001.709   135905671.7031       2676.031          26.854    25862009.503   101488066.691        1998.678          26.042  
E25                                                                                                                                  28464939.532   111702545.219        -361.244          21.975  
E26                                                                  27825964.286   146226402.543       -2313.429          26.935    27825975.078   109195115.457       -1727.494          31.236  
E33                                                                                                                                  23891860.409    93756798.846        -624.726          26.197  
G01  20435412.858   107388824.676       -1158.982          28.021    20435411.659    80192959.318        -865.478          33.008  
G03  20239525.168   106359403.762         241.776          26.683    20239518.873    79424216.570         180.553          34.246  
G04  22142045.281                        3378.548          21.995  
G17  21250501.484   111672138.258        1225.781          33.685  
G19  22782688.873   119723871.852        3099.409          31.794  
G21  22297733.800   117175383.219       -1801.204          37.282  
G22  23277978.990   122326650.395       -2119.156          27.578  
G31  24020837.720   126230352.094        1884.213          38.011  
G32  25460778.370                       -3067.194          26.452    25460788.263                       -2286.839          18.553  
R07  19689014.479                        2176.441          17.412  
R21  20015925.563   107109115.660       -1949.332          32.039  
R23  23618528.233                        4499.194          24.765  
> 2022  9 17 10  5 12.0004830  0 24
C06  39037625.714   203279174.887          18.313          27.985  
C09  39134059.654                         607.310          24.574  
C20  22354913.216                        2253.375          18.329  
C27  25812583.620   134412883.391       -3097.227          28.531  
C29  22603925.328                        1822.026          28.823  
C30  22105753.605                       -1520.678          21.908  
C32  22176331.345                        -881.896          21.212  
E07                                                                  27485084.672   144435086.434       -2349.336          31.355  
E10                                                                  25861552.020   135903310.480        2676.306          26.907    25861562.213   101486303.824        1998.156          26.254  
E25                                                                                                                                  28465091.827   111703141.715        -361.209          22.089  
E26                                                                  27826463.440   146229030.723       -2313.098          27.053    27826476.331   109197078.088       -1727.342          31.217  
E33                                                                                                                                  23892079.558    93757658.869        -624.734          25.712  
G01  20435691.365   107390298.824       -1159.068          28.017    20435691.665    80194060.160        -865.553          32.861  
G03  20239528.466   106359477.047         241.797          26.666    20239533.263    79424271.289         180.571          34.020  
G04  22141462.484                        3379.828          20.928  
G17  21250332.401   111671227.684        1225.655          33.433  
G19  22782163.337   119721087.445        3099.485          31.964  
G21  22298135.222   117177499.355       -1801.053          37.345  
G22  23278441.870   122329084.672       -2119.193          27.737  
G31  24020538.527   126228783.121        1884.056          37.832  
G32  25461420.825                       -3067.336          26.918    25461431.917                       -2286.926          18.622  
R07  19688684.407                        2176.556          19.483  
R21  20016343.474   107111386.145       -1949.635          32.181  
R23  23617733.483                        4497.727          24.900  
> 2022  9 17 10  5 13.0004832  0 23
C06  39037682.375   203279468.824          18.283          27.811  
C09  39134001.794   203781080.0201        606.481          24.695  
C27  25813238.967   134416293.020       -3097.412          29.208  
C29  22603630.033   117703009.9141       1822.123          28.828  
C30  22106111.857                       -1520.588          22.180  
C32  22176554.691                        -884.133          20.846  
E07                                                                  27485590.122   144437750.941       -2349.420          31.359    27485606.610                       -1754.553          20.252  
E10                                                                  25861105.030   135900949.395        2676.171          26.921    25861112.824   101484540.625        1998.491          25.770  
E25                                                                                                                                  28465242.623   111703738.293        -361.286          21.994  
E26                                                                  27826963.794   146231659.105       -2313.294          27.343    27826975.786   109199040.738       -1727.360          31.093  
E33                                                                                                                                  23892297.207    93758519.043        -624.883          25.471  
G01  20435969.273   107391773.410       -1159.498          27.814    20435973.470    80195161.311        -865.859          33.091  
G03  20239544.955   106359550.832         241.301          26.536    20239546.454    79424326.373         180.207          34.111  
G04  22140888.082                        3382.165          21.228  
G17  21250158.821   111670317.746        1225.024          33.477  
G19  22781633.603   119718303.613        3098.921          31.658  
G21  22298540.542   117179615.754       -1801.312          37.206  
G22  23278903.251   122331519.371       -2119.613          27.784  
G31  24020241.133   126227214.668        1883.536          37.973  
G32  25462063.280   133804031.1211      -3067.363          27.068    25462076.171                       -2290.192          18.928  
R07  19688289.281                        2174.825          20.257  
R21  20016761.684   107113657.246       -1950.251          32.164  
R23  23616945.029                        4496.522          24.952  
> 2022  9 17 10  5 14.0004834  0 23
C06  39037738.436   203279763.055          17.988          27.611  
C09  39133947.532   203780786.113         606.127          24.934  
C20  22354150.244                        2246.998          18.122  
C27  25813897.611   134419702.727       -3097.487          29.750  
C29  22603339.234   117701500.609        1821.523          28.474  
C30  22106455.419                       -1522.328          23.053  
C32  22176793.325                        -889.386          21.001  
E07                                                                  27486096.771   144440415.703       -2349.681          31.167  
E10                                                                  25860655.341                        2675.917          27.262    25860663.135                        1997.831          25.960  
E25                                                                                                                                  28465394.617   111704335.484        -361.902          22.269  
E26                                                                  27827464.447   146234287.578       -2313.393          27.271    27827474.940   109201003.641       -1727.613          31.027  
E33                                                                                                                                  23892516.355    93759379.570        -625.238          25.764  
G01  20436255.874   107393248.504       -1160.013          28.095    20436253.476    80196262.900        -866.302          33.049  
G03  20239558.445   106359624.977         240.937          25.642    20239561.143    79424381.838         179.825          34.036  
G17  21249986.441   111669408.465        1224.363          33.426  
G19  22781102.371   119715520.328        3098.367          31.513  
G21  22298940.465   117181732.469       -1801.633          37.283  
G22  23279367.030   122333954.488       -2120.035          28.038  
G31  24019943.439   126225646.773        1882.978          38.152  
G32  25462706.635   133807413.754       -3067.552          27.577    25462721.025                       -2295.586          19.313  
R07  19687987.690                        2176.956          20.829  
R21  20017191.587   107115929.047       -1950.951          32.163  
R23  23616183.257   126330570.2971       4496.346          25.055  
> 2022  9 17 10  5 15.0004836  0 23
C06  39037795.397   203280057.781          17.494          27.876  
C09  39133894.469   203780492.012         606.319          25.205  
C27  25814550.259   134423112.863       -3097.918          30.359  
C29  22603049.934   117699991.957        1820.873          28.544  
C30  22106810.074                       -1523.739          22.664  
C32  22177020.868                        -891.380          21.160  
E07                                                                  27486604.320   144443080.863       -2350.074          31.244  
E10                                                                  25860202.654   135896227.7581       2675.723          27.566    25860213.147                        1997.945          25.725  
E25                                                                                                                                  28465546.912   111704933.254        -362.480          22.759  
E26                                                                  27827962.403   146236916.488       -2313.823          26.823    27827976.493   109202966.793       -1727.861          31.091  
E33                                                                                                                                  23892737.602    93760240.506        -625.645          25.722  
G01  20436538.279   107394724.359       -1160.772          27.737    20436533.782    80197364.977        -866.784          32.930  
G03  20239577.032   106359699.938         240.123          26.048    20239575.234    79424437.777         179.350          34.122  
G04  22139732.082                        3381.229          22.195  
G17  21249811.662   111668499.996        1223.558          33.359  
G19  22780570.839   119712737.758        3097.655          31.469  
G21  22299345.784   117183849.813       -1802.259          37.230  
G22  23279837.704   122336390.223       -2120.651          27.925  
G31  24019642.747   126224079.652        1882.208          38.118  
G32  25463352.688   133810796.809       -3067.966          27.433    25463364.380                       -2295.269          18.780  
R07  19687620.744                        2174.840          21.205  
R21  20017607.099   107118201.820       -1951.925          32.074  
R23  23615380.113   126326394.984        4496.051          25.296  
> 2022  9 17 10  5 16.0004838  0 23
C06  39037848.760   203280352.406          17.594          27.786  
C09  39133835.709   203780198.535         605.695          25.453  
C27  25815205.905   134426522.805       -3097.724          30.696  
C29  22602759.435   117698483.547        1820.628          28.462  
C30  22107165.927                       -1521.639          22.965  
C32  22177259.803                        -893.880          21.084  
E07                                                                  27487110.369   144445746.027       -2350.082          31.093  
E10                                                                  25859754.165   135893867.070        2675.772          27.262    25859764.657   101479251.8771       1998.161          26.162  
E25                                                                                                                                  28465702.504   111705531.080        -362.537          21.820  
E26                                                                  27828464.855   146239545.289       -2313.719          26.833    27828476.547   109204929.875       -1727.793          30.988  
E33                                                                                                                                  23892954.652    93761101.547        -625.752          25.054  
G01  20436816.786   107396200.371       -1160.927          27.774    20436814.388    80198467.227        -866.962          33.090  
G03  20239582.429   106359775.191         239.828          25.694    20239589.324    79424493.938         179.129          34.023  
G04  22139135.495                        3383.371          21.522  
G17  21249638.082   111667591.938        1223.138          33.283  
G19  22780045.303   119709955.461        3097.378          31.301  
G21  22299746.607   117185967.074       -1802.181          37.301  
G22  23280296.986   122338826.180       -2120.874          27.843  
G31  24019345.653   126222512.895        1881.839          38.003  
G32  25463995.743   133814179.867       -3067.977          27.344    25464008.634                       -2291.504          18.625  
R07  19687246.603                        2172.234          20.493  
R21  20018035.203   107120475.070       -1952.397          32.309  
R23  23614607.847                        4499.564          24.615  
> 2022  9 17 10  5 17.0004840  0 24
C06  39037905.420   203280645.980          18.646          27.812  
C09  39133780.547   203779903.914         606.845          25.208  
C20  22353045.808                        2250.495          18.609  
C27  25815861.551   134429931.711       -3096.681          30.738  
C29  22602472.534   117696974.426        1821.344          28.670  
C30  22107517.884                       -1519.507          24.080  
C32  22177487.945                        -888.716          20.256  
E07                                                                  27487617.618   144448410.148       -2349.034          31.078    27487632.008                       -1753.484          20.584  
E10                                                                  25859306.874   135891505.215        2676.938          27.258    25859316.168   101477488.160        1999.005          26.324  
E25                                                                                                                                  28465851.201   111706128.334        -361.965          21.591  
E26                                                                  27828963.709   146242173.094       -2312.719          26.580    27828976.001   109206892.145       -1726.981          30.855  
E33                                                                                                                                  23893174.999    93761961.779        -624.943          25.433  
G01  20437099.490   107397675.727       -1160.271          27.874    20437096.493    80199568.889        -866.372          33.150  
G03  20239599.817   106359849.590         240.689          25.748    20239604.313    79424549.494         179.732          33.650  
G04  22138542.506                        3382.569          20.925  
G17  21249466.001   111666683.277        1223.746          33.222  
G19  22779510.773   119707172.441        3098.105          31.137  
G21  22300151.027   117188083.492       -1801.331          37.555  
G22  23280757.767                       -2120.331          27.669  
G31  24019045.561   126220945.402        1882.577          38.090  
G32  25464642.695   133817561.828       -3066.876          27.237    25464653.487                       -2288.468          19.173  
R07  19686924.925                        2174.109          20.309  
R21  20018453.713   107122747.734       -1951.817          31.803  
R23  23613827.787   126318042.8241       4497.419          24.339  
> 2022  9 17 10  5 18.0004842  0 22
C06  39037968.077   203280939.383          18.816          28.153  
C09  39133723.587                         606.794          24.825  
C27  25816515.698   134433340.332       -3096.404          30.929  
C29  22602180.836   117695465.305        1821.338          28.763  
C30  22107872.239                       -1518.999          24.235  
C32  22177717.286                        -887.820          20.879  
E07                                                                  27488124.567   144451074.020       -2348.789          31.055  
E10                                                                  25858858.385   135889143.086        2677.214          27.560    25858865.280   101475724.262        1999.190          26.722  
E25                                                                                                                                  28466005.594   111706725.609        -361.984          22.159  
E26                                                                  27829461.665                       -2312.980          26.207    27829475.455   109208854.260       -1726.825          30.459  
E33                                                                                                                                  23893395.047    93762822.066        -624.997          25.184  
G01  20437380.696   107399151.074       -1160.265          27.590    20437377.398    80200670.660        -866.480          33.325  
G03  20239607.611   106359924.051         240.619          25.501    20239617.205    79424605.117         179.668          33.812  
G04  22137965.705                        3378.512          21.172  
G17  21249292.121   111665774.773        1223.588          33.098  
G21  22300555.147   117190199.758       -1801.185          37.757  
G22  23281226.342   122343696.5391      -2120.058          27.658  
G31  24018749.066   126219378.082        1882.402          37.859  
G32  25465280.653   133820943.539       -3066.630          27.465    25465295.942                       -2283.290          18.386  
R07  19686577.466                        2177.641          19.667  
R21  20018881.817   107125020.656       -1952.071          31.888  
R23  23613056.721                        4497.791          24.395  
> 2022  9 17 10  5 19.0004844  0 23
C06  39038021.440   203281234.281          17.322          28.562  
C09  39133667.826                         605.127          25.118  
C27  25817171.344   134436750.336       -3097.784          31.025  
C29  22601890.337   117693958.074        1819.452          28.753  
C30  22108227.792                       -1524.198          23.932  
C32  22177946.027                        -888.801          20.384  
E07                                                                  27488631.816   144453739.395       -2350.288          31.164  
E10                                                                  25858408.396                        2675.323          27.345    25858415.591   101473961.418        1998.134          26.358  
E25                                                                                                                                  28466157.289   111707324.242        -363.344          22.020  
E26                                                                  27829962.618   146247429.5271      -2313.885          25.842    27829976.108   109210817.381       -1727.831          30.110  
E33                                                                                                                                  23893615.094    93763683.545        -626.190          25.239  
G01  20437653.507   107400628.281       -1162.120          27.008    20437658.903    80201773.715        -867.766          33.353  
G03  20239627.398                         238.409          25.458    20239632.794    79424662.076         178.331          33.939  
G04  22137387.106                        3382.473          21.893  
G17  21249119.141   111664868.254        1221.606          33.028  
G19  22778455.803   119701608.4021       3096.216          30.820  
G21  22300958.368   117192317.613       -1802.770          37.874  
G22  23281687.123   122346133.406       -2121.779          27.849  
G31  24018448.974   126217812.574        1880.597          37.746  
G32  25465926.406   133824326.789       -3068.162          27.191    25465937.798                       -2286.543          18.279  
R07  19686239.900                        2174.076          20.329  
R21  20019315.017   107127295.641       -1954.130          32.258  
R23  23612246.982                        4497.829          23.911  
> 2022  9 17 10  5 20.0004846  0 23
C06  39038080.199   203281530.379          16.121          28.316  
C09  39133616.261   203779024.3201        604.287          25.746  
C27  25817826.391   134440161.461       -3098.907          31.070  
C29  22601602.236   117692452.242        1818.048          28.886  
C30  22108583.646                       -1523.567          24.213  
C32  22178177.467                        -891.888          20.082  
E07                                                                  27489139.365   144456406.008       -2351.532          31.262  
E10                                                                  25857959.307   135884422.8871       2674.577          27.520    25857966.502   101472199.338        1997.370          26.745  
E25                                                                                                                                  28466311.982   111707923.980        -364.446          21.398  
E26                                                                  27830460.273   146250059.641       -2315.030          25.885    27830477.062   109212781.402       -1728.730          29.819  
E33                                                                                                                                  23893832.444    93764545.951        -627.115          25.232  
G01  20437935.911                       -1164.267          26.825    20437938.610    80202877.934        -868.927          33.329  
G03  20239645.385   106360078.0741        237.321          25.615    20239647.484    79424720.100         177.267          33.811  
G04  22136806.408                        3376.391          21.013  
G17  21248943.762   111663963.316        1220.017          33.111  
G19  22777923.971   119698828.863        3094.621          30.495  
G21  22301362.788   117194436.770       -1804.071          37.900  
G22  23282153.900   122348571.715       -2123.228          28.218  
G31  24018155.477   126216248.676        1878.980          37.793  
G32  25466568.861   133827711.207       -3069.338          27.320    25466579.954                       -2289.879          17.997  
R07  19685899.335                        2172.412          21.156  
R21  20019736.525   107129572.336       -1955.849          32.343  
R23  23611470.519                        4494.986          24.679  
> 2022  9 17 10  5 21.0004848  0 23
C06  39038138.659   203281827.340          15.263          28.195  
C09  39133556.303   203778732.609         603.930          25.898  
C27  25818481.737   134443573.449       -3099.767          31.199  
C29  22601313.836   117690947.566        1816.900          28.558  
C30  22108937.401   115127050.8981      -1526.012          24.517  
C32  22178414.903                        -894.069          20.315  
E07                                                                  27489646.314   144459073.496       -2352.402          31.145  
E10                                                                  25857512.017   135882064.090        2673.882          27.488    25857518.313   101470437.971        1996.656          26.519  
E25                                                                                                                                  28466461.879   111708524.568        -365.299          21.383  
E26                                                                  27830962.725   146252690.586       -2315.862          25.747    27830977.115   109214746.064       -1729.374          30.081  
E33                                                                                                                                  23894053.691    93765409.236        -627.996          25.554  
G01  20438217.716                       -1164.849          26.661    20438221.913    80203982.996        -869.775          33.433  
G03  20239656.178   106360156.906         236.253          25.872    20239661.274    79424779.008         176.382          33.888  
G04  22136223.311                        3374.827          21.839  
G17  21248775.579   111663059.734        1218.670          32.784  
G19  22777393.938   119696050.402        3093.548          30.742  
G21  22301764.210   117196556.918       -1805.062          37.897  
G22  23282616.180   122351011.102       -2124.300          28.188  
G31  24017856.884   126214685.996        1877.764          37.980  
G32  25467211.916   133831096.477       -3070.182          27.150  
R07  19685582.755                        2169.836          21.538  
R21  20020157.134   107131850.387       -1957.200          32.175  
R23  23610687.161   126301341.7271       4494.559          24.604  
> 2022  9 17 10  5 22.0004850  0 23
C06  39038194.720   203282124.672          14.885          28.406  
C09  39133505.338   203778441.738         603.092          25.598  
C27  25819134.985   134446985.809       -3100.140          31.295  
C29  22601022.438   117689443.594        1816.192          28.754  
C30  22109286.959                       -1527.041          24.527  
C32  22178649.640                        -896.237          20.583  
E07                                                                  27490154.762   144461741.367       -2352.790          31.195  
E10                                                                  25857062.328                        2673.421          27.493    25857070.123   101468676.828        1996.434          26.826  
E25                                                                                                                                  28466616.272   111709125.598        -365.739          21.307  
E26                                                                  27831464.278   146255321.914       -2316.247          26.721    27831476.869   109216711.057       -1729.701          29.695  
E33                                                                                                                                  23894274.038    93766272.875        -628.348          25.252  
G01  20438501.620   107405067.2971      -1165.502          26.654    20438503.119    80205088.553        -870.265          33.293  
G03  20239671.167   106360236.477         235.511          25.993    20239677.763    79424838.379         175.919          33.867  
G04  22135641.714                        3379.224          22.121  
G17  21248603.498   111662156.957        1217.858          32.763  
G19  22776866.603   119693272.711        3092.772          30.513  
G21  22302166.232   117198677.547       -1805.548          37.830  
G22  23283080.259   122353451.070       -2124.886          28.607  
G31  24017558.890   126213124.023        1877.054          37.871  
G32  25467855.271   133834482.176       -3070.617          27.124  
R07  19685189.127                        2171.241          22.431  
R21  20020579.841   107134129.371       -1958.134          32.118  
R23  23609917.594                        4495.096          24.495  
> 2022  9 17 10  5 23.0004852  0 23
C06  39038251.081   203282422.418          14.472          28.036  
C09  39133447.478   203778151.445         602.512          26.047  
C27  25819789.432   134450398.352       -3100.325          31.532  
C29  22600735.536   117687940.281        1815.532          28.746  
C30  22109639.215                       -1527.654          24.168  
C32  22178884.078                        -899.970          21.516  
E07                                                                  27490662.311   144464409.637       -2353.181          31.099  
E10                                                                  25856615.637   135877347.5271       2673.241          27.310    25856620.134   101466915.895        1996.224          26.796  
E25                                                                                                                                  28466766.767   111709727.281        -366.393          21.658  
E26                                                                  27831966.431   146257953.590       -2316.587          26.800    27831977.523   109218676.201       -1729.856          29.871  
E33                                                                                                                                  23894492.887    93767136.828        -628.663          25.747  
G01  20438781.326   107406548.457       -1166.071          26.646    20438784.324    80206194.629        -870.787          33.292  
G03  20239688.255                         234.840          26.828    20239691.853    79424898.303         175.366          33.651  
G04  22135053.521                        3376.428          22.576  
G17  21248432.616   111661255.012        1217.033          32.781  
G19  22776339.868   119690495.719        3092.077          30.631  
G21  22302571.251   117200798.707       -1806.077          37.954  
G22  23283546.436   122355891.742       -2125.586          28.718  
G31  24017262.095   126211562.836        1876.275          37.842  
G32  25468500.124   133837868.359       -3071.098          26.767    25468512.416                       -2292.700          17.085  
R07  19684877.043                        2168.865          23.050  
R21  20021007.045   107136409.215       -1958.994          32.006  
R23  23609125.243   126292994.9771       4493.967          24.395  
> 2022  9 17 10  5 24.0004854  0 23
C06  39038309.241   203282720.121          14.517          27.852  
C09  39133394.415   203777860.984         602.680          26.025  
C27  25820445.677   134453810.898       -3100.326          31.429  
C29  22600449.235   117686437.250        1815.249          29.000  
C30  22109990.572   115132569.3091      -1527.678          24.209  
C32  22179110.122                        -901.392          21.348  
E07                                                                  27491172.557   144467077.898       -2353.180          30.846    27491185.448                       -1757.832          20.550  
E10                                                                  25856167.148   135874989.410        2673.198          27.691    25856172.544   101465154.957        1996.228          26.489  
E25                                                                                                                                  28466921.760   111710329.084        -366.513          21.620  
E26                                                                  27832471.581   146260585.145       -2316.475          26.955    27832478.776   109220641.430       -1729.937          29.347  
E33                                                                                                                                  23894714.733    93768001.066        -628.947          25.581  
G01  20439064.930   107408029.930       -1166.393          27.017    20439066.429    80207301.006        -871.086          33.310  
G03  20239704.144   106360397.7501        234.515          26.930    20239708.941    79424958.375         175.218          33.926  
G04  22134480.018   116317558.3551       3376.133          23.608  
G17  21248259.636   111660353.441        1216.653          32.337  
G19  22775812.533   119687719.102        3091.699          30.373  
G21  22302972.673   117202919.934       -1806.142          37.953  
G22  23284007.817   122358332.566       -2125.742          28.287  
G31  24016966.200   126210001.977        1875.941          38.099  
G32  25469148.875   133841254.270       -3070.827          27.480    25469163.265                       -2300.247          19.044  
R07  19684542.475                        2166.756          22.914  
R21  20021436.348   107138689.602       -1959.535          31.997  
R23  23608358.374                        4494.119          24.342  
> 2022  9 17 10  5 25.0004856  0 24
C06  39038365.902                          14.261          28.157  
C09  39133333.557   203777570.848         602.357          26.547  
C20  22350062.574                        2241.131          19.289  
C27  25821099.525   134457223.531       -3100.414          31.545  
C29  22600160.235   117684934.715        1814.755          29.118  
C30  22110344.027   115134409.602       -1528.077          24.795  
C32  22179341.561                        -893.597          21.669  
E07                                                                  27491679.806   144469746.379       -2353.396          31.014    27491689.999   107883277.3911      -1757.332          20.382  
E10                                                                  25855718.658   135872631.402        2673.093          27.797    25855722.556   101463394.092        1996.154          26.807  
E25                                                                                                                                  28467076.453   111710931.184        -366.810          21.951  
E26                                                                  27832969.536   146263216.996       -2316.763          27.302    27832978.530   109222606.719       -1729.999          29.109  
E33                                                                                                                                  23894935.380    93768865.457        -629.102          25.257  
G01  20439347.034   107409511.914       -1166.896          27.385    20439347.934    80208407.617        -871.321          33.385  
G03  20239721.832   106360478.188         234.649          27.332    20239723.031    79425018.869         174.795          33.821  
G04  22133898.421                        3375.423          23.573  
G17  21248091.153   111659452.488        1216.038          32.419  
G19  22775282.500   119684942.918        3091.271          30.073  
G21  22303378.293   117205041.500       -1806.480          38.187  
G22  23284478.191                       -2126.209          28.495  
G31  24016670.605   126208441.684        1875.381          38.064  
G32  25469791.330   133844640.543       -3071.188          27.203    25469806.920                       -2294.914          18.175  
R07  19684180.026                        2160.052          22.457  
R21  20021860.854   107140970.676       -1960.228          31.702  
R23  23607575.016                        4494.830          23.910  
> 2022  9 17 10  5 26.0004858  0 24
C06  39038422.562   203283316.2771         14.057          28.542  
C09  39133278.995   203777280.949         602.118          26.506  
C20  22349698.925                        2244.944          19.508  
C27  25821757.869   134460636.387       -3100.632          31.922  
C29  22599875.432   117683432.727        1814.209          29.078  
C30  22110701.080                       -1529.213          24.938  
C32  22179574.200                        -896.008          21.212  
E07                                                                  27492187.055   144472415.121       -2353.661          31.024    27492198.447   107885270.279       -1757.598          20.638  
E10                                                                  25855269.569   135870273.602        2672.884          27.421    25855273.467   101461633.328        1996.054          26.444  
E25                                                                                                                                  28467231.146   111711533.639        -367.164          21.712  
E26                                                                  27833468.990                       -2317.013          27.080    27833479.783   109224572.176       -1730.167          29.040  
E33                                                                                                                                  23895155.428    93769730.086        -629.339          25.178  
G01  20439633.336   107410994.426       -1167.432          27.042    20439630.938    80209514.678        -871.769          33.376  
G03  20239742.518   106360559.707         233.563          27.671    20239739.520    79425079.740         174.421          33.659  
G04  22133318.622                        3375.287          24.172  
G17  21247913.376   111658552.336        1215.236          32.266  
G19  22774755.765   119682167.363        3090.636          30.033  
G21  22303780.314   117207163.402       -1806.823          38.234  
G22  23284938.972   122363215.5701      -2126.654          28.691  
G31  24016373.511   126206882.039        1874.726          38.121  
G32  25470433.186   133848027.043       -3071.418          26.999    25470448.475                       -2288.447          17.383  
R07  19683847.256                        2165.186          22.008  
R21  20022299.151   107143252.559       -1961.031          31.876  
R23  23606791.958                        4492.973          24.477  
> 2022  9 17 10  5 27.0004860  0 24
C06  39038482.221   203283614.934          13.562          28.561  
C09  39133222.634   203776991.434         601.736          26.176  
C20  22349334.678                        2244.026          20.232  
C27  25822414.115   134464049.578       -3100.976          31.924  
C29  22599585.832   117681931.410        1813.534          29.204  
C30  22111053.336   115138092.1211      -1529.377          24.517  
C32  22179807.439                        -897.439          22.229  
E07                                                                  27492695.503   144475084.277       -2354.070          30.910    27492707.495                       -1758.966          20.713  
E10                                                                  25854820.180   135867916.137        2672.550          27.713    25854827.076   101459873.020        1995.598          26.179  
E25                                                                                                                                  28467385.239   111712136.766        -367.839          21.671  
E26                                                                  27833973.241   146268481.3871      -2317.343          27.276    27833979.537   109226537.939       -1730.474          28.516  
E33                                                                                                                                  23895375.476    93770595.205        -629.829          25.934  
G01  20439913.043   107412477.598       -1168.086          27.047    20439913.342    80210622.289        -872.323          33.423  
G03  20239755.409   106360641.922         232.871          28.064    20239753.610    79425141.098         173.931          33.745  
G04  22132738.524   116308377.7581       3374.720          24.434  
G17  21247744.593   111657652.969        1214.450          32.498  
G19  22774224.233   119679392.535        3089.914          29.938  
G21  22304186.233   117209285.828       -1807.337          38.239  
G22  23285402.751   122365657.996       -2127.337          29.029  
G31  24016074.618   126205323.164        1873.962          38.348  
G32  25471075.941   133851413.984       -3071.854          26.819    25471093.029                       -2289.663          17.259  
R07  19683468.618                        2167.278          22.529  
R21  20022718.860   107145535.309       -1961.896          31.792  
R23  23606014.296                        4492.056          23.929  
> 2022  9 17 10  5 28.0004862  0 24
C06  39038538.282   203283913.969          13.183          28.196  
C09  39133167.772                         600.972          26.412  
C20  22348951.543                        2239.806          20.554  
C27  25823069.461   134467463.051       -3101.254          31.702  
C29  22599301.029   117680430.734        1812.896          29.461  
C30  22111407.691   115139934.344       -1530.002          24.884  
C32  22180045.474                        -901.220          22.063  
E07                                                                  27493203.052   144477753.832       -2354.472          30.520    27493215.943                       -1756.961          19.455  
E10                                                                  25854371.691   135865558.973        2672.246          27.615    25854377.087                        1995.346          26.033  
E25                                                                                                                                  28467536.634   111712740.188        -368.131          22.390  
E26                                                                  27834472.696   146271114.137       -2317.668          27.567    27834480.490   109228503.904       -1730.674          28.648  
E33                                                                                                                                  23895597.922    93771460.662        -630.167          25.536  
G01  20440198.745   107413961.543       -1168.861          27.091    20440195.747    80211730.314        -872.734          33.415  
G03  20239774.895   106360724.766         232.240          28.696    20239770.698    79425202.979         173.410          33.757  
G04  22132146.134   116305318.797        3374.043          24.737  
G17  21247570.713   111656754.375        1213.676          32.353  
G19  22773697.797   119676618.395        3089.223          29.856  
G21  22304591.852   117211408.719       -1807.810          38.557  
G22  23285866.230   122368101.023       -2127.947          28.693  
G31  24015779.922   126203764.992        1873.252          38.096  
G32  25471727.390                       -3072.367          27.158  
R07  19683141.844                        2164.498          22.353  
R21  20023138.869   107147818.965       -1962.812          31.425  
R23  23605219.247                        4491.936          23.841  
> 2022  9 17 10  5 29.0004864  0 24
C06  39038596.442   203284213.285          12.903          28.096  
C09  39133114.409   203776414.1091        600.991          26.224  
C20  22348581.899                        2233.836          20.466  
C27  25823724.208   134470876.891       -3101.621          31.424  
C29  22599011.430   117678930.754        1812.199          29.334  
C30  22111760.846   115141777.246       -1530.684          24.372  
C32  22180272.117                        -899.402          22.587  
E07                                                                  27493712.099   144480423.734       -2354.818          30.901    27493721.093                       -1756.661          19.178  
E10                                                                  25853923.201   135863202.129        2671.929          27.757    25853928.598   101456352.6621       1995.349          26.583  
E25                                                                                                                                  28467695.524   111713344.199        -368.721          22.224  
E26                                                                  27834973.349   146273747.129       -2317.905          27.536    27834980.544   109230470.158       -1730.965          28.247  
E33                                                                                                                                  23895816.171    93772326.447        -630.495          25.743  
G01  20440479.950   107415446.008       -1169.381          27.400    20440477.252    80212838.896        -873.294          33.521  
G03  20239789.885   106360808.199         231.651          28.920    20239785.988    79425265.293         172.975          33.542  
G04  22131565.736   116302260.305        3373.577          24.915  
G17  21247401.930   111655856.582        1212.880          31.818  
G19  22773170.462   119673844.910        3088.569          30.084  
G21  22304995.073   117213532.094       -1808.289          38.537  
G22  23286335.106   122370544.609       -2128.498          28.783  
G31  24015484.626   126202207.543        1872.535          38.189  
G32  25472372.543   133858188.8521      -3072.552          26.804  
R07  19682783.592                        2163.523          21.454  
R21  20023573.568   107150103.445       -1963.628          31.708  
R23  23604449.680                        4493.212          23.708  
> 2022  9 17 10  5 30.0004866  0 24
C06  39038655.201   203284512.863          12.643          28.208  
C09  39133058.947   203776125.551         600.781          26.513  
C20  22348205.359                        2231.353          19.160  
C27  25824380.753   134474290.867       -3101.751          31.295  
C29  22598723.629   117677431.227        1811.751          29.200  
C30  22112120.897                       -1531.514          24.763  
C32  22180505.356                        -898.367          22.500  
E07                                                                  27494219.048   144483093.820       -2355.005          30.869    27494231.040                       -1756.135          19.479  
E10                                                                  25853474.712   135860845.277        2671.936          27.616    25853478.609   101454592.824        1995.130          26.151  
E25                                                                                                                                  28467843.022   111713948.514        -369.023          21.553  
E26                                                                  27835473.403   146276380.340       -2318.131          27.795    27835482.097   109232436.477       -1731.028          28.090  
E33                                                                                                                                  23896036.218    93773192.523        -630.786          26.046  
G01  20440761.755   107416931.012       -1169.922          27.576    20440760.256    80213947.848        -873.659          34.036  
G03  20239808.172   106360892.184         231.096          28.897    20239801.577    79425328.016         172.568          33.460  
G04  22130989.535   116299202.184        3373.206          24.766  
G17  21247230.149   111654959.398        1212.267          32.097  
G19  22772645.825   119671071.926        3088.066          29.755  
G21  22305402.191   117215655.723       -1808.549          38.554  
G22  23286799.784   122372988.574       -2128.883          29.080  
G31  24015186.932   126200650.605        1872.021          38.165  
G32  25473012.001   133861576.621       -3072.687          27.160  
R07  19682425.640                        2162.136          21.670  
R21  20024000.473   107152388.648       -1964.353          31.868  
R23  23603683.110                        4491.589          23.872  
> 2022  9 17 10  5 31.0004868  0 24
C06  39038711.263   203284812.254          12.830          28.382  
C09  39133003.186   203775836.828         600.942          26.611  
C20  22347837.814                        2238.710          18.934  
C27  25825035.200   134477704.477       -3101.390          30.919  
C29  22598432.231   117675931.824        1811.621          29.264  
C30  22112477.350   115145464.0941      -1531.285          25.312  
C32  22180739.494                        -901.200          23.403  
E07                                                                  27494726.597   144485763.711       -2354.803          30.776  
E10                                                                  25853027.721   135858488.305        2672.059          27.265    25853032.518   101452832.701        1995.413          26.536  
E25                                                                                                                                  28467998.615   111714552.912        -369.110          21.769  
E26                                                                  27835974.356   146279013.320       -2317.894          27.472    27835983.050   109234402.674       -1730.908          28.471  
E33                                                                                                                                  23896258.664    93774058.639        -630.825          26.060  
G01  20441046.558   107418416.102       -1170.005          27.854    20441042.661    80215056.832        -873.697          33.681  
G03  20239824.361   106360976.156         231.114          29.398    20239816.866    79425390.730         172.575          33.475  
G04  22130399.243   116296144.219        3373.047          24.463  
G17  21247061.365   111654062.488        1211.997          32.073  
G19  22772119.690   119668299.133        3087.879          29.926  
G21  22305802.115   117217779.285       -1808.476          38.510  
G22  23287266.261   122375432.574       -2128.914          29.234  
G31  24014892.536   126199093.914        1871.774          38.202  
G32  25473658.653   133864964.219       -3072.509          26.535  
R07  19682094.969                        2160.391          21.514  
R21  20024430.375   107154674.176       -1964.675          32.122  
R23  23602894.356                        4494.109          23.944  
> 2022  9 17 10  5 32.0004870  0 24
C06  39038769.722   203285111.367          13.106          28.575  
C09  39132947.124   203775547.871         601.174          26.508  
C20  22347460.675                        2241.519          19.371  
C27  25825690.546   134481117.738       -3101.045          30.910  
C29  22598148.927   117674432.398        1811.643          29.615  
C30  22112828.407                       -1531.777          24.604  
C32  22180970.634                        -900.596          23.010  
E07                                                                  27495233.246   144488433.313       -2354.519          30.738  
E10                                                                  25852578.632   135856130.930        2672.458          27.081    25852582.829   101451072.346        1995.646          26.296  
E25                                                                                                                                  28468155.706   111715157.375        -369.173          21.640  
E26                                                                  27836473.810   146281645.926       -2317.522          27.270    27836485.502   109236368.578       -1730.613          28.033  
E33                                                                                                                                  23896478.112    93774924.482        -630.554          25.428  
G01  20441329.262   107419901.184       -1169.998          27.493    20441325.665    80216165.875        -873.750          33.658  
G03  20239841.449   106361060.219         231.021          29.560    20239834.254    79425453.451         172.570          33.512  
G04  22129816.747   116293086.094        3373.211          24.749  
G17  21246890.184   111653165.684        1211.884          32.369  
G19  22771590.556   119665526.336        3087.882          29.805  
G21  22306208.633   117219902.664       -1808.298          38.613  
G22  23287730.040   122377876.543       -2128.889          28.972  
G31  24014595.442   126197537.211        1871.786          38.116  
G32  25474306.205   133868351.441       -3072.141          26.646  
R07  19681762.499                        2161.730          21.125  
R21  20024851.884   107156959.852       -1964.827          32.344  
R23  23602134.382                        4491.317          24.017  
> 2022  9 17 10  5 33.0004872  0 23
C06  39038827.582   203285410.156          13.428          28.717  
C09  39132891.663   203775258.156         601.933          26.270  
C20  22347088.632                        2240.421          19.142  
C27  25826344.993   134484530.742       -3100.784          30.845  
C29  22597859.328   117672933.008        1811.611          29.691  
C30  22113180.664                       -1532.263          24.560  
C32  22181214.964   115503393.8751       -898.092          24.171  
E07                                                                  27495741.994   144491102.699       -2354.302          30.806    27495750.688                       -1758.000          19.798  
E10                                                                  25852127.445   135853773.270        2672.746          27.416    25852133.141   101449311.721        1995.914          26.645  
E25                                                                                                                                  28468305.602   111715761.668        -369.002          21.868  
E26                                                                  27836974.763   146284278.266       -2317.256          27.488    27836984.956   109238334.291       -1730.423          28.418  
E33                                                                                                                                  23896698.760    93775790.311        -630.538          25.409  
G01  20441609.868   107421386.316       -1170.046          27.270    20441607.170    80217274.873        -873.710          33.820  
G03  20239856.439   106361144.246         231.058          29.327    20239850.143    79425516.205         172.535          33.458  
G04  22129236.049   116290027.828        3373.351          25.147  
G19  22771062.322   119662753.516        3087.904          29.677  
G21  22306613.952   117222025.816       -1808.065          38.743  
G22  23288194.418   122380320.516       -2128.886          29.206  
G31  24014299.846   126195980.641        1871.658          38.371  
G32  25474945.362   133871738.477       -3071.951          26.857  
R07  19681415.040                        2161.983          20.441  
R21  20025284.784   107159245.777       -1965.078          32.692  
R23  23601352.823                        4491.801          23.921  
> 2022  9 17 10  5 34.0004874  0 24
C06  39038883.343   203285709.023          13.352          28.435  
C09  39132836.201   203774968.836         601.540          26.726  
C20  22346712.693                        2245.205          19.430  
C27  25827000.340   134487943.668       -3100.706          30.952  
C29  22597570.028   117671433.906        1811.318          29.591  
C30  22113537.117   115150994.9341      -1531.602          24.760  
C32  22181447.903                        -899.065          24.076  
E07                                                                  27496250.442   144493772.008       -2354.225          30.882    27496259.735                       -1758.431          18.977  
E10                                                                  25851679.255   135851415.477        2672.875          27.392    25851685.551   101447551.035        1995.976          25.980  
E25                                                                                                                                  28468458.796   111716366.336        -369.377          21.910  
E26                                                                  27837476.316   146286910.559       -2317.210          26.983    27837485.610   109240299.990       -1730.409          28.203  
E33                                                                                                                                  23896920.606    93776656.330        -630.730          26.412  
G01  20441890.773   107422871.727       -1170.328          27.009    20441890.773    80218384.109        -873.946          33.881  
G03  20239870.829   106361228.520         230.808          29.313    20239866.032    79425579.160         172.337          33.381  
G04  22128661.047   116286969.836        3373.072          25.240  
G17  21246554.117   111651372.8481       1211.262          32.256  
G19  22770532.888   119659981.074        3087.523          29.811  
G21  22307017.473   117224149.145       -1808.245          38.676  
G22  23288660.896   122382764.574       -2128.977          29.140  
G31  24014003.951   126194424.391        1871.330          38.448  
G32  25475597.111   133875125.512       -3071.954          26.804  
R07  19681042.098                        2163.695          19.975  
R21  20025707.791   107161532.203       -1965.574          32.688  
R23  23600549.679                        4494.263          24.451  
> 2022  9 17 10  5 35.0004876  0 23
C06  39038940.004   203286007.238          14.008          28.416  
C09  39132778.941   203774679.027         602.032          26.454  
C27  25827656.585   134491355.883       -3099.995          30.787  
C29  22597281.028   117669934.484        1811.646          29.316  
C30  22113894.469   115152838.391       -1531.234          24.642  
C32  22181681.741   115505816.0551       -898.405          24.300  
E07                                                                  27496758.590   144496440.785       -2353.690          30.461    27496771.181                       -1756.675          19.506  
E10                                                                  25851233.463   135849057.070        2673.490          26.912    25851235.262   101445789.930        1996.396          25.945  
E25                                                                                                                                  28468615.588   111716970.631        -369.007          21.534  
E26                                                                  27837977.869   146289542.207       -2316.562          26.839    27837985.963   109242265.195       -1729.916          28.195  
E33                                                                                                                                  23897140.354    93777521.926        -630.305          26.218  
G01  20442174.077   107424356.793       -1169.982          27.148    20442173.178    80219493.105        -873.707          34.209  
G03  20239884.919   106361312.480         231.127          28.942    20239880.722    79425641.855         172.594          33.251  
G04  22128080.649                        3374.092          25.443  
G17  21246381.736   111650476.469        1211.463          31.625  
G19  22770006.153   119657208.363        3087.797          29.756  
G21  22307419.495   117226271.965       -1807.734          38.608  
G22  23289128.272   122385208.395       -2128.731          29.384  
G31  24013709.555   126192867.930        1871.550          38.499  
G32  25476241.365   133878511.844       -3071.247          26.930  
R07  19680714.725                        2159.466          19.831  
R21  20026136.794   107163818.488       -1965.438          32.821  
R23  23599766.921                        4497.139          23.545  
> 2022  9 17 10  5 36.0004878  0 23
C06  39038998.464   203286303.648          15.807          28.405  
C09  39132721.381   203774387.324         603.923          26.911  
C27  25828310.433   134494766.211       -3098.107          30.431  
C29  22596993.527   117668433.473        1813.233          29.359  
C30  22114242.528   115154680.285       -1529.676          24.506  
C32  22181911.682                        -899.146          24.490  
E07                                                                  27497265.839   144499107.633       -2351.768          30.733    27497279.030                       -1757.473          19.222  
E10                                                                  25850781.676   135846696.727        2675.427          27.305    25850785.873   101444027.258        1997.962          25.972  
E25                                                                                                                                  28468769.981   111717573.699        -367.776          21.294  
E26                                                                  27838479.722   146292171.914       -2314.625          26.812    27838488.715   109244228.953       -1728.467          28.432  
E33                                                                                                                                  23897362.500    93778386.193        -628.976          25.493  
G01  20442456.782   107425840.234       -1168.358          27.001    20442455.283    80220600.910        -872.513          34.212  
G03  20239900.508   106361394.832         232.729          28.901    20239898.110    79425703.400         173.747          33.025  
G04  22127499.351   116280851.3711       3375.188          25.166  
G17  21246209.955   111649578.574        1212.979          31.840  
G19  22769480.017   119654434.063        3089.384          29.732  
G21  22307823.915   117228392.953       -1805.907          38.727  
G22  23289593.850   122387650.488       -2127.016          29.283  
G31  24013413.360   126191309.938        1873.072          38.685  
G32  25476882.022   133881896.348       -3069.419          27.200  
R07  19680351.076                        2161.102          20.568  
R21  20026569.095   107166103.363       -1964.022          32.989  
R23  23599007.247                        4496.396          23.700  
> 2022  9 17 10  5 37.0004880  0 23
C06  39039055.125   203286597.965          17.904          28.466  
C09  39132664.720   203774093.668         605.872          26.935  
C27  25828966.978   134498174.520       -3096.089          30.298  
C29  22596703.628   117666930.781        1814.907          29.379  
C30  22114604.078                       -1527.110          25.237  
C32  22182146.420                        -890.645          24.772  
E07                                                                  27497771.889   144501772.484       -2349.764          30.553    27497781.782                       -1753.027          20.137  
E10                                                                  25850334.386   135844334.258        2677.556          26.673    25850337.983   101442263.092        1999.456          25.896  
E25                                                                                                                                  28468922.575   111718175.570        -366.582          21.002  
E26                                                                  27838978.876   146294799.676       -2312.675          26.796    27838989.369   109246191.184       -1726.941          28.351  
E33                                                                                                                                  23897581.349    93779249.063        -627.580          26.142  
G01  20442736.788   107427322.066       -1166.745          26.576    20442737.687    80221707.410        -871.211          33.825  
G03  20239916.098   106361475.477         234.442          29.139    20239911.601    79425763.586         175.103          33.363  
G04  22126916.854   116277789.578        3376.878          24.594  
G17  21246036.375   111648679.242        1214.417          32.155  
G19  22768949.684   119651658.031        3091.119          29.399  
G21  22308228.035   117230512.098       -1804.057          38.719  
G22  23290057.629   122390090.801       -2125.223          29.556  
G31  24013117.465   126189750.324        1874.701          38.783  
G32  25477525.976   133885278.867       -3067.436          26.704  
R07  19680005.116                        2167.462          22.408  
R21  20026998.098   107168386.734       -1962.519          33.295  
R23  23598225.089                        4499.852          23.978  
> 2022  9 17 10  5 38.0004882  0 23
C06  39039111.485   203286890.453          19.729          28.381  
C09  39132608.659   203773797.949         607.937          26.897  
C27  25829622.325   134501580.730       -3093.992          30.509  
C29  22596412.829   117665426.363        1816.639          29.478  
C30  22114955.735   115158358.9531      -1526.296          24.983  
C32  22182376.061   115509437.6051       -893.185          24.568  
E07                                                                  27498280.337   144504435.293       -2347.730          30.545    27498291.429                       -1755.277          19.715  
E10                                                                  25849883.498   135841969.695        2679.644          26.675    25849887.995   101440497.381        2001.002          25.627  
E25                                                                                                                                  28469076.069   111718776.027        -365.166          21.464  
E26                                                                  27839480.429   146297425.320       -2310.562          26.160    27839487.924   109248151.814       -1725.341          28.377  
E33                                                                                                                                  23897800.197    93780110.498        -626.144          26.480  
G01  20443019.492   107428802.141       -1164.993          26.179    20443018.593    80222812.596        -869.895          33.976  
G03  20239933.785   106361554.379         236.177          29.324    20239928.089    79425822.492         176.384          33.275  
G04  22126328.961   116274725.848        3378.812          24.253  
G17  21245863.695   111647778.148        1216.174          31.999  
G19  22768420.850   119648880.332        3092.779          29.512  
G21  22308629.757   117232629.297       -1802.117          38.667  
G22  23290522.607   122392529.199       -2123.318          29.287  
G31  24012820.370   126188188.977        1876.429          38.770  
G32  25478165.733   133888659.324       -3065.375          26.742  
R07  19679672.646                        2167.795          22.064  
R21  20027410.912   107170668.504       -1960.922          34.013  
R23  23597463.016                        4502.361          23.510  
> 2022  9 17 10  5 39.0004884  0 24
C06  39039166.947   203287181.234          21.443          28.170  
C09  39132552.598   203773500.762         609.412          26.392  
C20  22344863.873                        2251.808          19.467  
C27  25830272.874   134504985.168       -3092.217          30.488  
C29  22596128.026   117663920.578        1818.005          29.304  
C30  22115310.689                       -1524.162          24.109  
C32  22182607.800   115510641.598        -891.771          24.550  
E07                                                                  27498786.386   144507096.535       -2346.154          30.653    27498799.577                       -1749.384          19.320  
E10                                                                  25849434.409   135839603.441        2681.341          26.944    25849435.908   101438730.377        2002.292          25.906  
E25                                                                                                                                  28469230.162   111719375.609        -364.294          21.339  
E26                                                                  27839978.984                       -2308.162          26.373    27839987.977   109250111.287       -1724.183          28.585  
E33                                                                                                                                  23898018.146    93780970.793        -625.006          26.024  
G01  20443298.299   107430280.727       -1163.501          25.414    20443300.697    80223916.859        -868.974          34.188  
G03  20239948.775   106361631.844         237.621          29.525    20239941.880    79425880.367         177.414          33.316  
G04  22125741.968                        3381.117          23.836  
G17  21245693.413   111646875.965        1217.272          31.584  
G19  22767891.417   119646101.316        3094.103          29.529  
G21  22309032.678   117234744.949       -1800.568          38.566  
G22  23290986.985                       -2121.405          29.355  
G31  24012522.077   126186626.383        1877.680          38.610  
G32  25478811.186   133892038.098       -3063.687          26.463  
R07  19679352.768                        2164.137          23.033  
R21  20027845.011   107172949.074       -1959.719          34.228  
R23  23596660.172                        4504.315          23.816  
> 2022  9 17 10  5 40.0004886  0 22
C06  39039224.507   203287470.496          22.957          28.137  
C09  39132492.939   203773201.957         611.024          26.943  
C27  25830927.621   134508388.043       -3090.655          30.931  
C29  22595835.429   117662413.648        1819.151          29.492  
C30  22115660.847   115162032.1641      -1523.828          24.792  
C32  22182839.840                        -892.982          24.541  
E07                                                                  27499292.436   144509756.230       -2344.614          30.690    27499305.627                       -1742.289          19.658  
E10                                                                  25848984.121   135837235.715        2682.806          27.435    25848985.919   101436962.244        2003.424          25.947  
E25                                                                                                                                  28469381.857   111719974.229        -363.327          21.615  
E26                                                                  27840475.440   146302671.6451      -2307.369          26.537    27840487.132   109252069.613       -1723.035          28.796  
E33                                                                                                                                  23898239.693    93781830.230        -624.147          26.559  
G01  20443575.307   107431758.195       -1162.388          24.837    20443582.203    80225020.172        -868.022          33.923  
G03  20239961.666   106361708.141         238.788          29.375    20239956.869    79425937.316         178.342          33.157  
G04  22125158.571                        3381.024          24.037  
G19  22767361.384   119643321.121        3095.277          29.343  
G21  22309436.199   117236859.211       -1799.181          38.752  
G22  23291450.464   122397402.1331      -2120.711          29.309  
G31  24012224.983   126185062.617        1878.847          38.640  
G32  25479458.738   133895415.402       -3062.224          26.478  
R07  19678987.321                        2166.423          23.776  
R21  20028267.719   107175228.625       -1958.703          34.285  
R23  23595883.410                        4505.644          24.324  
> 2022  9 17 10  5 41.0004888  0 23
C06  39039278.470   203287760.391          22.325          28.178  
C09  39132436.878   203772903.832         610.343          26.872  
C27  25831584.466   134511791.523       -3091.263          31.153  
C29  22595546.729   117660907.535        1818.330          29.399  
C30  22116014.602   115163868.945       -1524.566          24.941  
C32  22183070.680                        -892.145          24.719  
E07                                                                  27499797.886   144512416.551       -2345.233          30.779    27499810.178                       -1752.002          19.649  
E10                                                                  25848532.034   135834868.402        2682.399          26.847    25848535.032   101435194.420        2003.114          26.424  
E25                                                                                                                                  28469531.453   111720573.277        -363.759          20.631  
E26                                                                  27840974.295   146305294.574       -2307.844          26.987    27840987.186   109254028.299       -1723.397          29.162  
E33                                                                                                                                  23898458.242    93782690.057        -624.536          26.222  
G01  20443845.420   107433236.652       -1163.368          24.747    20443862.508    80226124.098        -868.636          34.056  
G03  20239978.754   106361785.305         237.919          29.179    20239972.159    79425994.932         177.675          33.350  
G04  22124576.374   116265528.8631       3380.615          24.227  
G17  21245348.951   111645070.3871       1217.366          31.675  
G19  22766833.449   119640541.836        3094.372          29.520  
G21  22309838.820   117238974.137       -1799.837          38.744  
G22  23291914.843   122399838.828       -2121.609          29.310  
G31  24011924.591   126183499.859        1877.845          38.538  
G32  25480095.197                       -3063.287          26.755  
R07  19678648.855                        2165.757          24.304  
R21  20028697.921   107177509.324       -1959.848          34.566  
R23  23595095.555                        4503.562          24.015  
> 2022  9 17 10  5 42.0004890  0 23
C06  39039335.430   203288051.668          20.940          28.174  
C09  39132384.714   203772607.004         609.047          26.841  
C27  25832238.314   134515196.266       -3092.523          31.183  
C29  22595258.928   117659403.090        1816.664          29.198  
C30  22116363.260                       -1527.742          24.124  
C32  22183299.721                        -891.330          24.363  
E07                                                                  27500303.636   144515078.191       -2346.559          30.653    27500318.326   107917129.0661      -1752.387          20.425  
E10                                                                  25848082.645                        2680.496          26.905    25848084.443   101433427.588        2002.124          26.075  
E25                                                                                                                                  28469686.446   111721173.807        -365.238          22.027  
E26                                                                  27841475.847   146307918.832       -2309.175          27.475    27841487.239   109255987.953       -1724.363          29.087  
E33                                                                                                                                  23898678.289    93783550.990        -625.643          26.183  
G01  20444128.724   107434716.570       -1164.837          24.779    20444144.913    80227229.295        -869.906          34.127  
G03  20239990.746   106361864.070         236.319          29.189    20239985.949    79426053.783         176.438          33.321  
G04  22123993.278   116262464.750        3379.195          23.442  
G17  21245177.769   111644169.875        1215.596          31.679  
G19  22766305.515   119637764.238        3092.679          29.682  
G21  22310239.343   117241090.563       -1801.344          38.676  
G22  23292377.123   122402277.086       -2123.172          29.398  
G31  24011629.295   126181938.773        1876.166          38.313  
G32  25480737.353   133902172.4571      -3064.144          26.554  
R07  19678315.486                        2163.511          24.423  
R21  20029127.524   107179791.824       -1961.650          34.497  
R23  23594305.003                        4504.775          24.262  
> 2022  9 17 10  5 43.0004892  0 23
C06  39039391.192   203288344.008          19.878          28.306  
C09  39132327.753   203772311.398         607.824          27.466  
C27  25832891.861   134518602.109       -3093.626          31.120  
C29  22594971.127   117657900.082        1815.227          29.261  
C30  22116718.514                       -1530.389          23.970  
C32  22183532.960                        -896.778          23.934  
E07                                                                  27500809.686   144517741.012       -2347.734          30.526    27500825.275   107919117.402       -1753.047          20.017  
E10                                                                  25847631.457   135830137.4961       2679.990          27.195    25847636.254   101431661.809        2001.068          26.833  
E25                                                                                                                                  28469839.940   111721775.322        -366.228          22.284  
E26                                                                  27841975.901   146310544.313       -2310.397          27.213    27841987.593   109257948.461       -1725.218          29.265  
E33                                                                                                                                  23898895.939    93784413.102        -626.822          26.273  
G01  20444420.722   107436197.996       -1166.340          25.735    20444426.118    80228335.604        -871.020          34.197  
G03  20240003.937                         234.326          27.744    20240001.838    79426113.684         175.388          33.294  
G04  22123409.282                        3376.376          22.992  
G17  21245006.888   111643270.992        1213.967          31.729  
G19  22765776.681   119634988.121        3091.203          29.902  
G21  22310641.964   117243208.254       -1802.606          38.482  
G22  23292842.401   122404716.586       -2124.417          29.407  
G31  24011330.102   126180379.230        1874.628          38.178  
G32  25481381.307   133905552.832       -3065.292          26.421  
R07  19677970.724                        2162.274          23.721  
R21  20029546.334   107182076.125       -1963.451          34.230  
R23  23593526.442                        4502.300          23.062  
> 2022  9 17 10  5 44.0004894  0 23
C06  39039449.951   203288637.383          18.848          28.419  
C09  39132272.292   203772016.699         606.921          26.668  
C27  25833545.109   134522008.797       -3094.463          31.333  
C29  22594682.427   117656398.309        1813.998          29.170  
C30  22117068.072   115169388.3871      -1528.814          23.779  
C32  22183760.502                        -896.956          24.567  
E07                                                                  27501315.136   144520404.777       -2348.686          30.481    27501330.725                       -1747.502          19.883  
E10                                                                  25847183.567   135827773.559        2679.020          26.975    25847185.366   101429896.352        2000.749          26.423  
E25                                                                                                                                  28469994.033   111722377.840        -367.227          21.024  
E26                                                                  27842477.754   146313170.602       -2311.206          27.378    27842485.548   109259909.713       -1725.961          29.524  
E33                                                                                                                                  23899118.085    93785275.857        -627.465          26.640  
G01  20444700.428                       -1167.946          25.637    20444707.623    80229442.797        -871.902          34.122  
G03  20240018.327                         233.401          27.193    20240016.828    79426174.521         174.454          33.211  
G04  22122827.086                        3376.886          22.618  
G17  21244836.606   111642373.430        1212.645          31.444  
G19  22765248.446   119632213.254        3089.950          29.783  
G21  22311044.885   117245326.980       -1803.647          38.282  
G22  23293306.180   122407157.441       -2125.771          29.466  
G31  24011031.809   126178820.961        1873.352          37.896  
G32  25482026.760   133908934.121       -3066.207          26.427  
R07  19677616.070                        2159.193          24.192  
R21  20029980.433   107184361.770       -1964.794          34.578  
R23  23592758.673                        4499.294          24.027  
> 2022  9 17 10  5 45.0004896  0 24
C06  39039504.513   203288931.465          18.136          28.443  
C09  39132211.734   203771722.813         606.106          26.610  
C20  22342648.706                        2246.572          17.823  
C27  25834198.057   134525416.152       -3095.137          31.775  
C29  22594391.928   117654897.586        1812.940          29.324  
C30  22117426.324   115171230.594       -1529.990          23.198  
C32  22183992.841                        -896.554          23.994  
E07                                                                  27501822.684   144523069.289       -2349.426          30.372    27501837.974                       -1754.732          21.238  
E10                                                                  25846732.080   135825410.184        2678.459          27.102    25846735.377                        1999.733          26.288  
E25                                                                                                                                  28470146.927   111722980.928        -367.799          21.091  
E26                                                                  27842977.508   146315797.570       -2311.883          27.407    27842987.701   109261871.426       -1726.425          29.593  
E33                                                                                                                                  23899337.233    93786139.277        -628.130          26.991  
G01  20444986.730   107439164.3751      -1168.638          26.247    20444990.028    80230550.746        -872.661          34.051  
G03  20240036.614   106362108.6881        232.570          27.554    20240033.317    79426236.084         173.726          33.370  
G04  22122242.790                        3372.940          21.687  
G17  21244664.225   111641477.145        1211.371          31.700  
G19  22764722.011   119629439.477        3088.861          29.621  
G21  22311448.406   117247446.578       -1804.509          38.253  
G22  23293769.359   122409599.117       -2126.593          29.229  
G31  24010737.712   126177263.813        1872.234          37.998  
G32  25482673.412   133912316.207       -3066.997          26.356  
R07  19677277.304                        2159.706          24.931  
R21  20030412.134   107186648.762       -1966.143          34.487  
R23  23591954.330                        4500.937          24.406  
