     3.03           OBSERVATION DATA    M: Mixed            RINEX VERSION / TYPE
Geo++ RINEX Logger  Geo++               20220917 220830 UTC PGM / RUN BY / DATE
************************************************************COMMENT
This file was generated by the Geo++ RINEX Logger App       COMMENT
for Android devices (Version 2.1.6). If you encounter       COMMENT
any issues, please send an email to android@geopp.de        COMMENT
Filtering Mode: BEST                                        COMMENT
************************************************************COMMENT
Geo++                                                       MARKER NAME
GEODETIC                                                    MARKER TYPE
Geo++               Geo++                                   OBSERVER / AGENCY
unknown             Xiaomi              MI 8                REC # / TYPE / VERS
unknown             MI 8                                    ANT # / TYPE
  4410316.8534   193653.1727  4588682.9424                  APPROX POSITION XYZ
        0.0000        0.0000        0.0000                  ANTENNA: DELTA H/E/N
G    8 C1C L1C D1C S1C C5Q L5Q D5Q S5Q                      SYS / # / OBS TYPES
R    4 C1C L1C D1C S1C                                      SYS / # / OBS TYPES
E   12 C1B L1B D1B S1B C1C L1C D1C S1C C5Q L5Q D5Q S5Q      SYS / # / OBS TYPES
C    4 C2I L2I D2I S2I                                      SYS / # / OBS TYPES
J    8 C1C L1C D1C S1C C5Q L5Q D5Q S5Q                      SYS / # / OBS TYPES
  2022     9    17    22     8   48.9998048     GPS         TIME OF FIRST OBS
 24 R01  1 R02 -4 R03  5 R04  6 R05  1 R06 -4 R07  5 R08  6 GLONASS SLOT / FRQ #
    R09 -2 R10 -5 R11  0 R12 -1 R13 -2 R14 -7 R15  0 R16 -1 GLONASS SLOT / FRQ #
    R17  4 R18 -3 R19  3 R20  2 R21  4 R22 -3 R23  3 R24  2 GLONASS SLOT / FRQ #
G L1C                                                       SYS / PHASE SHIFT
G L5Q -0.25000                                              SYS / PHASE SHIFT
R L1C                                                       SYS / PHASE SHIFT
E L1B                                                       SYS / PHASE SHIFT
E L1C +0.50000                                              SYS / PHASE SHIFT
E L5Q -0.25000                                              SYS / PHASE SHIFT
C L2I                                                       SYS / PHASE SHIFT
J L1C                                                       SYS / PHASE SHIFT
J L5Q -0.25000                                              SYS / PHASE SHIFT
 C1C    0.000 C1P    0.000 C2C    0.000 C2P    0.000        GLONASS COD/PHS/BIS
                                                            END OF HEADER
> 2022  9 17 22  8 48.9998048  2  0
> 2022  9 17 22  8 48.9998048  0 26
C13  41727037.473                        2449.668          26.485  
C14  24683467.191                       -2190.489          18.784  
C24  22446875.751                        1818.703          31.308  
C26  21871879.513   113892615.3381       -599.455          28.617  
C29  24900117.907                       -1687.000          30.395  
C33  24830060.307   129296639.5721      -1067.004          29.403  
E02                                                                                                                                  26014315.464                        1791.560          21.640  
E03                                                                  24651580.666                        -810.101          28.995    24651582.764    96738105.5761       -603.627          21.941  
E08                                                                                                                                  26381698.830   103527452.3911       1408.336          22.678  
E10                                                                                                                                  26767448.981   105041218.3571       1915.878          30.737  
E24                                                                                                                                  25290897.076    99246912.1111      -1220.320          28.428  
E25                                                                  23580042.376   123913958.8711        643.719          37.220    23580047.173    92533169.7271        480.707          30.154  
G06  23818593.231   125167551.4211       1571.430          33.322    23818591.132    93469266.6951       1173.195          26.993  
G11  24543060.293   128974652.2001       2901.717          26.433  
G12  20136779.997   105819492.9801       -263.575          36.242  
G19  23534398.075   123674096.2211      -2744.977          28.452  
G22  23770279.578   124913662.0101       2994.820          26.094  
G24  21205257.406   111434379.2831      -2067.597          27.986    21205261.003    83213998.7051      -1545.291          32.102  
G25  20677898.189   108663088.1321       2095.499          29.153    20677899.688                        1568.367          26.611  
G29  24407965.417                        4144.264          24.554  
G32  22055393.869                        1459.367          24.434    22055389.671    86550085.4631       1089.541          28.372  
R14  20551297.033   109549976.9731      -1693.318          29.640  
R15  19808732.400                        1370.059          31.406  
R17  21936702.737                        4286.448          25.012  
R23  22604900.553                       -2399.461          18.883  
R24  20828976.799                         973.288          31.954  
> 2022  9 17 22  8 49.9998050  0 26
C13  41726622.261                        2453.905          21.431  
C14  24683959.151                       -2187.583          18.852  
C24  22446583.154                        1819.026          35.412  
C26  21872056.690                        -601.595          26.258  
C29  24900498.943                       -1693.071          27.778  
C33  24830325.323                       -1067.818          25.183  
E02                                                                                                                                  26013917.640                        1799.872          24.973  
E03                                                                  24651784.225   129546056.1731       -810.509          28.600  
E08                                                                                                                                  26381400.836                        1406.331          26.750  
E10                                                                                                                                  26767019.378                        1916.047          28.188  
E24                                                                                                                                  25291268.219    99248368.543       -1221.142          25.939  
E25                                                                  23579979.420                         636.693          33.413    23579986.615                         478.737          30.341  
G11  24542576.128                        2901.346          24.683  
G12  20136894.818                        -265.151          36.448  
G19  23534984.469                       -2749.488          28.141  
G22  23769767.233   124910983.898        2993.196          27.731  
G24  21205710.392                       -2069.550          26.526    21205717.287    83215780.056       -1546.062          33.185  
G25  20677557.325                        2095.802          30.107    20677560.323                        1562.083          36.984  
G29  24407237.521                        4142.787          21.192  
G32  22055176.219                        1458.242          32.984  
R05  21115176.667                       -2197.718          27.671  
R14  20551678.369                       -1694.359          31.978  
R15  19808537.235                        1367.955          32.419  
R17  21935970.344                        4283.663          28.338  
R23  22605394.611                       -2404.098          28.237  
R24  20828841.893                         967.213          32.488  
> 2022  9 17 22  8 50.9998052  0 26
C13  41726209.446                        2452.874          17.971  
C14  24684424.728                       -2185.534          15.364  
C24  22446296.852                        1816.717          31.728  
C26  21872232.369   113894439.2941       -600.504          29.524  
C29  24900883.877   129665453.3891      -1689.996          28.959  
C33  24830593.938                       -1071.275          22.783  
E02                                                                                                                                  26013516.517                        1775.314          19.728  
E03                                                                  24651998.277   129547181.669        -810.413          28.982  
E08                                                                                                                                  26381103.442   103525109.7651       1406.371          28.193  
E10                                                                                                                                  26766590.375   105037861.4461       1915.722          28.168  
E24                                                                                                                                  25291637.264    99249824.487       -1220.654          25.827  
E25                                                                                                                                  23579928.155    92532681.1861        479.951          25.417  
G11  24542077.273                        2901.486          21.887  
G12  20136997.946   105820650.7401       -264.822          36.703  
G19  23535574.161                       -2749.982          24.088  
G22  23769250.690                        2992.509          28.772  
G24  21206169.674                       -2070.259          24.241    21206169.974    83217561.506       -1546.160          30.936  
G25  20677211.664                        2096.455          25.550    20677221.557    81141861.3681       1563.599          33.411  
G29  24406508.426                        4146.735          17.980  
G32  22054957.671   115899592.5681       1456.782          31.225    22054953.174                        1086.617          24.437  
R05  21115645.543   112875240.7811      -2200.293          28.489  
R14  20552047.414   109554005.3071      -1694.358          32.801  
R15  19808333.076   105849767.9831       1367.315          30.105  
R17  21935240.649                        4289.801          25.240  
R23  22605911.753   120926424.4041      -2405.339          28.628  
R24  20828725.873   111380596.2431        971.072          29.122  
> 2022  9 17 22  8 51.9998053  0 26
C13  41725775.047                        2453.092          15.351  
C14  24684866.922                       -2180.111          15.523  
C24  22445974.875   116882094.7251       1817.456          28.993  
C26  21872378.068   113895194.913        -599.509          31.193  
C29  24901237.932   129667298.589       -1689.090          29.539  
C33  24830830.174                       -1067.607          22.092  
E03                                                                  24652183.249   129548148.661        -809.450          29.381    24652187.146    96740508.6791       -604.402          24.716  
E08                                                                                                                                  26380774.870   103523820.249        1407.161          29.068  
E10                                                                                                                                  26766132.292   105036062.777        1916.314          29.180  
E24                                                                                                                                  25291978.128    99251161.911       -1219.779          27.155  
E25                                                                  23579831.023                         644.264          24.746    23579836.119    92532317.717         481.113          21.992  
G06  23817846.748                        1566.930          21.091  
G11  24541563.729                        2894.559          18.323  
G12  20137080.989   105821072.158        -263.876          37.178  
G19  23536126.079                       -2746.948          21.922  
G22  23768716.160   124905471.3621       2993.352          28.782  
G24  21206595.380                       -2071.506          22.583    21206595.380    83219224.410       -1545.259          29.710  
G25  20676850.115                        2097.305          22.921    20676853.712    81140414.709        1564.304          31.433  
G29  24405752.949                        4145.346          15.055  
G32  22054711.841   115898292.625        1457.485          30.740    22054706.145                        1088.915          22.224  
R05  21116098.529   112877600.644       -2199.607          29.236  
R14  20552397.571   109555858.248       -1693.135          32.754  
R15  19808111.530   105848559.759        1368.425          30.068  
R17  21934462.687                        4292.108          24.450  
R23  22606375.832   120928989.455       -2404.682          28.143  
R24  20828561.887   111379785.241         971.314          27.847  
> 2022  9 17 22  8 52.9998055  0 25
C14  24685332.800                       -2168.160          12.637  
C24  22445683.477   116880587.332        1819.613          27.627  
C26  21872553.446   113896104.574        -597.441          29.961  
C29  24901623.165   129669298.042       -1687.234          29.471  
C33  24831087.995                       -1062.080          20.063  
E03                                                                  24652396.701   129549271.387        -807.641          29.359    24652402.997                        -602.492          23.367  
E08                                                                                                                                  26380475.377   103522646.944        1408.595          28.674  
E10                                                                                                                                  26765705.688   105034380.090        1917.977          29.062  
E24                                                                                                                                  25292348.372    99252615.220       -1218.019          26.019  
E25                                                                  23579771.364                         647.569          21.816    23579775.861                         481.614          19.010  
G06  23817609.912                        1569.505          20.377  
G11  24541064.874                        2902.972          20.611  
G12  20137191.912   105821649.259        -262.017          36.668  
G19  23536704.379                       -2743.514          20.055  
G22  23768202.616   124902791.096        2995.351          29.685  
G24  21207056.460                       -2069.730          22.470    21207048.366                       -1538.535          28.841  
G25  20676508.051                        2096.896          23.380    20676515.246    81139084.248        1565.751          31.490  
G29  24405014.560                        4142.995          14.397  
G32  22054495.091   115897148.485        1459.225          30.057    22054490.594                        1090.706          22.156  
R05  21116573.101   112880119.139       -2197.982          29.448  
R14  20552776.209   109557869.033       -1691.172          33.261  
R15  19807923.260   105847509.759        1370.399          29.433  
R17  21933720.102                        4294.628          22.496  
R23  22606889.676   120931713.244       -2403.052          28.523  
R24  20828446.766   111379133.019         972.847          28.335  
> 2022  9 17 22  8 53.9998057  0 25
C14  24685791.482                       -2169.226          13.020  
C24  22445398.074   116879077.467        1822.084          26.763  
C26  21872729.724   113897011.860        -595.067          29.056  
C29  24902005.700   129671295.338       -1685.076          29.613  
C33  24831354.511                       -1060.752          20.828  
E03                                                                  24652609.853   129550391.804        -805.333          29.648    24652614.350                        -600.472          23.196  
E08                                                                                                                                  26380176.784   103521471.933        1410.301          28.238  
E10                                                                                                                                  26765275.485   105032695.659        1919.721          28.786  
E24                                                                                                                                  25292717.416    99254066.611       -1216.101          25.779  
E25                                                                  23579703.311                         649.812          20.525  
G06  23817367.679                        1572.463          19.485  
G11  24540581.609                        2910.469          22.306  
G12  20137299.238   105822224.091        -259.748          36.343  
G19  23537288.674                       -2738.016          19.435  
G22  23767690.870   124900108.469        2997.711          30.596  
G24  21207513.644                       -2062.199          22.096    21207501.952    83222780.0321      -1542.146          28.572  
G25  20676161.491                        2098.358          22.912    20676174.682    81137752.094        1567.444          31.932  
G29  24404271.674                        4141.967          11.604  
G32  22054276.242   115896002.336        1461.232          29.835    22054269.947                        1091.990          22.045  
R05  21117039.578   112882635.524       -2195.873          30.180  
R14  20553153.948   109559877.361       -1688.715          33.129  
R15  19807718.802   105846457.409        1372.750          29.787  
R17  21932999.400                        4292.267          22.143  
R23  22607408.017   120934434.846       -2400.864          28.528  
R24  20828326.550   111378478.914         974.730          28.738  
> 2022  9 17 22  8 54.9998059  0 23
C13  41724542.001                        2464.510          16.185  
C24  22445110.573                        1825.855          27.137  
C26  21872901.805   113897916.746        -592.666          28.659  
C29  24902388.835   129673290.329       -1682.772          29.116  
C33  24831619.228                       -1060.146          20.177  
E03                                                                  24652821.507   129551510.086        -803.198          28.954    24652826.004                        -599.685          22.864  
E08                                                                                                                                  26379877.291   103520295.177        1412.046          28.291  
E10                                                                                                                                  26764845.283   105031009.423        1921.525          28.128  
E24                                                                                                                                  25293088.259    99255516.124       -1214.223          25.667  
G06  23817121.250                        1577.720          19.121    23817119.152                        1177.894          22.305  
G11  24540072.861                        2907.454          22.029  
G12  20137410.161   105822796.719        -257.544          36.235  
G19  23537871.471                       -2737.010          20.810  
G22  23767183.321   124897423.506        3000.046          29.981  
G24  21207950.741                       -2061.132          20.911    21207952.840    83224555.737       -1540.416          28.439  
G25  20675816.730                        2102.639          22.954    20675835.317    81136418.162        1569.222          31.824  
G32  22054059.492   115894853.525        1463.896          29.999    22054052.297                        1093.824          22.407  
R05  21117517.147   112885149.964       -2193.928          30.017  
R14  20553530.187   109561883.261       -1686.288          33.416  
R15  19807518.840   105845402.607        1375.202          29.501  
R17  21932237.628                        4296.465          21.245  
R23  22607910.469   120937154.523       -2398.939          28.535  
R24  20828198.538   111377822.972         976.567          28.683  
> 2022  9 17 22  8 55.9998060  0 24
C13  41724093.811                        2471.150          14.757  
C14  24686721.139                       -2173.780          14.302  
C24  22444785.898   116875894.4581       1826.936          28.099  
C26  21873044.506   113898663.180        -590.324          28.444  
C29  24902740.192   129675127.037       -1680.598          28.770  
C33  24831859.661                       -1059.994          21.175  
E03                                                                  24653005.280   129552468.436        -800.809          28.413    24653010.376                        -598.026          22.445  
E08                                                                                                                                  26379545.721   103518999.075        1413.747          28.806  
E10                                                                                                                                  26764385.701   105029203.711        1923.357          27.862  
E24                                                                                                                                  25293425.526    99256845.979       -1212.210          25.305  
G06  23816848.739                        1582.206          20.942    23816848.139                        1178.039          22.095  
G11  24539556.618                        2910.613          21.365  
G12  20137488.707   105823209.567        -255.306          36.291  
G19  23538419.791                       -2736.881          22.034  
G22  23766639.198   124894578.653        3002.395          30.011  
G24  21208360.258                       -2057.867          21.113    21208377.046    83226212.038       -1538.655          28.828  
G25  20675465.673                        2104.988          22.356    20675464.174    81134964.934        1570.873          31.405  
G32  22053807.367   115893545.651        1465.416          29.780    22053801.371    86543873.1131       1094.329          21.402  
R05  21117953.045   112887502.085       -2191.865          29.693  
R14  20553884.242   109563726.890       -1683.823          32.853  
R15  19807304.788   105844185.167        1377.639          29.423  
R17  21931456.369                        4303.242          22.229  
R23  22608388.338   120939711.757       -2396.865          28.865  
R24  20828047.743                         979.624          28.086  
> 2022  9 17 22  8 56.9998062  0 24
C13  41723672.902                        2469.667          15.356  
C24  22444498.997   116874376.984        1829.694          28.499  
C26  21873220.185   113899562.437        -587.037          29.440  
C29  24903123.926   129677117.304       -1678.048          28.766  
C33  24832127.376                       -1054.916          19.804  
E03                                                                  24653217.233   129553581.766        -798.246          28.632    24653220.231                        -595.530          23.300  
E08                                                                                                                                  26379245.628   103517818.655        1415.710          28.849  
E10                                                                                                                                  26763954.600   105027513.726        1925.276          28.142  
E24                                                                                                                                  25293794.271    99258291.305       -1210.036          25.275  
E25                                                                  23579489.559                         658.298          22.247  
G06  23816615.200                        1583.711          19.836    23816606.207    93461515.1181       1180.344          20.500  
G11  24539054.766                        2911.429          21.090  
G12  20137595.133   105823777.341        -252.691          36.582  
G19  23538997.791                       -2733.614          22.479  
G22  23766126.553   124891888.674        3005.064          29.667  
G24  21208819.840                       -2056.759          21.735    21208827.035    83227984.056       -1536.729          28.753  
G25  20675118.513                        2108.050          22.696    20675124.209    81133627.336        1572.888          31.278  
G32  22053586.420   115892392.868        1467.867          30.663    22053582.523                        1096.942          21.861  
R05  21118425.818   112890012.095       -2189.497          29.820  
R14  20554251.188   109565727.441       -1680.939          33.168  
R15  19807094.934   105843125.226        1380.341          29.106  
R17  21930752.456                        4304.287          22.293  
R23  22608900.084   120942426.954       -2394.459          28.593  
R24  20827923.029   111376344.9721        980.530          28.990  
> 2022  9 17 22  8 57.9998064  0 24
C13  41723265.185                        2475.101          17.638  
C24  22444205.200   116872856.695        1832.509          27.757  
C26  21873391.966   113900459.372        -584.715          29.766  
C29  24903506.161   129679104.783       -1675.259          28.305  
C33  24832383.099                       -1052.361          21.820  
E03                                                                  24653427.088                        -793.880          28.451    24653430.685                        -593.699          22.781  
E08                                                                                                                                  26378944.337   103516636.138        1417.807          29.239  
E10                                                                                                                                  26763523.498   105025821.366        1927.649          28.696  
E24                                                                                                                                  25294163.315    99259734.376       -1207.781          27.025  
E25                                                                  23579419.408                         660.495          23.041  
G06  23816367.872                        1579.277          17.417    23816364.274                        1189.131          18.315  
G11  24538558.310                        2919.274          22.193  
G12  20137708.754   105824342.449        -250.023          36.606  
G19  23539572.793                       -2727.086          22.334  
G22  23765619.304   124889195.921        3007.837          29.971  
G24  21209272.826                       -2058.040          22.365    21209276.723    83229754.013       -1534.666          29.460  
G25  20674779.448                        2105.109          21.975    20674783.345    81132287.633        1574.993          31.502  
G32  22053367.571   115891237.591        1470.361          30.598    22053366.372                        1099.236          21.235  
R05  21118888.398   112892519.631       -2187.023          29.810  
R14  20554621.731   109567725.205       -1678.151          32.852  
R15  19806893.473   105842062.397        1383.229          29.168  
R17  21929971.497                        4309.424          23.898  
R23  22609401.337   120945139.685       -2391.994          28.591  
R24  20827801.313   111375682.679         982.917          29.393  
> 2022  9 17 22  8 58.9998066  0 24
C13  41722851.471                        2478.767          18.053  
C24  22443909.005   116871333.028        1835.886          27.013  
C26  21873560.749   113901353.256        -581.664          30.972  
C29  24903884.200   129681089.503       -1672.501          27.869  
C33  24832640.621                       -1048.799          22.919  
E03                                                                  24653637.242   129555800.2071       -792.722          28.471    24653639.940    96746222.4961       -591.731          20.985  
E08                                                                                                                                  26378642.446   103515451.418        1420.010          29.633  
E10                                                                                                                                  26763091.497   105024126.952        1929.704          28.757  
E24                                                                                                                                  25294529.961    99261174.992       -1205.325          28.832  
E25                                                                  23579356.151   123910296.9471        662.266          23.068  
G06  23816127.138                        1586.917          16.669    23816122.641                        1190.052          17.445  
G11  24538063.352                        2922.462          22.464  
G12  20137810.984   105824904.640        -247.108          36.857  
G19  23540157.388                       -2727.021          24.312  
G22  23765103.361   124886500.106        3010.899          30.624  
G24  21209725.213   111457851.0331      -2052.117          23.606    21209727.611    83231521.624       -1532.322          29.948  
G25  20674438.584                        2110.064          22.464    20674440.683    81130945.834        1577.089          32.034  
G32  22053144.526   115890079.487        1473.188          31.233    22053142.727                        1109.155          18.216  
R05  21119353.676   112895024.492       -2184.349          29.174  
R14  20554988.378   109569719.823       -1675.006          32.495  
R15  19806698.308   105840996.572        1386.225          27.633  
R17  21929229.510   117347661.9721       4307.327          25.813  
R23  22609914.582                       -2388.166          28.554  
R24  20827673.302   111375017.862         985.443          31.191  
> 2022  9 17 22  8 59.9998068  0 24
C13  41722441.655                        2480.054          16.047  
C24  22443617.607                        1837.707          26.564  
C26  21873734.329   113902245.919        -580.444          29.811  
C29  24904267.334   129683072.923       -1671.201          28.792  
C33  24832903.239                       -1046.527          21.883  
E03                                                                  24653849.195   129556906.791        -791.500          28.250    24653854.592                        -590.412          21.759  
E08                                                                                                                                  26378339.955   103514265.744        1420.965          28.941  
E10                                                                                                                                  26762659.197   105022431.347        1930.895          28.344  
E24                                                                                                                                  25294897.507    99262614.474       -1204.193          26.917  
E25                                                                  23579285.700                         663.566          21.853    23579288.998                         499.709          18.232  
G06  23815883.107                        1594.386          15.702    23815879.210                        1186.743          17.275  
G11  24537571.992                        2931.953          19.522  
G12  20137918.009   105825465.712        -245.988          36.549  
G19  23540726.994                       -2727.914          22.949  
G22  23764592.215   124883803.084        3012.106          30.104  
G24  21210179.698                       -2048.452          22.580    21210179.998    83233288.479       -1531.564          29.217  
G25  20674100.418                        2116.003          23.385    20674097.720    81129603.042        1578.082          31.252  
G32  22052925.977   115888920.385        1474.186          30.133    22052921.780                        1102.679          21.996  
R05  21119824.949   112897528.332       -2183.327          29.375  
R14  20555383.504   109571712.960       -1673.524          33.351  
R15  19806499.246   105839929.329        1387.643          28.640  
R17  21928484.826                        4310.218          23.805  
R23  22610417.034   120950558.8111      -2388.400          28.902  
R24  20827550.387   111374352.404         986.082          28.887  
> 2022  9 17 22  9  0.9998070  0 24
C13  41722027.641                        2474.424          15.128  
C24  22443331.005                        1836.354          24.704  
C26  21873904.611   113903138.553        -580.414          28.161  
C29  24904648.670   129685056.790       -1671.647          28.227  
C33  24833165.257                       -1051.861          20.950  
E03                                                                  24654060.849   129558013.672        -791.797          28.183  
E08                                                                                                                                  26378039.863   103513080.412        1420.622          28.515  
E10                                                                                                                                  26762225.996   105020736.027        1930.610          27.816  
E24                                                                                                                                  25295262.354    99264053.947       -1204.182          25.396  
E25                                                                  23579220.645                         663.490          20.168    23579216.148                         500.671          20.827  
G06  23815636.978                        1588.095          12.267  
G11  24537081.232                        2936.282          16.097  
G12  20138022.337   105826027.013        -246.217          36.182  
G19  23541309.790                       -2725.839          22.897  
G22  23764076.872   124881106.244        3011.924          30.004  
G24  21210621.292   111462582.6441      -2050.600          23.139    21210630.586    83235055.277       -1531.508          28.997  
G25  20673757.456   108641322.2441       2113.455          25.013    20673756.856    81128260.452        1577.880          31.708  
G32  22052704.430   115887761.888        1473.581          29.570    22052703.531    86539554.1201       1100.434          24.325  
R05  21120281.833   112900032.908       -2184.064          29.885  
R14  20555754.947   109573706.421       -1673.848          33.830  
R15  19806293.888   105838862.331        1387.399          28.932  
R17  21927714.059                        4309.985          23.840  
R23  22610922.784   120953268.430       -2388.882          29.318  
R24  20827421.776   111373687.537         985.492          27.107  
> 2022  9 17 22  9  1.9998071  0 23
C13  41721567.460                        2471.746          15.297  
C24  22443006.630                        1835.909          25.473  
C26  21874045.813   113903875.689        -581.027          31.161  
C29  24905000.027   129686885.085       -1672.185          29.899  
C33  24833401.194                       -1048.986          21.928  
E03                                                                  24654237.726                        -792.516          27.044  
E08                                                                                                                                  26377706.494   103511777.790        1420.267          29.886  
E10                                                                                                                                  26761765.515   105018923.189        1930.483          29.502  
E24                                                                                                                                  25295598.721    99265375.942       -1204.350          26.429  
E25                                                                  23579121.714                         684.592          17.707    23579120.215                         500.811          19.201  
G06  23815365.665                        1586.004          13.534  
G12  20138100.283   105826431.513        -246.958          37.520  
G19  23541863.207                       -2728.932          25.060  
G22  23763535.447   124878252.357        3011.428          30.037  
G24  21211043.700                       -2058.159          19.433    21211049.696    83236704.979       -1532.057          29.839  
G25  20673376.419                        2111.692          25.219    20673385.113    81126800.668        1577.429          32.535  
G32  22052453.504   115886446.543        1472.887          29.116  
R05  21120738.717   112902378.058       -2184.894          29.274  
R14  20556086.517   109575540.529       -1674.302          34.605  
R15  19806076.239   105837635.649        1386.881          29.937  
R17  21926960.681                        4306.930          21.558  
R23  22611400.653   120955818.562       -2389.763          29.095  
R24  20827276.377   111372863.634         984.216          29.793  
> 2022  9 17 22  9  2.9998073  0 23
C13  41721178.029                        2477.613          15.165  
C24  22442713.433   116865078.7191       1836.309          27.875  
C26  21874217.894   113904769.207        -581.298          29.122  
C29  24905380.764   129688870.149       -1672.845          29.571  
C33  24833654.219                       -1052.626          20.375  
E03                                                                  24654450.579   129560071.7191       -793.040          27.198    24654455.376                        -592.144          24.050  
E08                                                                                                                                  26377406.102   103510593.205        1419.875          30.350  
E10                                                                                                                                  26761334.114   105017228.498        1929.981          31.096  
E24                                                                                                                                  25295966.567    99266815.812       -1204.580          25.780  
E25                                                                  23579055.759                         686.211          19.140  
G11  24536047.548                        2916.380          22.734  
G12  20138207.609   105826994.086        -247.489          37.430  
G19  23542441.207   123716360.2991      -2728.596          27.468  
G22  23763020.703   124875556.540        3010.902          29.790  
G24  21211493.688                       -2057.071          22.731    21211500.584    83238472.723       -1532.454          27.898  
G25  20673035.255   108637571.1121       2111.839          27.129    20673042.451    81125458.951        1577.007          35.361  
G32  22052231.358   115885289.504        1472.123          28.695    22052237.054                        1092.286          19.255  
R05  21121199.798   112904884.375       -2185.804          28.279  
R14  20556463.656   109577534.789       -1674.648          34.113  
R15  19805871.181   105836569.691        1386.359          31.230  
R17  21926201.307                        4307.800          23.178  
R23  22611915.996   120958529.926       -2390.626          28.460  
R24  20827151.063   111372201.064         983.194          31.593  
> 2022  9 17 22  9  3.9998075  0 24
C13  41720754.423                        2479.463          20.400  
C24  22442420.536   116863554.634        1836.306          28.214  
C26  21874383.679   113905662.920        -581.494          27.998  
C29  24905763.599   129690855.407       -1673.038          29.888  
C33  24833924.332                       -1052.497          20.859  
E02                                                                                                                                  26008224.281                        1808.954          19.784  
E03                                                                  24654662.233   129561179.998        -793.195          26.526    24654665.530                        -592.029          23.536  
E08                                                                                                                                  26377103.611   103509408.739        1419.756          30.592  
E10                                                                                                                                  26760901.813   105015533.821        1929.967          32.085  
E24                                                                                                                                  25296333.813    99268255.589       -1204.487          26.127  
E25                                                                  23578985.308                         680.779          19.888  
G11  24535557.987   128935203.3371       2920.883          23.529  
G12  20138314.635   105827556.957        -247.787          38.182  
G19  23543020.706   123719404.120       -2728.737          28.475  
G22  23762509.557   124872860.876        3010.747          30.270  
G24  21211946.975   111469526.6211      -2052.271          24.312    21211949.973    83240240.627       -1532.614          28.379  
G25  20672694.691   108635774.535        2111.662          26.435    20672700.687    81124117.390        1576.851          34.396  
G32  22052012.210   115884133.001        1471.587          28.929  
R05  21121665.375   112907391.183       -2186.296          28.034  
R14  20556838.996   109579529.155       -1674.753          34.674  
R15  19805678.414   105835503.874        1386.216          31.402  
R17  21925454.823                        4311.310          23.564  
R23  22612413.952   120961241.733       -2391.070          27.344  
R24  20827017.056   111371539.160         982.530          31.436  
> 2022  9 17 22  9  4.9998077  0 25
C13  41720337.411                        2477.200          19.685  
C24  22442124.341   116862031.004        1835.849          28.886  
C26  21874555.161   113906557.031        -581.891          28.208  
C29  24906144.035   129692841.287       -1673.660          30.042  
C33  24834185.751                       -1051.002          20.944  
E02                                                                                                                                  26007825.257                        1805.615          19.181  
E03                                                                  24654874.186   129562289.093        -794.011          26.947    24654876.284    96751068.2721       -592.960          23.478  
E08                                                                                                                                  26376801.720   103508224.663        1419.366          31.142  
E10                                                                                                                                  26760469.812   105013839.495        1929.616          32.466  
E24                                                                                                                                  25296700.459    99269695.586       -1204.707          26.914  
E25                                                                  23578927.448                         673.141          20.757  
G06  23814641.367                        1583.016          22.949  
G11  24535060.931                        2920.641          23.612  
G12  20138425.558   105828120.481        -248.439          37.839  
G19  23543600.205   123722448.613       -2729.409          28.637  
G22  23761996.612   124870165.763        3010.197          30.506  
G24  21212403.259   111471894.664       -2052.959          25.860    21212402.659    83242008.981       -1533.064          28.192  
G25  20672356.525   108633978.576        2111.042          27.288    20672359.224    81122776.250        1576.430          34.547  
G32  22051792.462   115882977.188        1470.897          29.261  
R05  21122136.649   112909898.922       -2187.227          27.433  
R14  20557213.137   109581524.027       -1675.259          35.251  
R15  19805474.555   105834438.622        1385.652          31.314  
R17  21924718.233                        4308.250          24.584  
R23  22612910.708   120963954.525       -2392.054          26.496  
R24  20826895.041   111370878.484         981.301          31.365  
> 2022  9 17 22  9  5.9998079  0 25
C13  41719916.803                        2475.091          18.074  
C24  22441832.942   116860508.205        1835.018          27.769  
C26  21874728.141   113907451.962        -582.711          28.417  
C29  24906524.472   129694828.267       -1674.760          29.883  
C33  24834453.466                       -1053.545          21.075  
E02                                                                                                                                  26007420.837                        1808.636          20.576  
E03                                                                  24655085.839   129563399.139        -794.962          27.507    24655089.737                        -594.193          22.497  
E08                                                                                                                                  26376501.628   103507041.407        1418.546          31.570  
E10                                                                                                                                  26760037.811   105012145.882        1928.903          32.008  
E24                                                                                                                                  25297067.704    99271136.147       -1205.271          26.881  
E25                                                                  23578861.794                         664.638          19.504    23578862.993                         492.285          19.082  
G06  23814403.032                        1582.078          23.589  
G11  24534561.177                        2918.443          23.735  
G12  20138531.984   105828685.064        -249.499          38.117  
G19  23544180.603   123725494.088       -2730.390          28.855  
G22  23761482.768   124867471.681        3009.166          30.074  
G24  21212849.650   111474263.606       -2053.858          25.414    21212851.748    83243777.947       -1533.675          28.639  
G25  20672010.565   108632183.545        2110.115          26.767    20672017.460    81121435.833        1575.708          34.847  
G32  22051576.012   115881822.713        1469.559          28.721  
R05  21122610.321   112912408.054       -2188.619          27.109  
R14  20557596.572   109583519.750       -1676.110          35.238  
R15  19805266.200   105833374.333        1384.689          31.816  
R17  21923962.457                        4303.691          22.880  
R23  22613412.860   120966668.628       -2393.365          25.445  
R24  20826783.818   111370219.263         979.846          31.775  
> 2022  9 17 22  9  6.9998081  0 24
C13  41719494.995                        2479.757          19.520  
C24  22441540.944   116858986.710        1833.715          27.898  
C26  21874901.421   113908348.432        -584.251          28.954  
C29  24906908.806   129696816.763       -1676.277          29.644  
C33  24834710.987                       -1058.202          21.031  
E02                                                                                                                                  26007018.816                        1810.638          21.045  
E03                                                                  24655298.092                        -797.238          27.985    24655300.491    96752727.1171       -594.673          22.459  
E08                                                                                                                                  26376197.938   103505859.195        1417.502          31.056  
E10                                                                                                                                  26759607.010   105010453.263        1927.909          31.580  
E24                                                                                                                                  25297434.950    99272577.530       -1206.093          24.920  
G06  23814163.198                        1580.031          24.990  
G11  24534073.414                        2917.138          26.837  
G12  20138638.711   105829251.188        -251.040          37.951  
G19  23544757.404   123728540.923       -2731.751          28.644  
G22  23760969.523   124864778.902        3007.863          29.920  
G24  21213304.135   111476633.465       -2054.775          26.649    21213302.936    83245548.111       -1534.874          29.370  
G25  20671664.904   108630389.645        2108.984          26.970    20671675.996    81120096.568        1574.555          34.312  
G32  22051355.065   115880669.867        1467.930          28.005  
R05  21123067.804   112914918.915       -2190.349          27.361  
R14  20557965.916   109585516.855       -1677.493          34.144  
R15  19805068.336   105832311.496        1383.237          30.387  
R17  21923188.093                        4302.812          24.145  
R23  22613933.600   120969384.450       -2395.085          25.857  
R24  20826661.502   111369561.936         977.952          30.871  
> 2022  9 17 22  9  7.9998083  0 24
C13  41719080.681                        2474.955          21.062  
C24  22441248.647   116857466.796        1832.134          27.558  
C26  21875073.502   113909246.572        -585.921          29.753  
C29  24907289.542   129698807.120       -1678.138          28.999  
C33  24834975.404                       -1059.443          20.528  
E02                                                                                                                                  26006618.293                        1807.426          20.945  
E03                                                                  24655508.846   129565624.1951       -798.460          28.328    24655512.144                        -596.869          22.696  
E08                                                                                                                                  26375898.146   103504678.382        1416.103          30.940  
E10                                                                                                                                  26759175.308   105008761.894        1926.659          31.977  
E24                                                                                                                                  25297806.393    99274020.201       -1207.381          23.812  
G06  23813921.865   125143002.1631       1579.141          25.791  
G11  24533583.554   128924788.3341       2916.796          27.366  
G12  20138746.036   105829819.205        -252.933          37.757  
G19  23545339.001   123731589.718       -2733.711          28.520  
G22  23760457.777   124862087.992        3005.995          30.120  
G24  21213754.423   111479005.750       -2057.200          27.727    21213755.623    83247319.595       -1536.195          30.168  
G25  20671324.640   108628597.986        2106.743          28.343    20671334.233    81118758.638        1573.220          34.081  
G32  22051135.017   115879519.110        1465.841          28.034  
R05  21123541.776                       -2193.440          27.802  
R14  20558341.856   109587515.720       -1679.253          33.423  
R15  19804877.069   105831250.407        1381.489          30.305  
R17  21922473.987                        4303.853          24.678  
R23  22614435.452   120972102.508       -2397.321          26.037  
R24  20826536.189   111368907.054         975.507          30.545  
> 2022  9 17 22 20  9.9999181  0 24
C10  41175062.597                        -599.563          17.294  
C24  22254725.574   115886200.019        1647.947          36.006  
C26  21998394.928   114551385.991        -806.568          31.438  
C29  25175665.849                       -1994.741          21.223  
E02                                                                  25743437.689   135282678.4961       2308.053          32.045    25743444.584                        1723.411          25.767  
E03                                                                  24811517.844   130385460.450       -1123.299          25.021    24811525.338    97365753.7181       -838.674          27.546  
E08                                                                                                                                  26190872.536   102778590.437        1187.780          27.123  
E10                                                                                                                                  26483858.206                        1747.551          18.969  
E24                                                                  25542422.049   134226333.3461      -1713.095          27.819    25542425.347   100233962.522       -1279.331          26.292  
G02  24887302.979                        3283.866          19.209  
G06  23675450.127   124415351.265        1167.296          24.944    23675459.720    92907544.5941        871.569          26.221  
G12  20226363.980                        -583.983          25.466  
G19  23941899.668                       -2995.503          17.710  
G22  23434271.591                        2720.589          21.377  
G24                                                                  21525298.146    84469892.880       -1742.514          25.142  
G25  20459758.104   107516774.260        1804.377          26.816    20459760.802    80288499.783        1347.023          31.523  
G29  23911567.566   125656134.7391       4045.395          24.407  
G32  21929777.231   115241777.857        1010.752          27.815  
R05  21460388.282                       -2672.797          23.707  
R14  20815465.753   110958130.465       -1899.622          32.385  
R15  19685037.732                        1112.102          20.549  
R17  21443432.321   114748137.6551       3992.920          30.047  
R23  22975754.616                       -2869.930          22.153  
R24  20780190.673   111121191.585         334.028          29.294  
> 2022  9 17 22 20 10.9999183  0 22
C10  41175231.980                        -594.095          14.944  
C24  22254473.748   115884863.932        1648.307          34.268  
C26  21998612.278   114552504.403        -806.193          29.421  
C29  25176117.936   131098633.1281      -1991.093          24.612  
E02                                                                  25743058.152   135280685.090        2308.490          31.736    25743065.047                        1724.961          25.673  
E03                                                                  24811793.653   130386898.446       -1122.912          24.768    24811796.651    97366827.606        -838.598          24.817  
E08                                                                                                                                  26190629.405   102777637.715        1188.012          28.407  
E24                                                                  25542807.282                       -1711.207          27.103    25542810.280   100235476.624       -1278.812          25.453  
G02  24886743.266                        3285.592          16.465  
G06  23675292.136   124414499.009        1167.340          26.145    23675294.235    92906908.175         871.709          24.927  
G12  20226526.167   106291155.7621       -582.122          26.390  
G19  23942526.534                       -2999.728          19.183  
G22  23433808.412                        2721.828          20.033  
G25  20459476.299   107515285.126        1804.218          28.132    20459474.501    80287387.751        1347.322          30.254  
G29  23910864.253   125652404.019        4045.804          24.230  
G32  21929645.023   115241082.112        1010.829          28.670  
R05  21460939.301                       -2674.342          22.777  
R14  20815875.269   110960349.389       -1899.311          34.892  
R15  19684900.727                        1118.394          22.919  
R17  21442761.685   114744465.595        3992.910          28.123  
R23  22976352.102                       -2870.940          21.237  
R24  20780197.569   111121178.568         333.642          32.097  
> 2022  9 17 22 20 11.9999185  0 23
C24  22254212.030   115883524.333        1651.818          33.949  
C26  21998825.730   114553619.279        -802.656          28.656  
C29  25176557.132   131100933.055       -1987.708          25.755  
E02                                                                  25742681.313   135278687.995        2312.179          32.147    25742684.610   101019825.4191       1726.720          25.686  
E03                                                                  24812069.462                       -1118.329          23.470    24812072.460                        -835.040          23.998  
E08                                                                                                                                  26190387.172   102776682.527        1190.479          28.486  
E10                                                                                                                                  26483085.342   103925332.1651       1748.955          22.847  
E24                                                                  25543191.317   134230385.0731      -1708.867          27.187    25543195.214   100236988.163       -1276.249          26.102  
G02  24886173.361                        3285.455          15.864  
G06  23675127.550   124413643.587        1170.506          26.699    23675130.848                         876.807          25.068  
G12  20226699.148   106292049.830        -578.983          25.027  
G19  23943156.698                       -2998.077          19.649  
G22  23433345.532                        2722.903          20.215  
G24  21526296.155   113121449.7621      -2329.571          23.616  
G25  20459191.197   107513792.776        1807.434          29.377    20459192.696    80286273.384        1349.657          30.491  
G29  23910152.246   125648669.521        4049.582          24.438  
G32  21929514.613   115240383.218        1013.978          29.345    21929517.011    86056121.2791        757.294          24.892  
R05  21461499.613                       -2667.058          22.406  
R14  20816295.279   110962564.767       -1895.766          34.809  
R15  19684781.110                        1122.552          22.383  
R17  21442051.776                        3998.135          27.666  
R23  22976970.274                       -2864.243          20.896  
R24  20780199.667   111121162.575         336.619          32.677  
> 2022  9 17 22 20 12.9999186  0 23
C10  41175571.045                        -587.156          15.517  
C24  22253923.329   115882024.325        1656.118          33.397  
C26  21999013.100   114554573.904        -798.516          28.310  
C29  25176970.546   131103072.833       -1983.667          25.614  
E02                                                                  25742269.997   135276528.929        2316.608          31.901    25742273.595   101018213.230        1729.834          25.553  
E03                                                                                                                                  24812313.493                        -831.744          23.576  
E08                                                                                                                                  26190114.661   102775606.546        1193.626          28.060  
E10                                                                                                                                  26482669.829   103923697.565        1752.245          24.161  
E24                                                                  25543547.470   134232247.136       -1704.521          26.660    25543551.068   100238378.601       -1272.793          27.884  
G02  24885561.184                        3287.241          15.360  
G06  23674938.981                        1176.604          26.130    23674940.780    92905509.9921        876.860          25.813  
G19  23943761.079                       -2991.919          21.544  
G22  23432864.066                        2728.806          19.498  
G24  21526771.027                       -2322.236          22.695    21526774.924                       -1736.341          19.280  
G25  20458875.815   107512139.134        1811.185          28.558    20458877.914    80285038.131        1352.899          29.790  
G29  23909407.262   125644773.181        4053.882          23.393  
G32  21929347.329   115239522.886        1017.874          29.109    21929353.025    86055478.860         760.064          26.141  
R05  21462073.116                       -2664.122          20.476  
R14  20816681.411   110964615.885       -1891.312          33.243  
R15  19684613.226                        1128.844          18.428  
R17  21441335.272   114736950.1631       4000.407          27.837  
R23  22977542.878                       -2859.134          22.046  
R24  20780173.285   111120982.462         340.425          31.929  
> 2022  9 17 22 20 13.9999188  0 24
C10  41175721.841                        -585.812          12.139  
C24  22253666.707   115880676.333        1660.212          34.400  
C26  21999222.055   114555680.536        -794.412          29.062  
C29  25177412.740                       -1977.663          25.426  
E02                                                                  25741885.663   135274523.234        2320.779          32.103    25741892.559   101016715.441        1733.079          25.027  
E03                                                                  24812581.207   130391032.6971      -1111.415          18.754    24812584.805    97369915.0261       -830.025          24.460  
E08                                                                                                                                  26189868.531   102774645.413        1196.423          28.479  
E10                                                                                                                                  26482281.598   103922177.697        1755.158          24.194  
E24                                                                  25543933.003   134234262.370       -1700.150          25.897    25543933.303   100239883.557       -1269.666          27.964  
G02  24885003.571                        3288.269          12.747  
G06  23674773.196                        1179.199          25.627    23674777.692    92904865.586         879.696          26.347  
G12  20227005.236                        -567.463          19.042  
G19  23944394.241                       -2986.834          21.080  
G22  23432410.480                        2737.101          19.793  
G24  21527262.087                       -2320.464          23.413    21527277.676                       -1732.552          21.026  
G25  20458593.111   107510638.802        1815.416          27.881    20458592.811    80283917.719        1355.702          30.293  
G29  23908693.156                        4061.586          22.949  
G32  21929212.422   115238816.507        1021.463          30.033    21929219.317    86054951.310         762.840          27.474  
R05  21462596.254                       -2667.056          19.985  
R14  20817087.031   110966822.775       -1887.278          33.138  
R15  19684426.755                        1131.704          16.435  
R17  21440654.444   114733266.566        4004.447          28.371  
R23  22978131.970                       -2855.058          23.412  
R24  20780161.294   111120959.285         343.802          31.577  
> 2022  9 17 22 20 14.9999190  0 23
C24  22253407.686   115879326.673        1661.880          36.340  
C26  21999431.910   114556785.508        -792.753          29.881  
C29  25177850.137   131107654.5361      -1977.632          26.054  
E02                                                                  25741502.828   135272515.596        2322.721          31.933    25741508.225   101015216.338        1734.393          24.935  
E03                                                                  24812845.624                       -1117.947          17.301    24812855.518    97370979.313        -828.997          24.958  
E08                                                                                                                                  26189623.301   102773683.052        1197.651          28.623  
E10                                                                                                                                  26481893.966   103920656.561        1756.426          22.860  
E24                                                                  25544317.637   134236275.733       -1698.279          27.071    25544317.937   100241387.017       -1268.170          27.888  
G02  24884434.864                        3296.075          12.817  
G06  23674609.209                        1180.471          26.095    23674612.507    92904219.864         881.012          26.597  
G12  20227174.019                        -564.707          19.161  
G19  23945017.509                       -2982.009          18.980  
G22  23431940.705                        2739.404          20.081  
G24  21527766.038                       -2319.249          23.302    21527778.629                       -1727.710          19.435  
G25  20458303.511   107509136.659        1817.226          26.745    20458305.610    80282795.938        1357.071          30.534  
G29  23907981.149                        4062.522          22.509  
G32  21929078.115   115238108.661        1022.930          30.369    21929085.310    86054422.799         763.800          27.204  
R05  21463154.767                       -2663.863          22.397  
R14  20817501.943   110969027.933       -1885.545          33.335  
R15  19684278.657                        1132.077          18.624  
R17  21439973.315   114729581.399        4006.017          28.365  
R23  22978710.270                       -2854.799          22.969  
R24  20780154.698   111120934.979         344.931          31.069  
> 2022  9 17 22 20 15.9999192  0 21
C24  22253145.368   115877975.129        1663.763          36.914  
C26  21999643.863   114557889.609        -791.881          29.962  
C29  25178283.637                       -1977.500          24.779  
E02                                                                  25741123.291                        2326.800          30.961    25741128.687   101013715.960        1735.668          26.834  
E03                                                                                                                                  24813129.228                        -827.555          27.015  
E08                                                                                                                                  26189375.073   102772719.583        1198.759          27.244  
E24                                                                  25544701.071   134238288.033       -1697.216          31.684    25544701.671                       -1265.877          27.691  
G06  23674439.527   124410033.4251       1180.765          25.637    23674448.221    92903573.751         881.403          27.174  
G12  20227355.093                        -568.553          26.715  
G19  23945640.178                       -2984.090          25.483  
G22  23431485.020                        2734.318          27.423  
G24  21528277.484                       -2318.725          28.339    21528280.781                       -1732.582          23.880  
G25  20458020.507                        1819.167          24.902  
G29  23907267.043                        4060.101          22.817  
G32  21928944.108                        1024.329          35.710    21928947.106    86053893.038         765.051          27.694  
R05  21463693.794                       -2658.374          23.843  
R14  20817918.055                       -1887.724          31.523  
R15  19684140.753                        1127.029          21.868  
R17  21439286.791                        4004.510          27.178  
R23  22979300.261                       -2854.780          24.588  
R24  20780149.002   111120909.801         345.803          29.628  
> 2022  9 17 22 20 16.9999193  0 21
C24  22252857.867   115876467.380        1663.859          37.998  
C26  21999828.536                        -791.256          28.572  
C29  25178695.852                       -1975.624          25.588  
E02                                                                  25740713.775                        2325.835          33.334    25740714.974   101012097.289        1736.316          25.834  
E03                                                                  24813364.265                       -1108.453          20.902    24813367.563    97372987.8451       -827.932          27.256  
E08                                                                                                                                  26189104.660   102771638.189        1199.040          25.179  
E24                                                                  25545049.730   134240140.668       -1695.093          29.349    25545051.529   100244273.2281      -1265.811          26.828  
G06  23674246.760   124409009.789        1181.178          27.228    23674253.655                         882.170          26.167  
G12  20227490.300   106296139.8941       -567.441          32.609  
G19  23946238.264                       -2989.519          25.754  
G22  23430998.158                        2729.674          27.475  
G24  21528747.258   113134312.8861      -2317.897          28.057    21528755.053                       -1731.447          24.664  
G25  20457704.826   107505971.8701       1819.122          26.814    20457706.325    80280432.6241       1358.114          32.105  
G29  23906529.254                        4060.756          20.287  
G32  21928781.920                        1025.213          32.810    21928783.419    86053246.150         764.533          29.626  
R05  21464234.620                       -2655.831          23.011  
R14  20818308.985   110973274.0501      -1883.682          31.285  
R15  19683944.689                        1126.955          25.203  
R17  21438556.796                        4006.793          27.105  
R23  22979883.058   122926873.3321      -2854.580          27.795  
R24  20780114.526                         344.124          28.014  
> 2022  9 17 22 20 17.9999195  0 20
C24  22252600.046   115875113.166        1666.434          36.809  
C26  22000038.990   114559937.3831       -788.384          30.333  
C29  25179139.844   131114360.1621      -1973.997          26.782  
E02                                                                  25740330.340   135266325.1831       2327.634          33.038    25740330.940                        1740.004          25.495  
E03                                                                                                                                  24813638.276    97374048.931        -825.796          27.001  
E08                                                                                                                                  26188857.032   102770672.877        1200.601          26.772  
E24                                                                  25545432.865   134242149.217       -1693.465          27.423    25545436.462   100245772.933       -1264.416          27.856  
G06  23674081.574   124408141.812        1183.061          25.442    23674086.371    92902160.9121        883.377          26.829  
G19  23946867.828                       -2987.324          23.118  
G22  23430535.578                        2736.691          25.163  
G24  21529237.119   113136943.563       -2315.593          25.392    21529252.109    84485414.1051      -1729.114          23.828  
G25  20457406.832   107504465.678        1821.277          26.139    20457417.624    80279307.944        1359.970          31.655  
G29  23905812.151                        4064.281          21.115  
G32  21928645.515   115235822.2891       1026.301          31.191    21928649.112    86052715.026         766.414          30.002  
R05  21464791.034                       -2659.829          24.556  
R14  20818715.803   110975474.696       -1881.034          31.527  
R15  19683761.515                        1129.943          22.809  
R17  21437877.466   114718358.3691       4010.026          28.652  
R23  22980468.852                       -2851.203          26.672  
R24  20780118.423   111120697.7471        347.358          28.676  
> 2022  9 17 22 20 18.9999197  0 21
C24  22252338.027   115873754.105        1671.281          35.974  
C26  22000248.245   114561033.136        -783.533          30.430  
C29  25179572.445   131116641.705       -1969.324          26.021  
E02                                                                  25739944.507   135264307.660        2332.607          32.441    25739948.704   101009087.7971       1741.834          25.765  
E03                                                                  24813899.095                       -1099.004          17.547    24813907.489                        -815.455          26.122  
E08                                                                                                                                  26188609.103   102769704.000        1204.167          27.643  
E24                                                                  25545815.100                       -1685.024          26.380    25545815.100   100247268.925       -1260.702          27.501  
G06  23673915.789                        1190.269          25.846    23673920.886    92901509.252         886.950          26.690  
G12  20227826.667                        -557.595          25.013  
G19  23947497.093                       -2980.750          22.577  
G22  23430075.996                        2747.418          22.830  
G24  21529741.970                       -2307.208          25.512    21529750.964                       -1723.428          22.954  
G25  20457123.228   107502954.829        1825.933          26.908    20457129.524    80278179.749        1363.485          31.516  
G29  23905091.450                        4070.952          21.939  
G32  21928509.409   115235106.163        1031.209          30.227    21928511.507    86052180.593         769.723          28.764  
R05  21465351.946                       -2656.344          22.765  
R14  20819132.814   110977670.270       -1875.962          32.367  
R15  19683613.118                        1136.832          23.080  
R17  21437187.944   114714664.473        4014.746          28.629  
R23  22981057.645                       -2844.932          23.880  
R24  20780107.631   111120666.506         351.866          30.700  
> 2022  9 17 22 20 19.9999199  0 21
C24  22252076.908   115872388.464        1677.860          35.775  
C26  22000456.901   114562122.469        -777.114          30.460  
C29  25180012.240                       -1958.571          25.247  
E02                                                                  25739559.574   135262283.407        2339.338          32.184    25739562.272                        1749.500          26.182  
E03                                                                                                                                  24814175.804                        -815.608          25.588  
E08                                                                                                                                  26188361.774   102768730.403        1208.888          28.013  
E24                                                                  25546196.436   134246148.9671      -1681.437          26.189    25546196.136   100248759.831       -1255.616          26.973  
G06  23673748.505                        1197.162          25.533    23673753.901    92900852.942         891.600          26.754  
G12  20227987.656                        -548.765          21.163  
G19  23948125.458                       -2969.922          22.266  
G22  23429617.014                        2752.137          21.263  
G24  21530239.625   113142188.7871      -2304.383          24.897    21530251.617                       -1718.195          22.232  
G25  20456839.025   107501437.554        1832.359          27.128    20456840.224    80277046.723        1368.316          31.411  
G29  23904375.245                        4075.316          21.914  
G32  21928369.406   115234384.245        1037.003          29.818    21928376.901    86051641.549         774.334          28.002  
R05  21465918.254                       -2642.244          21.074  
R14  20819535.136   110979859.320       -1869.437          32.433  
R15  19683477.912                        1148.319          24.045  
R17  21436496.622   114710964.130        4021.192          28.236  
R23  22981659.628                       -2841.103          22.322  
R24  20780103.134                         361.282          30.820  
> 2022  9 17 22 20 20.9999201  0 21
C24  22251812.791   115871015.989        1684.694          35.547  
C26  22000664.657                        -767.355          30.538  
C29  25180449.937                       -1953.289          24.852  
E02                                                                  25739173.141   135260252.134        2346.357          32.622    25739174.940   101006059.3211       1752.121          25.769  
E03                                                                                                                                  24814441.719                        -809.971          25.162  
E08                                                                                                                                  26188112.047   102767751.699        1213.994          28.016  
E24                                                                  25546575.973                       -1671.202          26.328    25546574.475   100250245.508       -1250.387          26.929  
G06  23673578.822   124405505.0061       1200.430          26.192    23673585.118                         897.763          26.675  
G12  20228152.841                        -542.355          19.517  
G19  23948764.016                       -2963.376          20.807  
G22  23429147.838                        2754.953          21.384  
G24  21530739.679                       -2294.284          24.996    21530745.375                       -1713.279          23.021  
G25  20456552.124   107499913.546        1839.092          26.692    20456550.625    80275908.597        1373.416          31.267  
G29  23903655.743                        4086.133          21.507  
G32  21928232.700   115233655.910        1043.419          29.159    21928236.298    86051097.666         779.173          27.680  
R05  21466461.778                       -2635.489          20.784  
R14  20819944.652   110982041.260       -1862.328          32.553  
R15  19683313.925                        1155.886          23.581  
R17  21435797.206   114707256.957        4028.023          28.357  
R23  22982242.425                       -2829.427          21.253  
R24  20780088.144   111120585.7181        364.153          30.709  
> 2022  9 17 22 20 21.9999203  0 21
C24  22251548.074   115869638.303        1689.906          35.883  
C26  22000870.914   114564282.2251       -765.082          30.430  
C29  25180881.339                       -1946.800          24.548  
E02                                                                  25738784.011   135258215.449        2351.768          32.603    25738787.608   101004538.355        1756.256          25.589  
E03                                                                  24814694.445                       -1084.428          15.007    24814707.036    97378249.7451       -809.007          25.407  
E08                                                                                                                                  26187861.421   102766769.167        1217.822          28.041  
E24                                                                  25546949.815   134250122.5421      -1669.021          26.357    25546951.613   100251727.100       -1246.302          27.739  
G06  23673409.140   124404614.699        1205.392          26.899    23673414.536    92899527.0311        900.212          26.648  
G12  20228305.436                        -537.429          19.695  
G19  23949376.492                       -2955.135          21.252  
G22  23428693.653                        2762.292          22.513  
G24  21531240.932                       -2290.487          25.236    21531244.530                       -1710.596          23.076  
G25  20456257.128   107498384.493        1844.136          26.806    20456258.927    80274766.811        1377.076          30.899  
G29  23902944.336                        4095.375          21.262  
G32  21928094.796   115232922.757        1048.237          29.800    21928098.393    86050550.189         782.767          27.375  
R05  21467013.396                       -2629.860          19.226  
R14  20820352.070   110984217.987       -1857.114          32.437  
R15  19683153.836   105180850.9541       1155.227          24.310  
R17  21435102.587   114703544.633        4033.174          28.154  
R23  22982825.521                       -2828.556          21.204  
R24  20780069.857   111120537.456         368.887          30.820  
> 2022  9 17 22 20 22.9999205  0 21
C24  22251280.059   115868257.440        1693.083          36.256  
C26  22001079.869   114565356.423        -761.979          30.592  
C29  25181315.138                       -1947.381          24.734  
E02                                                                  25738395.779   135256175.410        2355.124          32.704    25738402.075   101003015.033        1758.613          25.929  
E03                                                                                                                                  24814972.652                        -805.833          25.470  
E08                                                                                                                                  26187609.895   102765784.392        1220.065          27.786  
E24                                                                  25547329.951   134252103.195       -1665.568          25.561    25547329.652   100253206.247       -1243.857          27.575  
G06  23673245.153   124403721.587        1208.195          27.700    23673246.652    92898860.015         902.306          26.787  
G12  20228470.621                        -535.281          20.915  
G19  23950002.458                       -2952.072          20.702  
G22  23428216.983                        2766.414          21.544  
G24  21531737.388                       -2288.115          24.845    21531738.887    84495173.9581      -1709.505          23.975  
G25  20455966.329                        1848.182          26.782    20455966.929    80273622.602        1379.499          30.639  
G29  23902229.031                        4095.540          21.962  
G32  21927953.893   115232186.725        1051.115          29.206    21927955.692    86050000.523         784.956          27.593  
R05  21467577.006                       -2628.894          19.489  
R14  20820760.388   110986391.419       -1853.819          31.999  
R15  19683015.632   105180012.911        1158.442          25.289  
R17  21434413.964   114699829.219        4036.264          27.705  
R23  22983388.831                       -2827.616          21.849  
R24  20780071.356   111120486.576         371.505          30.894  
> 2022  9 17 22 20 23.9999207  0 21
C24  22251016.542   115866874.870        1694.790          36.356  
C26  22001284.328   114566428.907        -760.264          30.674  
C29  25181749.837   131127968.3431      -1946.700          25.564  
E02                                                                  25738007.248   135254133.626        2356.868          32.337    25738011.745   101001490.336        1759.986          25.782  
E03                                                                                                                                  24815239.167    97380332.1991       -805.479          26.265  
E08                                                                                                                                  26187358.669   102764798.512        1221.170          28.077  
E24                                                                  25547704.992   134254082.083       -1663.804          25.402    25547704.692   100254683.988       -1242.450          27.535  
G06  23673070.075   124402827.008        1209.663          27.721    23673073.672    92898192.071         903.234          26.264  
G12  20228625.914                        -534.361          19.957  
G19  23950615.234                       -2947.490          20.730  
G22  23427760.099                        2763.084          21.716  
G24  21532230.547                       -2286.851          24.887    21532233.245                       -1707.759          24.338  
G25  20455672.533   107495318.6831       1848.771          27.074    20455676.130    80272477.340        1380.553          30.520  
G29  23901512.827                        4097.001          22.014  
G32  21927811.192   115231449.393        1052.416          28.712    21927817.188    86049449.959         785.855          28.193  
R05  21468107.339                       -2638.390          19.814  
R14  20821165.707   110988563.188       -1852.157          31.813  
R15  19682840.253   105179173.343        1159.969          25.718  
R17  21433722.343   114696112.357        4037.712          27.607  
R23  22983963.533                       -2822.862          21.807  
R24  20780058.165   111120434.626         372.575          30.702  
> 2022  9 17 22 20 24.9999209  0 22
C24  22250750.326   115865491.388        1695.702          36.838  
C26  22001492.084   114567500.581        -759.454          31.068  
C29  25182184.836   131130226.603       -1946.040          25.526  
E02                                                                  25737620.816   135252090.765        2357.944          32.524    25737622.015   100999964.779        1760.847          25.548  
E03                                                                  24815489.194                       -1070.730          17.286    24815503.285    97381372.361        -804.872          26.662  
E08                                                                                                                                  26187110.441   102763812.097        1221.705          27.573  
E10                                                                                                                                  26477950.496                        1785.076          18.593  
E24                                                                  25548079.732   134256059.939       -1662.772          25.676    25548080.632   100256160.897       -1241.619          27.596  
G06  23672895.296                        1210.286          27.615    23672903.090    92897523.751         903.610          25.879  
G12  20228782.705                        -536.130          20.004  
G19  23951240.002                       -2956.228          20.655  
G22  23427293.322                        2760.884          20.996  
G24  21532718.909   113155217.7261      -2286.914          24.698    21532727.903    84499060.5151      -1707.663          24.854  
G25  20455382.333   107493784.319        1849.448          27.842    20455383.832    80271331.582        1381.048          30.569  
G29  23900796.923   125599490.4481       4094.914          23.173  
G32  21927672.088   115230711.598        1052.879          28.625    21927675.686    86048898.969         786.280          28.751  
R05  21468637.072                       -2632.277          21.784  
R14  20821574.024   110990734.103       -1851.302          31.947  
R15  19682697.552                        1160.838          25.793  
R17  21433015.732   114692394.812        4038.395          27.666  
R23  22984560.120                       -2824.396          22.331  
R24  20780043.775   111120382.435         372.816          30.492  
> 2022  9 17 22 20 25.9999211  0 21
C24  22250485.609   115864107.368        1696.239          37.265  
C26  22001698.941   114568571.706        -758.906          31.165  
C29  25182618.936                       -1945.451          25.694  
E02                                                                  25737231.685   135250047.230        2358.619          32.623    25737233.184   100998438.847        1761.222          25.061  
E03                                                                  24815754.810                       -1068.443          18.266    24815767.402    97382412.267        -804.616          26.905  
E08                                                                                                                                  26186855.917   102762825.392        1221.994          27.638  
E24                                                                  25548464.366   134258036.989       -1661.966          25.772    25548458.970   100257637.251       -1241.065          27.672  
G06  23672730.410   124401036.2011       1210.388          28.080    23672734.607    92896855.179         903.862          26.004  
G12  20228939.796                        -535.010          20.275  
G19  23951853.377                       -2959.076          19.436  
G22  23426825.346                        2766.691          21.583  
G24  21533219.862   113157819.168       -2286.358          24.587    21533226.757                       -1707.268          25.196  
G25  20455088.237   107492249.535        1849.868          27.631    20455092.434    80270185.478        1381.394          30.410  
G29  23900076.821   125595710.008        4095.525          23.863  
G32  21927532.085   115229973.659        1053.023          28.247    21927534.784    86048347.935         786.324          28.497  
R05  21469215.971                       -2630.149          21.872  
R14  20821984.140   110992904.393       -1850.678          31.912  
R15  19682543.758   105177491.8701       1161.382          26.526  
R17  21432322.912   114688676.967        4038.695          27.256  
R23  22985158.506                       -2825.449          23.562  
R24  20780041.676   111120330.348         372.711          30.657  
> 2022  9 17 22 20 26.9999213  0 21
C24  22250218.194   115862723.136        1696.452          37.217  
C26  22001903.099   114569642.684        -758.758          31.295  
C29  25183047.939   131134742.0741      -1945.541          25.601  
E02                                                                  25736844.953   135248003.374        2358.940          32.619    25736844.653                        1761.672          25.260  
E03                                                                  24816008.135                       -1066.243          17.639    24816033.917    97383452.121        -804.564          26.850  
E08                                                                                                                                  26186605.890   102761838.710        1221.972          26.935  
E24                                                                  25548834.310                       -1661.528          25.435    25548834.610   100259113.413       -1240.871          27.640  
G06  23672561.027   124400141.118        1210.166          28.033    23672564.325    92896186.748         903.721          25.671  
G12  20229113.076                        -535.396          21.888  
G19  23952483.241                       -2951.617          19.394  
G22  23426359.169                        2766.566          20.899  
G24  21533717.817   113160420.544       -2286.292          25.497    21533720.515                       -1707.296          24.970  
G25  20454790.543   107490714.696        1849.923          27.849    20454799.237    80269039.301        1381.467          30.801  
G29  23899349.225                        4096.051          23.838  
G32  21927392.082   115229235.925        1052.819          28.440    21927394.780    86047796.995         786.230          28.900  
R05  21469791.872                       -2629.768          22.510  
R14  20822389.460   110995074.529       -1850.524          31.798  
R15  19682383.669   105176650.887        1161.383          26.292  
R17  21431618.999   114684959.054        4038.763          27.030  
R23  22985759.290                       -2827.203          23.427  
R24  20780022.190   111120278.761         372.212          30.443  
> 2022  9 17 22 20 27.9999215  0 20
C24  22249955.276   115861338.927        1696.428          37.066  
C26  22002108.157   114570713.773        -758.869          31.198  
C29  25183484.736   131137000.021       -1945.728          25.583  
E02                                                                  25736447.128   135245959.438        2359.020          32.131    25736455.223   100995386.2421       1761.606          25.303  
E03                                                                                                                                  24816298.034    97384492.165        -804.754          26.686  
E08                                                                                                                                  26186353.465   102760852.117        1221.883          27.247  
E24                                                                  25549210.849   134261990.3331      -1661.542          25.835    25549209.950   100260589.418       -1240.715          27.432  
G06  23672388.047   124399246.335        1209.867          28.106    23672394.342    92895518.525         903.513          25.164  
G12  20229276.164                        -535.148          22.565  
G22  23425892.092                        2766.474          21.523  
G24  21534210.077   113163022.101       -2286.472          25.257    21534213.674    84504888.5331      -1707.448          25.401  
G25  20454503.942   107489180.046        1849.734          27.780    20454507.239    80267893.305        1381.285          30.373  
G29  23898631.222                        4095.094          23.719  
G32  21927255.677   115228498.607        1052.401          28.399    21927254.178    86047246.387         785.898          28.396  
R05  21470329.700                       -2634.655          21.592  
R14  20822801.375   110997244.730       -1850.589          31.652  
R15  19682212.788                        1160.949          25.965  
R17  21430919.283   114681241.466        4038.438          27.089  
R23  22986363.372                       -2827.608          23.414  
R24  20780027.286   111120227.926         371.460          30.117  
> 2022  9 17 22 20 28.9999217  0 21
C24  22249687.862   115859954.616        1696.531          36.406  
C26  22002315.014   114571784.828        -758.836          30.854  
C29  25183918.236                       -1945.656          25.007  
E02                                                                  25736068.491   135243915.297        2359.225          32.416    25736066.392   100993859.717        1761.816          25.115  
E03                                                                                                                                  24816563.950    97385532.293        -804.838          26.474  
E08                                                                                                                                  26186102.838   102759865.651        1221.756          26.808  
E24                                                                  25549584.691   134263966.629       -1661.212          25.161    25549586.190   100262065.283       -1240.575          27.522  
G06  23672221.062   124398351.853        1209.566          28.169    23672223.161                         903.468          25.379  
G12  20229435.054                        -534.956          20.987  
G19  23953724.382                       -2955.853          21.806  
G22  23425423.817                        2764.629          23.196  
G24  21534705.634   113165623.608       -2286.423          25.309    21534711.030    84506831.211       -1707.387          25.763  
G25  20454213.742   107487645.507        1849.623          27.934    20454215.841    80266747.403        1381.192          30.581  
G29  23897913.819   125584367.3911       4096.215          23.871  
G32  21927109.378   115227761.621        1052.070          28.977    21927113.875    86046696.053         785.624          27.719  
R05  21470874.123                       -2635.011          20.453  
R14  20823208.793   110999414.870       -1850.527          31.516  
R15  19682081.479   105174969.2051       1161.261          26.816  
R17  21430237.855                        4036.739          26.181  
R23  22986968.653                       -2827.406          22.457  
R24  20780011.997   111120177.559         370.993          29.817  
> 2022  9 17 22 20 29.9999219  0 21
C24  22249422.845   115858570.574        1696.262          36.056  
C26  22002520.372   114572856.108        -759.061          30.630  
C29  25184349.038   131141516.5931      -1946.401          24.844  
E02                                                                  25735670.666   135241871.277        2359.104          32.203    25735677.861                        1762.112          24.984  
E03                                                                                                                                  24816828.967                        -805.411          26.038  
E08                                                                                                                                  26185851.013   102758879.480        1221.462          26.738  
E24                                                                  25549964.827                       -1661.246          24.994    25549961.829   100263541.217       -1240.644          27.877  
G06  23672045.384   124397457.983        1208.954          27.899    23672052.579                         902.710          25.806  
G12  20229605.036                        -537.367          20.664  
G19  23954352.147   125880940.9451      -2954.746          23.120  
G22  23424956.140                        2764.364          24.526  
G24  21535198.792                       -2287.204          25.334    21535205.088    84508774.183       -1707.682          26.256  
G25  20453921.145   107486111.350        1849.240          28.607    20453924.443    80265601.801        1380.892          30.454  
G29  23897196.415                        4095.771          23.554  
G32  21926967.876                        1051.286          29.216    21926975.371    86046146.187         785.156          27.622  
R05  21471429.339                       -2628.838          19.731  
R14  20823618.909   111001585.336       -1850.854          31.562  
R15  19681918.092   105174128.648        1160.957          26.666  
R17  21429551.031   114673806.9991       4037.835          26.882  
R23  22987532.862                       -2826.385          22.813  
R24  20779995.808   111120128.226         369.958          29.351  
> 2022  9 17 22 20 30.9999221  0 21
C24  22249155.730   115857186.218        1696.575          36.102  
C26  22002725.430   114573927.158        -758.830          30.930  
C29  25184790.033                       -1945.800          24.992  
E02                                                                  25735285.133   135239826.831        2359.529          31.970    25735288.431                        1762.702          24.080  
E03                                                                                                                                  24817093.983    97387613.0741       -804.989          25.598  
E08                                                                                                                                  26185599.187   102757893.206        1221.564          26.548  
E24                                                                  25550341.367                       -1660.628          24.303    25550337.769   100265016.757       -1240.249          27.774  
G06  23671881.997   124396564.147        1208.920          27.974    23671883.796    92893515.7221        902.671          25.529  
G12  20229757.630                        -534.310          20.946  
G19  23954973.917                       -2954.181          23.448  
G22  23424492.661                        2765.165          24.586  
G24  21535695.248                       -2286.372          25.516    21535701.844    84510717.010       -1707.538          26.407  
G25  20453632.745   107484577.092        1849.343          29.073    20453631.246    80264456.084        1381.007          30.762  
G29  23896476.314   125576805.3651       4096.335          23.751  
G32  21926828.473   115226289.0311       1051.804          29.081    21926834.768    86045596.452         785.025          27.988  
R05  21471951.277                       -2626.121          21.295  
R14  20824014.934   111003755.414       -1850.465          31.938  
R15  19681753.805   105173287.976        1161.073          27.470  
R17  21428866.005   114670089.876        4037.973          26.596  
R23  22988105.766                       -2829.437          22.661  
R24  20779998.207   111120079.198         369.652          29.304  
> 2022  9 17 22 20 31.9999223  0 21
C24  22248891.313   115855801.351        1697.087          35.935  
C26  22002928.090   114574997.765        -758.387          31.002  
C29  25185221.734   131146032.6231      -1945.692          25.026  
E02                                                                  25734896.002   135237781.777        2360.138          32.448    25734899.900   100989279.4691       1762.439          23.466  
E03                                                                                                                                  24817360.199    97388653.231        -804.866          25.870  
E08                                                                                                                                  26185349.760   102756906.744        1221.752          26.754  
E24                                                                  25550718.506   134269894.3691      -1660.178          24.806    25550714.908   100266491.825       -1239.778          27.357  
G06  23671709.616   124395670.184        1209.047          28.131    23671713.514                         902.513          25.544  
G12  20229921.916                        -536.319          19.908  
G19  23955604.980                       -2953.618          22.961  
G22  23424026.184   123094091.4221       2764.566          23.797  
G24  21536194.103   113173428.5241      -2286.260          24.995    21536194.703    84512659.531       -1707.231          26.756  
G25  20453339.248   107483042.522        1849.654          28.964    20453338.948    80263310.094        1381.280          30.571  
G29  23895756.812   125573023.526        4096.923          24.173  
G32  21926693.266   115225552.704        1051.411          28.675    21926694.165    86045046.538         785.205          27.350  
R05  21472519.984                       -2627.147          20.092  
R14  20824421.753   111005925.172       -1850.145          31.666  
R15  19681588.920   105172446.909        1161.466          26.936  
R17  21428164.490   114666372.424        4038.302          25.949  
R23  22988708.049                       -2830.439          21.179  
R24  20779989.812   111120030.418         369.405          29.442  
> 2022  9 17 22 20 32.9999225  0 21
C24  22248624.198   115854416.218        1697.352          36.166  
C26  22003133.448   114576068.135        -758.151          30.564  
C29  25185651.936   131148290.435       -1945.592          25.237  
E02                                                                  25734506.572   135235736.287        2360.575          31.941    25734509.570                        1763.278          23.920  
E03                                                                  24817596.735                       -1078.268          18.791    24817624.616    97389693.080        -804.559          26.271  
E08                                                                                                                                  26185099.433   102755920.127        1221.907          26.726  
E24                                                                  25551092.647   134271869.309       -1659.856          25.207    25551090.248   100267966.585       -1239.470          27.041  
G06  23671539.934   124394776.212        1209.057          27.888    23671543.531    92892180.4631        902.876          25.806  
G12  20230070.314                        -537.800          20.180  
G19  23956227.649                       -2954.996          22.978  
G22  23423559.707                        2765.133          24.233  
G24  21536691.159                       -2285.767          25.044    21536689.960    84514601.949       -1707.128          27.169  
G25  20453047.550   107481507.738        1849.868          28.067    20453047.850    80262163.960        1381.424          30.824  
G29  23895033.712   125569241.301        4097.308          24.793  
G32  21926549.666   115224816.446        1051.343          28.878    21926553.563    86044496.693         785.135          27.351  
R05  21473054.214                       -2630.759          19.264  
R14  20824837.565   111008094.583       -1849.799          31.298  
R15  19681436.925   105171605.544        1161.766          26.454  
R17  21427461.777   114662655.050        4038.224          26.253  
R23  22989289.046                       -2824.880          22.849  
R24  20779983.217   111119981.990         369.054          29.392  
> 2022  9 17 22 20 33.9999227  0 21
C24  22248358.282   115853030.881        1697.557          35.733  
C26  22003339.405   114577138.408        -758.054          29.893  
C29  25186085.436                       -1944.773          24.593  
E02                                                                  25734115.343   135233690.536        2360.835          31.597    25734121.339   100986224.3421       1762.929          25.166  
E03                                                                                                                                  24817892.331                        -804.611          24.326  
E08                                                                                                                                  26184846.708   102754933.559        1221.858          26.563  
E24                                                                  25551467.087                       -1659.479          25.546    25551464.989                       -1239.360          27.712  
G06  23671367.853   124393882.527        1208.768          28.335    23671372.050    92891513.105         902.648          26.734  
G12  20230242.095                        -537.228          22.219  
G19  23956852.116                       -2955.273          21.859  
G22  23423103.423                        2765.524          22.940  
G24  21537181.020                       -2286.379          25.340    21537184.917    84516544.269       -1707.030          26.169  
G25  20452753.453                        1849.620          26.529    20452754.353    80261017.907        1381.343          29.893  
G29  23894319.607   125565458.903        4097.482          24.674  
G32  21926408.763   115224080.397        1051.133          28.647    21926414.759    86043947.185         784.798          25.728  
R05  21473636.111                       -2628.475          17.908  
R14  20825245.582   111010263.849       -1849.653          31.326  
R15  19681284.630   105170764.403        1161.541          24.926  
R17  21426784.846   114658937.680        4038.221          26.579  
R23  22989876.939                       -2824.156          22.575  
R24  20779972.424   111119934.018         368.597          28.805  
> 2022  9 17 22 20 34.9999229  0 21
C24  22248091.467   115851645.526        1697.575          35.107  
C26  22003542.365   114578208.588        -757.960          30.347  
C29  25186517.737                       -1945.897          24.080  
E02                                                                  25733727.111   135231644.612        2361.008          31.948    25733731.009   100984696.574        1763.058          25.770  
E03                                                                  24818150.152                       -1085.733          21.556    24818154.049    97391773.3451       -804.772          23.723  
E08                                                                                                                                  26184593.383   102753947.098        1221.751          27.281  
E24                                                                  25551846.924                       -1659.716          24.629    25551841.528                       -1238.681          27.694  
G06  23671198.171   124392989.066        1208.546          28.477    23671202.368    92890845.934         902.462          27.655  
G12  20230411.178                        -537.673          24.445  
G19  23957460.995                       -2952.016          20.135  
G22  23422639.044                        2759.567          21.772  
G24  21537673.879   113181231.7551      -2285.946          24.552    21537679.575    84518486.705       -1707.146          25.988  
G25  20452462.655   107478438.4861       1849.702          26.975    20452462.355    80259871.941        1381.256          28.894  
G29  23893600.105   125561676.245        4097.742          23.455  
G32  21926265.762   115223344.774        1050.707          28.954    21926273.257    86043397.797         784.679          26.057  
R05  21474182.633                       -2635.594          17.613  
R14  20825650.602   111012433.149       -1849.688          31.129  
R15  19681118.545                        1162.345          25.889  
R17  21426072.838   114655220.507        4038.023          28.316  
R23  22990469.329                       -2825.455          23.806  
R24  20779950.540   111119886.676         367.967          28.857  
> 2022  9 17 22 20 35.9999231  0 21
C24  22247826.150   115850260.073        1697.672          35.367  
C26  22003751.920   114579278.796        -757.989          30.753  
C29  25186949.138                       -1945.767          23.827  
E02                                                                  25733335.882   135229598.493        2361.203          32.727    25733343.677   100983168.566        1763.298          25.944  
E03                                                                  24818415.169                       -1088.068          20.565    24818420.565                        -805.516          23.874  
E08                                                                                                                                  26184342.757   102752960.827        1221.561          27.651  
E24                                                                  25552220.166                       -1659.373          24.190    25552216.269   100272389.6951      -1238.953          27.786  
G06  23671033.285   124392095.964        1208.186          29.356    23671033.884    92890179.016         902.208          27.213  
G12  20230579.062   106312407.0841       -537.236          25.172  
G19  23958085.762                       -2946.005          17.130  
G22  23422163.274                        2764.216          22.219  
G24  21538167.337                       -2286.448          23.849    21538177.530    84520429.131       -1707.136          27.457  
G25  20452163.762   107476904.062        1849.508          26.397    20452170.057    80258726.035        1381.197          28.856  
G29  23892884.800   125557893.563        4097.766          23.652  
G32  21926126.359   115222609.568        1050.290          29.398    21926133.254    86042848.789         784.297          26.402  
R05  21474816.994                       -2639.637          19.142  
R14  20826058.620   111014602.357       -1849.596          30.865  
R15  19680968.049   105169082.0341       1161.586          26.086  
R17  21425381.517   114651503.457        4037.900          28.291  
R23  22991053.625                       -2828.078          23.566  
R24  20779943.644   111119839.984         367.317          28.686  
> 2022  9 17 22 20 36.9999233  0 20
C24  22247560.235   115848874.804        1697.488          36.042  
C26  22003954.279   114580349.178        -758.162          30.268  
C29  25187387.734                       -1948.532          24.399  
E02                                                                  25732944.353   135227552.410        2361.166          32.768    25732954.246   100981640.736        1763.120          25.254  
E03                                                                  24818682.284                       -1089.460          19.712    24818686.781                        -805.761          23.809  
E08                                                                                                                                  26184089.732   102751974.621        1221.496          28.669  
E24                                                                  25552593.707                       -1659.342          24.336    25552593.408   100273863.944       -1238.959          27.355  
G06  23670859.105   124391203.292        1207.755          29.355    23670863.003    92889512.370         901.936          26.897  
G12  20230742.748                        -538.892          24.733  
G19  23958713.528                       -2946.119          16.091  
G22  23421695.897                        2765.610          22.736  
G24  21538662.294                       -2286.897          24.316    21538670.389    84522371.741       -1707.320          27.744  
G25  20451875.062   107475369.978        1849.168          25.055    20451877.460    80257580.506        1380.819          28.294  
G29  23892171.294                        4096.293          22.896  
G32  21925988.454   115221874.888        1049.764          29.927    21925992.052                         783.286          25.159  
R14  20826457.044   111016771.799       -1849.829          30.437  
R15  19680818.753                        1161.046          24.490  
R17  21424690.196   114647786.812        4037.495          27.461  
R23  22991672.097                       -2827.288          23.234  
R24  20779945.743   111119794.154         366.456          28.028  
> 2022  9 17 22 20 37.9999235  0 20
C24  22247293.719   115847489.897        1697.127          35.899  
C26  22004160.836   114581420.046        -758.649          29.475  
C29  25187821.534   131159581.2661      -1946.623          24.835  
E02                                                                  25732557.921   135225506.648        2360.847          33.077    25732563.017   100980112.926        1763.100          25.475  
E03                                                                  24818950.898                       -1089.719          19.012    24818949.399                        -806.183          24.284  
E08                                                                                                                                  26183840.904   102750988.938        1220.973          27.979  
E24                                                                  25552969.947   134281740.9491      -1659.292          22.925    25552968.448                       -1238.895          26.035  
G06  23670688.823   124390311.349        1207.027          29.133    23670692.720    92888846.400         901.260          27.076  
G12  20230903.437   106314113.2121       -538.150          25.890  
G19  23959331.400                       -2956.366          18.189  
G22  23421230.919                        2762.355          23.813  
G24  21539162.348   113189036.2751      -2286.726          25.823    21539167.445    84524314.851       -1707.820          28.023  
G25  20451580.965                        1849.896          23.213    20451584.862    80256435.315        1380.481          27.761  
G29  23891438.901   125550328.4801       4097.423          24.162  
G32  21925851.449   115221141.015        1048.957          30.778    21925854.447    86041752.1001        783.392          24.238  
R14  20826870.158   111018941.588       -1850.177          32.096  
R15  19680664.360                        1164.131          22.230  
R17  21423991.080   114644070.760        4036.902          26.921  
R23  22992227.012                       -2822.918          19.969  
R24  20779939.747   111119749.411         365.368          28.748  
> 2022  9 17 22 20 38.9999237  0 20
C24  22247029.602   115846105.403        1696.713          35.243  
C26  22004368.892   114582491.299        -759.033          29.987  
C29  25188247.839                       -1943.348          21.500  
E02                                                                  25732166.692   135223461.076        2360.655          31.697    25732176.285                        1762.951          23.331  
E03                                                                  24819215.615                       -1088.724          18.360    24819215.615                        -806.391          26.502  
E08                                                                                                                                  26183590.278   102750003.791        1220.437          25.877  
E24                                                                  25553345.287   134283715.684       -1659.651          26.751    25553342.289   100276812.8471      -1239.233          26.289  
G06  23670517.342   124389420.275        1206.159          28.056    23670522.438    92888180.984         900.706          26.738  
G12  20231069.222   106314967.016        -538.721          30.626  
G19  23959940.578                       -2956.078          18.382  
G22  23420765.641                        2762.816          23.582  
G24  21539666.599   113191638.672       -2287.313          23.580    21539663.002    84526258.189       -1708.048          24.551  
G25  20451285.969                        1847.662          23.265    20451296.162    80255290.540        1380.065          28.031  
G29  23890722.997                        4096.943          22.228  
G32  21925711.446   115220407.832        1048.266          32.775    21925711.146                         782.426          21.982  
R14  20827273.978   111021111.898       -1850.698          32.998  
R15  19680488.681                        1157.754          23.066  
R17  21423290.764   114640355.289        4036.321          26.313  
R23  22992847.883                       -2823.517          21.429  
R24  20779934.651                         363.635          28.522  
> 2022  9 17 22 20 39.9999239  0 21
C24  22246761.887   115844721.480        1696.143          35.261  
C26  22004573.051   114583563.191        -759.672          30.551  
C29  25188686.135                       -1939.012          18.289  
E02                                                                  25731777.861   135221416.026        2360.134          31.693    25731785.655   100977058.3611       1762.408          23.462  
E03                                                                  24819477.633                       -1086.529          19.677    24819480.931    97396978.3961       -806.620          26.358  
E08                                                                                                                                  26183339.651   102749019.105        1219.976          25.950  
E10                                                                                                                                  26472049.382                        1783.070          17.111  
E24                                                                  25553724.225   134285690.755       -1659.988          26.459    25553719.428   100278287.785       -1239.649          26.835  
G06  23670353.056   124388530.066        1205.293          27.284    23670353.955    92887516.201         900.073          26.946  
G12  20231233.209   106315821.800        -539.700          30.366  
G19  23960578.537                       -2952.804          18.113  
G22  23420298.265   123074518.0961       2762.499          23.620  
G24  21540153.162                       -2293.237          19.704    21540154.062                       -1708.667          22.505  
G25  20451001.766   107470770.8691       1847.348          24.549  
G29  23890003.795                        4098.663          21.975  
G32  21925575.040   115219675.754        1047.162          33.628    21925572.042    86040657.9371        781.882          20.691  
R05  21476989.889                       -2629.349          18.097  
R14  20827679.298   111023282.786       -1851.275          32.837  
R15  19680344.481                        1156.871          22.093  
R17  21422610.535                        4036.948          25.549  
R24  20779920.560   111119663.3461        363.012          27.861  
> 2022  9 17 22 20 40.9999241  0 22
C24  22246498.669   115843337.657        1696.042          34.803  
C26  22004780.807   114584635.293        -759.883          30.419  
C29  25189116.038                       -1942.909          17.190  
E02                                                                  25731388.131   135219371.006        2360.103          32.006    25731397.724   100975531.288        1762.363          23.756  
E03                                                                                                                                  24819744.748                        -806.510          25.953  
E08                                                                                                                                  26183086.626   102748034.716        1219.679          25.746  
E10                                                                                                                                  26471654.555                        1779.689          19.229  
E24                                                                  25554099.565   134287665.772       -1659.933          26.990    25554095.668   100279762.663       -1239.587          27.117  
G06  23670183.973   124387640.333        1204.816          27.978    23670182.773    92886851.762         899.729          27.159  
G12  20231394.797   106316676.858        -539.975          30.983  
G19  23961212.897                       -2952.482          16.849  
G22  23419826.691   123072071.141        2762.039          24.334  
G24  21540657.113                       -2294.946          18.395    21540653.216    84530146.1811      -1708.790          22.052  
G25  20450711.867                        1847.146          23.801    20450713.965    80253002.2431       1379.318          29.719  
G29  23889286.391                        4096.364          21.637  
G32  21925437.136   115218944.202        1046.637          33.389    21925431.739                         781.577          19.085  
R05  21477534.013                       -2638.540          18.566  
R14  20828095.410   111025453.843       -1851.445          33.135  
R15  19680183.792                        1161.563          21.098  
R17  21421908.721   114632927.5641       4034.944          26.199  
R23  22993984.696                       -2834.499          24.703  
R24  20779915.464   111119621.741         362.230          28.262  
> 2022  9 17 22 20 43.9999247  0 24
C24  22245697.024   115839182.816        1698.095          35.774  
C26  22005399.579   114587848.264        -757.929          31.288  
C29  25190412.940                       -1951.660          16.435  
C33  25036769.605                       -1346.242          19.637  
E02                                                                  25730219.540   135213231.694        2362.581          32.960    25730227.634                        1764.076          23.113  
E03                                                                  24820533.202                       -1076.199          19.473    24820542.196    97401145.3951       -805.885          25.755  
E08                                                                                                                                  26182334.147   102745079.516        1220.921          26.931  
E10                                                                                                                                  26470464.379                        1786.760          17.700  
E24                                                                                                                                  25555220.489   100284183.974       -1237.693          26.365  
G06  23669677.623   124384969.894        1205.756          28.354    23669675.824    92884857.372         900.629          28.532  
G11  24198374.214   127163314.7471       2747.879          27.243  
G12  20231883.758   106319239.117        -538.430          31.407  
G19  23963041.931                       -2956.259          16.669  
G22  23418432.357   123064727.579        2763.624          23.026  
G24  21542123.698                       -2278.528          16.756    21542138.388    84535976.312       -1707.510          25.581  
G25  20449831.376                        1849.664          25.368    20449838.571    80249568.421        1380.396          29.686  
G29  23887124.888                        4098.819          22.312  
G32  21925019.225   115216748.456        1047.517          34.206    21925017.426                         782.030          19.817  
R05  21479152.892                       -2637.118          19.075  
R14  20829310.468   111031963.690       -1849.457          32.568  
R15  19679729.307                        1161.283          17.526  
R17  21419816.470                        4039.669          25.043  
R23  22995776.255                       -2833.172          25.091  
R24  20779874.093   111119497.353         362.360          28.560  
> 2022  9 17 22 20 44.9999249  0 24
C24  22245430.809   115837795.528        1699.508          36.095  
C26  22005603.138   114588916.982        -756.498          31.905  
C29  25190850.937                       -1942.238          20.169  
C33  25037073.894                       -1343.751          18.902  
E02                                                                  25729832.208   135211182.631        2364.147          33.691    25729837.604   100969416.5561       1765.397          27.080  
E03                                                                  24820799.418                       -1074.419          18.639    24820809.311    97402185.494        -804.809          27.160  
E08                                                                                                                                  26182082.022   102744093.049        1221.757          27.680  
E10                                                                                                                                  26470068.653                        1788.452          17.708  
E24                                                                                                                                  25555599.427   100285655.730       -1236.465          26.454  
G06  23669504.643   124384077.898        1207.080          27.409    23669509.140    92884191.511         901.150          28.610  
G11  24197911.335   127160880.665        2749.166          26.105  
G12  20232045.946   106320091.448        -537.247          29.726  
G19  23963678.391                       -2950.722          18.475  
G22  23417948.492                        2766.287          20.630  
G24  21542628.848                       -2285.869          19.546    21542632.146    84537918.090       -1706.488          28.732  
G25  20449543.576   107463105.2001       1849.768          26.711    20449543.576    80248422.199        1381.511          27.855  
G29  23886403.287                        4101.200          23.329  
G32  21924877.123   115216015.040        1048.499          32.609    21924877.423    86037924.3531        783.002          27.377  
R05  21479693.717                       -2632.422          21.599  
R14  20829721.184   111034131.264       -1847.962          32.472  
R15  19679500.865                        1157.369          22.078  
R17  21419120.651                        4040.975          24.526  
R23  22996350.658                       -2830.262          24.204  
R24  20779858.803                         363.789          27.625  
> 2022  9 17 22 20 45.9999251  0 24
C24  22245165.792   115836406.997        1700.751          36.674  
C26  22005809.695   114589984.514        -755.312          32.149  
C29  25191290.433                       -1942.037          21.931  
C33  25037397.970                       -1345.813          19.108  
E02                                                                  25729440.679   135209132.218        2365.497          33.216    25729448.174   100967885.505        1766.341          26.940  
E03                                                                                                                                  24821074.028    97403224.937        -804.153          26.868  
E08                                                                                                                                  26181830.496   102743105.672        1222.667          27.504  
E10                                                                                                                                  26469678.923                        1783.033          18.290  
E24                                                                  25555972.368   134297526.8111      -1654.417          26.332    25555972.668   100287126.435       -1235.415          27.017  
G06  23669332.562                        1207.282          25.756    23669337.659    92883524.879         901.922          28.115  
G11  24197447.556                        2750.432          25.610  
G12  20232207.234   106320942.690        -536.158          29.147  
G19  23964277.376                       -2952.904          16.461  
G22  23417495.505                        2763.779          21.700  
G24  21543124.405                       -2286.848          20.762    21543127.703    84539858.902       -1705.521          29.140  
G25  20449253.676   107461569.269        1851.015          26.567    20449252.777    80247275.274        1382.216          29.797  
G29  23885683.186                        4102.874          23.309  
G32  21924741.018   115215280.653        1049.472          31.217    21924736.821    86037375.947         783.696          26.885  
R05  21480263.923                       -2632.683          23.352  
R14  20830127.403   111036297.610       -1846.733          33.751  
R15  19679392.040                        1158.927          21.137  
R17  21418419.137   114614348.0321       4038.837          26.248  
R23  22996934.953                       -2826.445          23.575  
R24  20779867.197   111119411.5711        363.779          28.961  
> 2022  9 17 22 20 46.9999253  0 24
C24  22244897.178   115835017.597        1701.619          36.411  
C26  22006012.954   114591051.220        -754.487          36.476  
C29  25191717.337                       -1944.957          21.396  
C33  25037724.144                       -1349.075          21.045  
E02                                                                  25729051.548   135207080.856        2366.447          34.440    25729057.844                        1767.815          25.331  
E03                                                                                                                                  24821339.045    97404263.642        -803.415          27.569  
E08                                                                                                                                  26181580.769   102742118.020        1222.942          25.914  
E10                                                                                                                                  26469286.494                        1780.163          18.319  
E24                                                                  25556348.308   134299495.413       -1653.518          28.036    25556345.610   100288596.472       -1234.747          25.975  
G06  23669160.181                        1209.222          25.713    23669168.875    92882857.679         902.490          27.491  
G11  24196988.873   127156009.7171       2751.197          26.216  
G12  20232372.120   106321793.232        -535.458          29.650  
G19  23964910.538                       -2953.508          12.800  
G22  23417025.730                        2766.929          23.303  
G24  21543616.065                       -2280.617          23.273    21543620.862    84541799.381       -1705.189          29.566  
G25  20448958.980   107460032.856        1851.497          28.229    20448963.777    80246127.820        1382.744          34.282  
G29  23884958.587   125516263.1911       4102.798          24.853  
G32  21924600.115   115214545.898        1049.839          30.167    21924592.920                         787.961          22.517  
R05  21480817.939                       -2631.821          23.212  
R14  20830533.322   111038463.162       -1845.939          32.651  
R15  19679221.159                        1167.048          22.581  
R17  21417732.312   114610629.470        4039.412          28.268  
R23  22997524.345                       -2826.881          24.817  
R24  20779847.711   111119368.301         363.895          29.998  
> 2022  9 17 22 20 47.9999255  0 24
C24  22244633.361   115833626.899        1702.918          36.550  
C26  22006216.214   114592116.741        -753.301          36.819  
C29  25192156.833                       -1942.787          20.041  
C33  25038045.222                       -1343.266          22.011  
E02                                                                  25728662.717   135205028.025        2367.915          34.540    25728667.814   100964820.5511       1768.166          27.258  
E03                                                                  24821599.264                       -1072.041          22.420    24821603.162    97405301.551        -802.619          27.709  
E08                                                                                                                                  26181329.243   102741129.271        1224.038          26.126  
E10                                                                                                                                  26468891.068                        1783.051          20.841  
E24                                                                  25556724.548   134301462.387       -1651.890          26.960    25556721.850   100290065.378       -1233.616          26.799  
G06                                                                  23669002.191    92882190.043         902.926          26.953  
G11  24196518.499   127153572.373        2752.428          28.540  
G12  20232534.008   106322642.597        -534.280          30.248  
G19  23965523.313                       -2952.002          14.026  
G22  23416563.750                        2769.083          23.840  
G24  21544108.324                       -2279.406          23.527    21544114.620    84543738.783       -1704.112          29.278  
G25  20448667.582   107458495.024        1852.916          29.929    20448669.381    80244979.498        1383.613          34.089  
G29  23884240.285   125512474.141        4104.134          26.141  
G32  21924463.710   115213810.239        1050.743          30.371    21924451.718                         790.471          18.315  
R05  21481365.360                       -2633.493          23.068  
R14  20830932.945   111040627.413       -1844.639          30.969  
R15  19679075.160                        1167.679          23.482  
R17  21417034.396   114606909.857        4040.463          30.148  
R23  22998105.943                       -2827.466          25.470  
R24  20779853.407   111119324.213         364.713          30.579  
> 2022  9 17 22 20 48.9999257  0 23
C24  22244363.248   115832234.873        1704.245          36.195  
C26  22006420.072   114593180.898        -751.938          37.131  
C29  25192586.136                       -1937.625          18.521  
C33  25038355.807                       -1343.261          21.033  
E02                                                                  25728271.488   135202973.723        2369.385          34.549    25728275.985   100963286.476        1769.365          26.747  
E03                                                                  24821857.386                       -1073.136          22.497    24821866.679    97406338.687        -801.845          27.836  
E08                                                                                                                                  26181075.918   102740139.774        1224.788          26.908  
E10                                                                                                                                  26468494.443   103867967.5131       1785.785          23.519  
E24                                                                  25557097.490                       -1649.573          27.542    25557096.890   100291533.061       -1232.393          28.631  
G06  23668816.619   124380502.6521       1210.750          28.140    23668828.611    92881521.627         903.706          29.292  
G11  24196059.517   127151133.308        2754.149          27.754  
G12  20232694.097   106323490.921        -533.240          30.451  
G22  23416099.072   123052480.3261       2769.504          23.235  
G24  21544602.682                       -2280.559          22.067    21544610.177    84545677.384       -1703.311          29.792  
G25  20448377.383   107456955.595        1854.513          30.349    20448377.683    80243830.386        1384.401          33.960  
G29  23883516.885   125508683.166        4106.059          26.547  
G32  21924320.109   115213073.662        1051.661          29.727  
R05  21481932.268                       -2631.918          22.726  
R14  20831332.569   111042790.318       -1843.293          29.093  
R15  19678912.972                        1168.477          23.254  
R17  21416338.877   114603189.075        4041.632          30.256  
R23  22998709.425   123027754.8831      -2825.428          25.899  
R24  20779834.220   111119279.578         365.261          29.835  
> 2022  9 17 22 20 49.9999259  0 22
C24  22244094.634   115830842.208        1704.885          36.244  
C26  22006624.831   114594244.550        -751.432          36.961  
C33  25038687.677                       -1348.518          20.250  
E02                                                                  25727880.259   135200918.723        2370.084          34.540    25727885.955   100961751.981        1769.784          26.462  
E03                                                                  24822123.002   130441194.9411      -1073.381          22.028    24822132.295    97407375.444        -801.468          27.689  
E08                                                                                                                                  26180826.191   102739149.977        1225.087          25.969  
E10                                                                                                                                  26468097.517   103866416.656        1786.147          24.427  
E24                                                                  25557470.132   134305392.7051      -1649.705          28.387    25557468.932   100293000.259       -1231.909          28.478  
G06  23668646.337   124379607.123        1210.613          27.542    23668657.729    92880852.884         904.033          28.286  
G11  24195598.436   127148694.182        2754.210          26.658  
G12  20232853.587   106324338.760        -532.756          30.061  
G22  23415629.297   123050025.918        2769.492          24.234  
G24  21545095.541                       -2280.465          23.680    21545102.136    84547615.506       -1702.833          30.343  
G25  20448080.289   107455416.282        1854.397          30.282    20448083.287    80242680.841        1384.835          33.528  
G29  23882803.679   125504891.922        4106.328          26.020  
G32  21924178.607   115212336.874        1051.871          29.668  
R05  21482468.896                       -2631.565          20.618  
R14  20831733.691   111044952.674       -1842.744          29.267  
R15  19678749.585                        1170.632          22.462  
R17  21415654.751   114599467.868        4042.057          30.248  
R23  22999305.112   123030901.004       -2825.384          25.797  
R24  20779834.220   111119235.043         365.160          29.535  
> 2022  9 17 22 20 50.9999261  0 23
C24  22243829.917   115829449.628        1704.799          35.958  
C26  22006827.790   114595308.306        -751.536          37.056  
C29  25193440.244                       -1936.914          15.096  
C33  25038997.063                       -1347.214          20.873  
E02                                                                  25727489.330   135198863.663        2370.144          34.031    25727495.326   100960217.288        1769.984          26.533  
E03                                                                  24822384.421                       -1073.240          22.306    24822394.014    97408412.385        -801.651          27.903  
E08                                                                                                                                  26180571.368   102738160.312        1224.955          25.727  
E10                                                                                                                                  26467705.089   103864865.848        1786.098          25.359  
E24                                                                  25557844.572   134307357.353       -1649.565          28.592    25557843.073   100294467.328       -1231.779          28.646  
G06  23668480.252   124378712.123        1210.084          27.113    23668489.546    92880184.493         903.681          27.951  
G11  24195140.952   127146255.196        2754.070          26.423  
G12  20233015.175   106325186.816        -532.972          29.960  
G22  23415162.520   123047571.745        2769.257          24.142  
G24  21545593.796   113222825.8711      -2280.555          24.029    21545598.293    84549553.822       -1703.026          30.789  
G25  20447786.792   107453877.100        1854.266          30.237    20447791.888    80241531.500        1384.631          33.248  
G29  23882082.079   125501100.754        4106.252          25.454  
G32  21924039.803   115211600.550        1051.408          29.451  
R05  21483023.812                       -2628.100          21.174  
R14  20832153.101   111047114.984       -1842.697          29.107  
R15  19678595.192                        1164.221          21.018  
R17  21414954.136   114595747.004        4041.714          29.809  
R23  22999901.999   123034047.328       -2825.586          25.256  
R24  20779825.226   111119191.187         364.481          29.123  
> 2022  9 17 22 20 51.9999263  0 22
C24  22243559.504   115828057.624        1704.224          35.904  
C26  22007033.148   114596372.667        -752.142          36.928  
C33  25039317.541                       -1341.457          20.877  
E02                                                                  25727098.400   135196809.032        2369.715          34.363    25727104.396   100958682.973        1769.604          26.829  
E03                                                                  24822645.840                       -1074.902          21.900    24822659.930    97409449.864        -802.189          28.065  
E08                                                                                                                                  26180318.643   102737171.194        1224.408          25.835  
E10                                                                                                                                  26467310.862   103863315.599        1785.539          24.893  
E24                                                                  25558218.114   134309322.476       -1650.038          28.770    25558217.214   100295934.795       -1232.177          28.687  
G06  23668309.071   124377818.001        1209.206          26.977    23668318.064                         902.658          28.018  
G11  24194673.876   127143816.879        2753.401          25.518  
G12  20233177.063   106326035.688        -533.788          29.939  
G22  23414689.748   123045118.400        2768.428          24.742  
G24  21546092.650                       -2281.836          24.030    21546091.151    84551492.635       -1703.523          30.586  
G25  20447494.494   107452338.787        1853.397          29.868    20447497.792    80240382.675        1384.115          33.417  
G29  23881357.480   125497310.030        4105.809          26.391  
G32  21923901.299   115210865.185        1050.449          29.506  
R05  21483579.328                       -2632.886          20.722  
R14  20832550.625   111049277.933       -1843.337          29.320  
R15  19678421.013                        1163.388          21.386  
R17  21414259.816   114592026.885        4040.969          29.613  
R23  23000469.806   123037194.636       -2826.571          25.693  
R24  20779812.935   111119148.653         363.159          29.032  
> 2022  9 17 22 20 52.9999266  0 23
C24  22243324.167   115826822.450        1703.504          36.257  
C26  22007269.085   114597593.875        -752.878          36.878  
C29  25194352.812                       -1944.085          15.381  
C33  25039665.300                       -1344.743          20.513  
E02                                                                  25726738.350   135194912.565        2369.093          34.365    25726744.046   100957266.841        1769.067          26.687  
E03                                                                  24822944.733                       -1075.954          21.225    24822953.427    97410605.725        -802.926          27.992  
E08                                                                                                                                  26180097.096   102736300.487        1223.642          25.762  
E10                                                                                                                                  26466943.316   103861883.596        1784.938          24.793  
E24                                                                  25558623.133   134311445.658       -1650.556          28.068    25558621.035   100297520.295       -1232.564          28.698  
G06  23668164.271   124377082.502        1208.125          27.128    23668177.162    92878967.5931        902.154          27.573  
G11  24194241.875   127141536.878        2752.627          26.298  
G12  20233371.329   106327043.012        -534.698          30.205  
G22  23414263.143                        2767.314          24.837  
G24  21546612.790   113228176.8281      -2282.035          24.033    21546615.488    84553549.721       -1704.151          30.404  
G25  20447230.377   107450958.844        1852.569          29.575    20447236.673    80239352.257        1383.353          33.787  
G29  23880664.960   125493677.438        4105.218          26.206  
G32  21923789.177   115210288.467        1049.345          28.767  
R05  21484198.699                       -2631.596          19.573  
R14  20832983.526   111051601.581       -1844.229          29.336  
R15  19678320.282                        1165.045          22.128  
R17  21413601.772   114588468.239        4039.921          29.741  
R23  23001109.563   123040503.385       -2827.643          25.953  
R24  20779837.518   111119267.819         361.772          28.605  
> 2022  9 17 22 20 53.9999268  0 22
C24  22243056.752   115825432.070        1702.599          36.599  
C26  22007473.543   114598659.929        -753.834          36.835  
C33  25039985.179                       -1345.756          19.723  
E02                                                                  25726346.821   135192859.378        2368.271          34.114    25726351.018                        1768.143          25.900  
E03                                                                  24823213.647   130446912.2211      -1076.335          21.372    24823218.743    97411644.843        -803.828          27.789  
E08                                                                                                                                  26179844.071   102735312.827        1222.950          25.774  
E10                                                                                                                                  26466548.790   103860334.749        1784.137          25.138  
E24                                                                  25558996.975   134313412.122       -1651.380          27.966    25558996.075   100298988.760       -1233.175          28.677  
G06  23667995.188   124376190.740        1206.847          26.823    23668010.178    92878301.735         901.148          27.692  
G11  24193772.999   127139100.350        2751.612          26.947  
G12  20233532.917   106327893.947        -535.851          30.622  
G22  23413794.567                        2765.680          25.346  
G24  21547109.247                       -2283.520          23.522    21547109.546    84555489.914       -1704.903          30.183  
G25  20446936.880   107449422.460        1851.468          29.616    20446942.876    80238204.969        1382.577          33.749  
G29  23879946.957   125489888.134        4104.388          26.216  
G32  21923651.272   115209555.668        1047.882          27.680  
R05  21484706.847                       -2639.788          18.762  
R14  20833402.036   111053766.382       -1845.189          29.506  
R15  19678155.996                        1167.186          22.444  
R17  21412912.549   114584750.374        4038.714          29.802  
R23  23001696.257   123043653.167       -2829.044          26.282  
R24  20779831.522   111119228.283         360.161          29.032  
> 2022  9 17 22 20 54.9999270  0 22
C24  22242789.637   115824042.523        1701.767          36.371  
C26  22007675.903   114599726.960        -754.812          36.748  
C33  25040296.064                       -1349.450          18.534  
E02                                                                  25725957.990   135190806.894        2367.568          34.678    25725961.887   100954200.9011       1767.968          26.071  
E03                                                                  24823478.064   130448304.637       -1077.332          21.332    24823483.760    97412684.601        -804.467          28.104  
E08                                                                                                                                  26179594.644   102734326.116        1222.001          25.814  
E10                                                                                                                                  26466155.462   103858786.644        1783.395          25.154  
E24                                                                  25559368.417   134315379.290       -1652.084          28.528    25559371.415   100300457.746       -1233.696          28.653  
G06  23667828.203   124375300.218        1205.606          27.140    23667838.996    92877636.652         900.373          27.745  
G11  24193314.317                        2750.107          27.381  
G12  20233691.807   106328745.805        -536.775          30.381  
G22  23413330.788                        2765.004          25.385  
G24  21547605.403                       -2284.384          23.411    21547603.904    84557430.858       -1705.655          29.773  
G25  20446644.583   107447887.118        1850.425          29.676    20446651.478    80237058.440        1381.820          33.746  
G29  23879225.356                        4102.807          26.194  
G32  21923507.372   115208824.108        1046.644          27.354  
R05  21485266.859                       -2636.735          18.448  
R14  20833805.557   111055931.985       -1845.990          29.704  
R15  19678004.301                        1165.533          21.605  
R17  21412217.330   114581033.540        4037.684          30.146  
R23  23002278.454   123046804.138       -2830.234          26.477  
R24  20779833.920   111119190.255         358.652          29.044  
> 2022  9 17 22 20 55.9999272  0 22
C24  22242522.222   115822653.978        1700.765          36.539  
C26  22007883.659   114600794.954        -755.774          36.838  
C33  25040619.540                       -1351.123          19.078  
E02                                                                  25725566.161   135188755.356        2366.622          34.497    25725572.457   100952668.871        1767.320          26.379  
E03                                                                  24823742.181                       -1079.342          21.516    24823749.076    97413725.293        -805.402          28.375  
E08                                                                                                                                  26179342.818   102733340.244        1221.162          25.814  
E10                                                                                                                                  26465759.436   103857239.278        1782.656          24.992  
E24                                                                  25559742.858   134317347.242       -1652.867          28.444    25559744.957   100301927.340       -1234.304          28.477  
G06  23667656.422   124374411.047        1204.255          26.805    23667669.313    92876972.724         899.218          27.895  
G11  24192853.236   127134230.3161       2749.552          27.018  
G12  20233856.093   106329598.972        -538.082          30.355  
G22  23412857.416   123035472.3301       2764.327          25.207  
G24  21548100.361   113235974.4781      -2285.135          24.482    21548098.862    84559372.653       -1706.504          30.110  
G25  20446353.784   107446352.978        1849.225          29.808    20446358.580    80235912.785        1380.945          34.010  
G29  23878504.056                        4102.180          25.977  
G32  21923370.367   115208093.921        1045.272          27.168  
R05  21485824.773                       -2633.779          20.191  
R14  20834211.775   111058098.682       -1847.084          29.852  
R15  19677845.711                        1162.299          21.199  
R17  21411516.715   114577317.945        4036.446          30.031  
R23  23002873.542                       -2832.407          26.701  
R24  20779826.126   111119153.986         356.894          29.034  
> 2022  9 17 22 20 56.9999274  0 22
C24  22242255.107   115821266.445        1699.752          36.357  
C26  22008087.218   114601863.976        -756.803          37.001  
C33  25040931.024                       -1352.368          19.260  
E02                                                                  25725176.431   135186704.636        2365.804          34.398    25725180.928   100951137.502        1766.659          26.602  
E03                                                                                                                                  24824014.093    97414766.876        -806.293          28.176  
E08                                                                                                                                  26179092.491   102732355.200        1220.334          25.122  
E10                                                                                                                                  26465365.509   103855692.719        1781.849          25.681  
E24                                                                  25560121.496   134319316.080       -1653.754          28.419    25560120.597   100303397.557       -1234.927          28.548  
G06  23667489.738   124373523.231        1202.900          26.803    23667500.830                         897.737          27.954  
G11  24192387.659   127131796.913        2748.487          26.578  
G12  20234017.081   106330453.327        -539.271          30.411  
G22  23412394.237                        2762.379          25.432  
G24  21548594.718   113238575.864       -2286.302          24.411    21548594.119    84561315.281       -1707.338          30.443  
G25  20446062.086   107444820.011        1848.051          30.347    20446066.882    80234767.998        1380.077          33.479  
G29  23877776.459   125478525.8321       4101.733          25.986  
G32  21923235.460   115207365.205        1043.799          28.194  
R05  21486403.672                       -2637.134          19.163  
R14  20834622.491   111060266.332       -1848.038          30.051  
R15  19677671.531                        1155.789          21.423  
R17  21410829.291   114573603.641        4035.154          30.350  
R23  23003456.938   123053110.1821      -2832.959          25.803  
R24  20779805.740   111119119.377         355.234          29.044  
> 2022  9 17 22 20 57.9999276  0 22
C24  22241988.592   115819879.767        1698.897          35.713  
C26  22008293.475   114602933.941        -757.745          36.961  
C33  25041253.001                       -1352.734          18.920  
E02                                                                  25724785.502   135184654.740        2364.980          34.517    25724791.497   100949606.700        1766.092          26.337  
E03                                                                  24824266.218                       -1081.731          21.007    24824279.109    97415809.274        -807.107          27.907  
E08                                                                                                                                  26178840.666   102731370.995        1219.495          25.348  
E10                                                                                                                                  26464970.982   103854147.021        1780.988          25.545  
E24                                                                  25560495.337   134321285.685       -1654.521          28.507    25560494.138   100304868.396       -1235.549          28.623  
G06  23667322.753   124372636.626        1201.689          27.614    23667331.148    92875647.7331        897.322          28.188  
G11  24191918.483   127129364.416        2747.581          27.435  
G12  20234180.468   106331308.727        -540.317          30.618  
G22  23411930.158                        2761.617          25.333  
G24  21549085.778   113241178.258       -2287.311          24.515    21549089.676    84563258.558       -1707.987          30.485  
G25  20445774.885   107443288.019        1847.076          30.561    20445775.184    80233624.023        1379.265          33.798  
G29  23877058.756                        4100.434          25.478  
G32  21923090.660   115206637.596        1042.693          27.852  
R05  21486957.389                       -2638.691          18.845  
R14  20835017.917   111062434.965       -1849.021          29.324  
R15  19677536.325                        1154.479          21.650  
R17  21410128.377   114569890.489        4034.001          30.378  
R23  23004047.229   123056265.221       -2834.301          26.313  
R24  20779803.042   111119086.311         353.691          28.571  
> 2022  9 17 22 20 58.9999278  0 23
C24  22241721.477   115818493.938        1698.048          35.673  
C26  22008498.234   114604004.814        -758.653          36.794  
C29  25196948.715                       -1941.490          16.306  
C33  25041563.286                       -1350.807          17.082  
E02                                                                  25724396.071   135182605.538        2364.286          34.675    25724401.767   100948076.498        1765.493          26.353  
E03                                                                  24824536.931                       -1082.270          20.228    24824545.625    97416852.481        -807.917          27.641  
E08                                                                                                                                  26178589.140   102730387.529        1218.756          25.814  
E10                                                                                                                                  26464576.755   103852602.035        1780.276          25.585  
E24                                                                  25560871.877   134323255.920       -1655.152          28.442    25560869.178   100306339.711       -1236.025          28.019  
G06  23667152.471   124371751.250        1200.460          27.604    23667162.664    92874986.535         896.488          27.568  
G11  24191459.501   127126932.818        2746.682          27.808  
G12  20234342.656   106332165.146        -541.334          30.663  
G22  23411465.180                        2760.500          25.140  
G24  21549583.434                       -2289.095          24.007    21549584.333    84565202.606       -1708.759          30.353  
G25  20445482.887   107441757.068        1846.034          30.093    20445485.585    80232480.816        1378.496          33.639  
G29  23876338.355   125470954.8901       4100.218          25.523  
G32  21922950.957                        1040.666          27.436  
R05  21487513.504                       -2640.606          18.925  
R14  20835430.132   111064604.558       -1849.981          28.811  
R15  19677395.123                        1163.087          21.101  
R17  21409432.558   114566178.390        4032.949          30.238  
R23  23004654.309   123059421.499       -2835.541          26.738  
R24  20779797.046                         351.279          28.434  
> 2022  9 17 22 20 59.9999280  0 23
C24  22241456.760   115817109.029        1697.129          35.552  
C26  22008703.292   114605076.626        -759.593          36.736  
C29  25197383.714                       -1946.393          16.313  
C33  25041887.062                       -1351.584          14.871  
E02                                                                  25724006.341   135180557.152        2363.470          34.862    25724012.637                        1764.693          26.026  
E03                                                                  24824796.551                       -1083.582          20.520    24824812.440    97417896.540        -808.770          27.626  
E08                                                                                                                                  26178338.513   102729404.855        1217.964          25.231  
E10                                                                                                                                  26464185.226   103851057.652        1779.672          25.296  
E24                                                                  25561246.018   134325226.928       -1655.924          28.281    25561243.919   100307811.561       -1236.560          28.327  
G06  23666984.588   124370867.154        1199.180          27.868    23666995.980    92874326.253         895.573          27.597  
G11  24190999.320   127124502.382        2745.521          27.513  
G12  20234506.343   106333022.720        -542.490          30.775  
G22  23411003.200                        2759.427          24.937  
G24  21550080.190                       -2289.844          23.790    21550079.890    84567147.432       -1709.535          30.093  
G25  20445192.987   107440227.272        1844.880          29.549    20445192.688    80231338.379        1377.728          33.770  
G29  23875618.253   125467170.666        4099.307          25.624  
G32  21922810.354   115205186.9821       1039.963          28.103  
R05  21488053.430                       -2643.253          18.863  
R14  20835834.252   111066774.994       -1850.824          28.166  
R15  19677221.543                        1158.994          21.001  
R17  21408744.235   114562467.531        4031.709          30.230  
R23  23005241.603   123062578.909       -2836.673          26.871  
R24  20779790.151                         349.725          28.237  
> 2022  9 17 22 21  0.9999282  0 23
C24  22241190.544   115815724.826        1696.422          35.793  
C26  22008911.048   114606149.183        -760.337          36.655  
C29  25197821.111                       -1955.471          18.732  
C33  25042197.647                       -1358.577          14.244  
E02                                                                  25723618.410   135178509.396        2362.840          34.667    25723620.808   100945017.6661       1764.474          26.134  
E03                                                                  24825065.465   130456682.8901      -1083.871          20.741    24825078.056    97418941.154        -809.323          27.894  
E08                                                                                                                                  26178089.086   102728422.951        1217.194          25.243  
E10                                                                                                                                  26463790.999   103849513.898        1779.044          25.543  
E24                                                                  25561623.157   134327198.585       -1656.573          28.255    25561619.259                       -1237.435          28.160  
G06  23666821.201   124369984.126        1198.112          28.516    23666825.997    92873666.896         894.647          27.753  
G11  24190533.442   127122072.593        2744.873          27.496  
G12  20234672.128   106333881.203        -543.399          31.024  
G22  23410535.823   123023242.6801       2759.488          25.612  
G24  21550578.445                       -2291.048          23.444    21550575.747    84569092.888       -1710.166          30.247  
G25  20444897.092   107438698.362        1843.994          29.233    20444901.589    80230196.690        1376.979          33.947  
G29  23874900.250   125463386.513        4099.237          25.548  
G32  21922673.349                        1038.372          28.078  
R05  21488597.553                       -2644.347          17.649  
R14  20836248.565   111068946.341       -1851.734          28.215  
R15  19677057.557                        1153.977          21.185  
R17  21408050.215   114558757.623        4030.758          29.801  
R23  23005817.504   123065737.625       -2837.978          26.978  
R24  20779801.243   111118996.6971        349.019          28.262  
> 2022  9 17 22 21  1.9999284  0 23
C24  22240924.328   115814341.367        1695.679          35.595  
C26  22009115.806   114607222.576        -761.174          36.830  
C29  25198239.921                       -1958.226          16.954  
C33  25042552.002                       -1363.802          16.046  
E02                                                                  25723227.480   135176462.235        2362.245          34.798    25723232.577   100943488.972        1763.984          26.513  
E03                                                                  24825336.177                       -1085.029          21.312    24825344.572    97419986.474        -810.030          27.855  
E08                                                                                                                                  26177839.059   102727441.686        1216.555          25.358  
E10                                                                                                                                  26463398.570   103847970.889        1778.299          25.307  
E24                                                                  25561996.398   134329170.773       -1657.104          28.431    25561994.599   100310756.6181      -1237.402          28.080  
G06  23666652.417   124369102.229        1196.981          28.683    23666660.512    92873008.324         893.862          27.489  
G11  24190074.460   127119643.680        2743.997          27.512  
G12  20234834.615   106334740.591        -544.303          30.728  
G22  23410068.447   123020799.608        2758.156          25.554  
G24  21551076.100                       -2291.341          23.293    21551071.903    84571038.967       -1710.789          30.281  
G25  20444612.589   107437170.360        1843.085          28.979    20444611.090    80229055.604        1376.376          33.714  
G29  23874184.346   125459603.563        4098.034          25.331  
G32  21922536.344   115203740.0981       1037.709          28.236  
R05  21489191.143                       -2643.569          17.224  
R14  20836649.088   111071118.414       -1852.460          28.448  
R15  19676883.977                        1152.977          21.813  
R17  21407347.802   114555048.665        4029.808          29.814  
R23  23006416.189   123068897.376       -2839.014          26.884  
R24  20779776.360   111118969.815         347.507          28.218  
> 2022  9 17 22 21  2.9999286  0 22
C24  22240659.012   115812958.520        1695.066          35.601  
C26  22009322.363   114608296.591        -761.795          36.724  
C29  25198681.516                       -1959.824          17.286  
E02                                                                  25722835.352   135174415.577        2361.743          34.774    25722842.247   100941960.669        1763.593          26.239  
E03                                                                  24825606.890                       -1086.627          20.493    24825610.188    97421032.456        -810.692          27.988  
E08                                                                                                                                  26177590.831   102726461.056        1215.920          25.499  
E10                                                                                                                                  26463004.343   103846428.367        1777.812          24.630  
E24                                                                  25562373.237   134331143.455       -1657.598          28.039    25562371.438   100312229.751       -1237.843          28.218  
G06  23666487.532   124368221.231        1196.083          28.843    23666491.129    92872350.507         893.107          27.782  
G11  24189608.582   127117215.481        2743.283          27.542  
G12  20235000.101   106335600.851        -545.177          30.778  
G22  23409608.265   123018357.378        2757.315          25.410  
G24  21551563.563   113254203.9831      -2291.655          23.184    21551568.360    84572985.586       -1711.329          30.366  
G25  20444315.795   107435643.052        1842.392          29.381    20444320.591    80227915.156        1375.738          33.897  
G29  23873460.048   125455821.110        4097.537          25.603  
G32  21922402.936   115203018.509        1036.673          28.645  
R05  21489726.272                       -2648.089          15.546  
R14  20837064.001   111073291.160       -1853.134          28.321  
R15  19676759.263                        1154.511          22.451  
R17  21406662.476   114551340.599        4028.916          29.550  
R23  23007001.984   123072057.987       -2839.874          26.657  
R24  20779767.366   111118944.227         346.213          27.647  
> 2022  9 17 22 21  3.9999288  0 22
C24  22240394.595   115811576.262        1694.478          35.718  
C26  22009529.820   114609371.310        -762.499          36.693  
C29  25199123.410                       -1955.137          19.097  
E02                                                                  25722451.617   135172369.432        2361.229          34.890    25722452.816   100940432.638        1763.321          26.304  
E03                                                                  24825873.705                       -1087.930          20.943    24825878.202    97422079.078        -811.332          27.593  
E08                                                                                                                                  26177340.504   102725481.062        1215.285          25.683  
E10                                                                                                                                  26462612.814   103844886.410        1777.247          25.227  
E24                                                                  25562747.978   134333116.624       -1658.085          27.977    25562745.879   100313703.138       -1238.097          28.484  
G06  23666321.447   124367341.299        1195.016          29.111    23666322.646    92871693.261         892.536          27.594  
G11  24189149.600   127114788.010        2742.556          27.353  
G12  20235163.488   106336461.891        -545.956          31.065  
G22  23409139.390   123015915.893        2756.569          24.980  
G24  21552060.919   113256811.520       -2292.454          23.492    21552064.516    84574932.755       -1711.879          29.928  
G25  20444027.394   107434116.695        1841.441          29.752    20444031.891    80226775.322        1375.125          33.744  
G29  23872741.745   125452039.159        4097.035          25.503  
G32  21922271.028   115202297.998        1035.595          28.861  
R05  21490235.320                       -2650.206          15.934  
R14  20837469.320   111075464.551       -1853.778          28.004  
R15  19676612.065                        1152.953          22.428  
R17  21405960.062   114547633.371        4028.078          29.574  
R23  23007601.869   123075219.804       -2841.079          26.673  
R24  20779756.574   111118919.819         345.033          27.609  
> 2022  9 17 22 21  4.9999290  0 22
C24  22240130.178   115810194.783        1693.699          35.777  
C26  22009739.075   114610446.750        -763.221          36.727  
C29  25199569.201                       -1953.723          19.801  
E02                                                                  25722059.789   135170323.926        2360.590          34.783    25722064.585   100938905.147        1762.781          26.732  
E03                                                                                                                                  24826145.917    97423126.330        -811.962          27.490  
E08                                                                                                                                  26177091.377   102724501.687        1214.665          25.075  
E10                                                                                                                                  26462219.786   103843345.155        1776.545          25.621  
E24                                                                  25563122.718   134335090.356       -1658.647          28.076    25563121.219   100315177.093       -1238.665          28.153  
G06  23666153.863   124366462.412        1193.970          29.357    23666156.561    92871037.060         891.491          28.026  
G11  24188685.521   127112361.355        2741.739          27.352  
G12  20235328.074   106337323.840        -546.865          30.862  
G22  23408676.810                        2754.831          25.484  
G24  21552559.174   113259419.958       -2293.353          23.542    21552560.973    84576880.608       -1712.563          29.966  
G25  20443738.694   107432591.145        1840.634          30.198    20443739.594    80225636.120        1374.492          33.735  
G29  23872018.945                        4095.895          25.231  
G32  21922134.022   115201578.660        1034.422          28.966  
R05  21490798.929                       -2652.924          15.993  
R14  20837874.040                       -1855.615          27.256  
R15  19676442.682                        1151.060          22.596  
R17  21405265.443   114543927.180        4027.041          29.647  
R23  23008182.567                       -2842.539          26.557  
R24  20779769.165   111118896.938         343.506          27.721  
> 2022  9 17 22 21  5.9999292  0 22
C24  22239864.262   115808814.038        1692.965          35.729  
C26  22009944.133   114611522.970        -764.000          36.567  
C29  25199997.605                       -1953.267          19.702  
E02                                                                  25721673.056   135168279.017        2359.993          34.702    25721676.054   100937378.114        1762.324          26.439  
E03                                                                  24826404.638   130463690.7511      -1088.329          20.199    24826411.533    97424174.279        -812.659          27.557  
E08                                                                                                                                  26176840.450   102723523.053        1213.925          25.022  
E10                                                                                                                                  26461825.559   103841804.405        1776.039          25.697  
E24                                                                  25563499.558   134337064.678       -1659.238          28.162    25563498.958   100316651.417       -1239.035          28.078  
G06  23665983.281   124365584.599        1192.897          29.360    23665989.277    92870381.588         890.762          27.595  
G11  24188218.745   127109935.440        2740.998          26.952  
G12  20235492.060   106338186.771        -547.847          31.089  
G22  23408212.132   123011036.3381       2754.729          25.136  
G24  21553055.630                       -2295.162          23.407    21553058.328    84578829.068       -1713.170          30.212  
G25  20443451.793   107431066.539        1839.690          30.173    20443450.594    80224497.621        1373.789          33.832  
G29  23871299.743                        4094.889          25.570  
G32  21921996.717   115200860.415        1033.329          28.853  
R05  21491339.755                       -2646.539          14.875  
R14  20838279.060   111079813.8491      -1855.375          27.024  
R15  19676282.593                        1151.310          22.428  
R17  21404576.520   114540221.913        4026.117          29.215  
R23  23008763.265   123081546.6311      -2843.261          27.019  
R24  20779763.169   111118875.461         342.102          27.647  
> 2022  9 17 22 21  6.9999294  0 23
C24  22239600.145   115807433.774        1692.483          35.851  
C26  22010147.392   114612599.760        -764.571          36.624  
C29  25200432.604                       -1955.357          19.396  
C33  25044131.009                       -1358.063          18.179  
E02                                                                  25721282.726   135166234.538        2359.563          34.657    25721285.425                        1762.207          25.921  
E03                                                                  24826671.153   130465094.857       -1089.022          21.753    24826678.948    97425222.675        -813.106          28.265  
E08                                                                                                                                  26176590.723   102722544.941        1213.402          25.252  
E10                                                                                                                                  26461435.529   103840264.175        1775.520          25.764  
E24                                                                  25563873.699   134339039.381       -1659.619          27.749    25563872.200   100318126.037       -1239.330          28.036  
G06  23665818.994   124364707.739        1191.944          29.295    23665822.592    92869726.713         890.165          27.669  
G11  24187758.263   127107510.191        2740.333          27.166  
G12  20235657.246   106339050.368        -548.513          31.096  
G22  23407747.454   123008596.981        2754.441          25.246  
G24  21553554.485                       -2294.352          23.649    21553553.885    84580777.947       -1713.589          29.895  
G25  20443163.093   107429542.651        1838.971          30.430    20443160.395    80223359.627        1373.284          33.830  
G29  23870580.841   125440697.2461       4095.764          25.402  
G32  21921857.614   115200143.115        1032.384          29.170  
R05  21491865.591                       -2639.882          14.364  
R14  20838686.777   111081989.309       -1855.847          27.268  
R15  19676124.303                        1149.840          21.822  
R17  21403885.199   114536517.490        4025.273          28.858  
R23  23009358.952                       -2844.341          27.012  
R24  20779770.065   111118855.164         340.922          27.599  
> 2022  9 17 22 21  7.9999296  0 22
C24  22239335.129   115806053.453        1692.541          35.940  
C26  22010357.247   114613676.546        -764.567          36.681  
C29  25200856.810                       -1958.191          19.106  
C33  25044470.674                       -1356.914          17.643  
E02                                                                  25720892.397   135164189.865        2359.757          34.681    25720898.093   100934324.5441       1762.144          26.247  
E03                                                                  24826943.365   130466499.058       -1089.117          20.616    24826944.864    97426271.386        -813.421          28.163  
E08                                                                                                                                  26176343.694   102721566.976        1213.255          25.263  
E10                                                                                                                                  26461040.403   103838723.915        1775.551          25.890  
E24                                                                  25564249.039   134341013.818       -1659.353          27.585    25564249.039   100319600.485       -1239.157          27.923  
G06  23665655.308   124363831.079        1191.744          29.324    23665655.608                         889.677          27.521  
G11  24187292.985   127105084.915        2740.360          27.125  
G12  20235819.434   106339914.056        -548.604          30.966  
G22  23407283.675                        2753.837          24.578  
G24  21554047.943                       -2294.587          23.641    21554050.941    84582726.923       -1713.685          30.080  
G25  20442868.097   107428018.853        1838.882          30.478    20442869.596    80222221.764        1373.153          33.852  
G29  23869861.339   125436916.940        4095.390          25.252  
G32  21921723.906   115199426.115        1032.084          29.125  
R14  20839087.600   111084164.739       -1855.817          27.362  
R15  19675949.224                        1153.139          21.325  
R17  21403187.582   114532813.210        4025.131          29.279  
R23  23009955.239   123087876.6071      -2844.449          26.532  
R24  20779760.471   111118835.394         340.394          27.791  
> 2022  9 17 22 21  8.9999298  0 23
C24  22239069.213   115804673.137        1692.535          35.903  
C26  22010563.804   114614753.396        -764.631          36.616  
C29  25201299.304                       -1955.105          19.678  
C33  25044779.460                       -1366.590          17.138  
E02                                                                  25720505.365   135162145.069        2359.881          34.786    25720507.763   100932797.632        1762.202          25.988  
E03                                                                  24827211.679                       -1089.505          21.303    24827214.077    97427319.987        -813.311          27.842  
E08                                                                                                                                  26176091.569   102720589.068        1213.198          25.199  
E10                                                                                                                                  26460650.373   103837183.773        1775.432          25.891  
E24                                                                  25564622.880   134342988.119       -1659.217          27.438    25564624.379   100321074.803       -1239.029          28.008  
G06  23665487.724   124362954.860        1191.302          29.499    23665489.822    92868417.8001        889.657          27.664  
G11  24186835.202   127102659.708        2740.291          27.520  
G12  20235982.221   106340778.012        -548.872          31.034  
G22  23406817.198   123003720.0541       2753.710          25.241  
G24  21554536.605                       -2294.553          22.644    21554548.896    84584675.943       -1713.730          30.067  
G25  20442580.596   107426495.191        1838.746          30.373    20442580.296    80221083.920        1373.134          34.006  
G29  23869141.537   125433136.579        4095.445          25.166  
G32  21921589.899   115198709.614        1031.585          29.288  
R05  21493013.796                       -2654.641          14.410  
R14  20839503.112   111086340.211       -1855.860          27.162  
R15  19675797.229                        1148.824          20.936  
R17  21402490.264   114529109.180        4024.879          28.964  
R23  23010551.826   123091042.095       -2844.751          26.451  
R24  20779754.775   111118816.420         339.599          27.939  
> 2022  9 17 22 21  9.9999300  0 22
C24  22238804.196   115803292.896        1692.461          36.045  
C26  22010770.061   114615830.338        -764.722          36.507  
C29  25201734.602                       -1956.717          19.753  
E02                                                                  25720114.135   135160100.225        2359.928          34.646    25720118.333   100931270.610        1762.312          25.960  
E03                                                                  24827480.593                       -1088.597          21.072    24827479.693    97428369.043        -813.766          27.603  
E08                                                                                                                                  26175842.441   102719611.369        1212.990          25.031  
E10                                                                                                                                  26460255.546   103835643.775        1775.288          25.793  
E24                                                                  25564997.321   134344962.430       -1659.228          27.280    25564999.419   100322549.107       -1239.014          28.105  
G06  23665318.341   124362079.015        1190.929          29.554    23665322.538    92867763.740         889.350          27.768  
G11  24186379.518   127100234.789        2740.003          27.800  
G12  20236148.306   106341642.188        -549.091          31.099  
G22  23406346.523                        2753.422          24.794  
G24  21555033.361                       -2290.152          22.141    21555043.254    84586625.106       -1713.873          30.067  
G25  20442287.999   107424971.860        1838.415          30.361    20442291.296    80219946.342        1372.867          33.668  
G29  23868425.933                        4095.687          24.234  
G32  21921450.795   115197993.571        1031.127          29.727  
R05  21493617.278                       -2647.425          16.372  
R14  20839921.323   111088515.913       -1856.090          27.979  
R15  19675643.735                        1147.954          21.262  
R17  21401803.140   114525405.473        4024.557          28.931  
R23  23011125.629   123094208.107       -2845.274          26.679  
R24  20779756.574   111118798.167         338.879          28.005  
> 2022  9 17 22 21 10.9999302  0 22
C24  22238539.180   115801913.006        1692.109          36.040  
C26  22010976.918   114616907.654        -765.096          36.504  
C29  25202182.192                       -1957.832          19.754  
E02                                                                  25719726.204   135158055.626        2359.683          34.549    25719728.602   100929743.818        1762.082          26.086  
E03                                                                  24827750.106   130470713.0661      -1090.101          20.924    24827748.907    97429418.239        -813.906          28.048  
E08                                                                                                                                  26175595.412   102718634.092        1212.566          24.766  
E10                                                                                                                                  26459864.617   103834104.008        1775.057          26.061  
E24                                                                  25565372.961   134346936.863       -1659.349          27.185    25565375.359   100324023.478       -1239.081          28.098  
G06  23665153.155   124361203.902        1190.198          29.492    23665155.854    92867110.317         888.714          27.536  
G11  24185914.840   127097810.205        2739.667          27.659  
G12  20236312.592   106342506.879        -549.607          31.391  
G22  23405885.742   122998843.8161       2752.912          24.815  
G24  21555530.117                       -2293.505          20.921    21555542.109    84588574.643       -1714.247          29.912  
G25  20441996.900   107423448.940        1838.004          30.165    20441999.598    80218809.135        1372.498          33.568  
G29  23867710.028                        4094.970          25.050  
G32  21921314.390   115197278.248        1030.406          29.776  
R05  21494088.852                       -2651.002          16.150  
R14  20840327.841   111090691.887       -1856.361          27.686  
R15  19675472.254                        1154.805          20.802  
R17  21401111.519   114521702.249        4024.074          28.828  
R23  23011728.212   123097374.712       -2845.868          26.651  
R24  20779759.872   111118780.920         337.872          28.149  
> 2022  9 17 22 21 11.9999304  0 22
C24  22238274.763   115800533.485        1691.740          36.131  
C26  22011183.175   114617985.439        -765.565          36.590  
C29  25202613.893                       -1957.714          19.782  
E02                                                                  25719332.577   135156011.282        2359.429          34.468    25719340.371   100928217.146        1761.963          25.990  
E03                                                                  24828015.123                       -1091.423          21.358    24828015.123    97430468.000        -814.471          28.048  
E08                                                                                                                                  26175346.884   102717657.216        1212.167          25.050  
E10                                                                                                                                  26459471.289   103832564.767        1774.531          25.848  
E24                                                                  25565745.902   134348911.494       -1659.547          26.929    25565752.798   100325498.088       -1239.319          27.681  
G06  23664984.372   124360329.483        1189.503          29.418    23664989.469    92866457.313         888.294          27.947  
G11  24185453.159   127095386.046        2739.244          27.847  
G12  20236474.780   106343372.237        -550.274          31.329  
G22  23405426.460                        2751.907          23.939  
G24  21556029.271                       -2300.289          21.510    21556037.965    84590524.513       -1714.580          29.873  
G25  20441708.799   107421926.615        1837.410          30.335    20441710.598    80217672.378        1372.046          33.643  
G29  23866988.428   125421796.6531       4095.003          24.431  
G32  21921181.282   115196563.734        1029.599          29.543  
R05  21494654.860                       -2645.164          16.159  
R14  20840749.649                       -1857.382          27.409  
R15  19675333.450                        1155.548          18.535  
R17  21400425.594   114517999.774        4023.326          28.941  
R23  23012339.789   123100542.092       -2846.643          27.221  
R24  20779750.578   111118764.830         336.714          27.937  
> 2022  9 17 22 21 12.9999306  0 22
C24  22238010.346   115799154.554        1691.151          36.329  
C26  22011391.231   114619063.766        -766.107          36.574  
C29  25203055.488                       -1960.561          19.399  
E02                                                                  25718947.643   135153967.444        2358.921          34.606    25718952.740                        1761.526          26.220  
E03                                                                  24828290.932                       -1092.420          21.562    24828282.837    97431518.267        -814.977          27.972  
E08                                                                                                                                  26175098.656   102716680.990        1211.516          24.564  
E10                                                                                                                                  26459078.561   103831025.920        1774.137          25.745  
E24                                                                  25566123.341   134350886.562       -1659.984          27.273    25566126.939   100326972.969       -1239.591          28.132  
G06  23664815.889   124359456.085        1188.482          29.472    23664824.883    92865805.008         887.595          28.281  
G11  24184988.481   127092962.612        2738.518          28.276  
G12  20236641.764   106344238.289        -550.968          31.607  
G22  23404965.679                        2751.221          23.481  
G24  21556516.734                       -2295.803          20.754    21556534.722    84592474.897       -1715.093          30.027  
G25  20441420.399   107420405.094        1836.605          30.581    20441422.198    80216536.102        1371.566          33.770  
G29  23866266.827                        4094.271          24.591  
G32  21921043.377   115195850.189        1028.629          29.582  
R05  21495272.732                       -2651.478          16.541  
R14  20841151.071   111095045.3811      -1857.453          27.736  
R15  19675199.143                        1151.334          19.112  
R17  21399734.572   114514298.044        4022.580          28.819  
R23  23012936.076                       -2848.293          26.793  
R24  20779741.584   111118750.012         335.443          27.896  
> 2022  9 17 22 21 13.9999309  0 23
C24  22237777.707   115797932.292        1690.592          36.200  
C26  22011628.367   114620298.912        -766.817          36.743  
C29  25203518.068                       -1959.022          19.931  
C33  25046424.421                       -1363.387          20.685  
E02                                                                  25718587.892   135152081.532        2358.538          34.506    25718592.389   100925282.6271       1761.189          25.907  
E03                                                                  24828585.928   130475090.1611      -1092.050          20.261    24828580.831    97432686.789        -815.586          27.750  
E08                                                                                                                                  26174880.407   102715822.881        1211.044          24.854  
E10                                                                                                                                  26458717.911   103829605.292        1773.563          25.679  
E24                                                                  25566528.661   134353019.653       -1660.465          26.731    25566534.057   100328565.862       -1239.959          28.125  
G06  23664682.181   124358741.106        1187.605          29.888    23664687.578    92865271.134         886.809          28.137  
G11  24184561.876   127090697.384        2737.853          28.294  
G12  20236837.229   106345262.705        -551.790          31.748  
G22  23404530.381                        2750.819          23.871  
G24  21557036.874                       -2299.526          19.940    21557061.457    84594543.460       -1715.629          29.866  
G25  20441162.877   107419041.845        1835.875          30.892    20441161.978    80215518.092        1370.945          33.856  
G29  23865580.902                        4094.225          24.953  
G32  21920940.848   115195295.284        1027.531          29.698  
R05  21495876.514                       -2656.023          18.443  
R14  20841584.871   111097382.836       -1858.036          27.925  
R15  19675044.450                        1149.340          18.746  
R17  21399072.031   114510757.658        4021.661          28.990  
R23  23013541.057   123107040.1851      -2848.569          26.685  
R24  20779768.266   111118896.765         334.185          27.480  
> 2022  9 17 22 21 14.9999311  0 24
C24  22237512.990   115796554.404        1690.108          36.032  
C26  22011834.324   114621378.380        -767.248          36.653  
C29  25203949.169                       -1957.338          19.510  
C33  25046755.692                       -1362.570          19.356  
E02                                                                  25718199.961   135150038.470        2358.145          34.506    25718203.258   100923756.925        1760.992          26.024  
E03                                                                  24828855.441                       -1094.342          20.447    24828849.145    97433738.136        -816.058          27.744  
E08                                                                                                                                  26174629.781   102714847.679        1210.492          24.838  
E10                                                                                                                                  26458326.682   103828067.433        1773.149          25.776  
E24                                                                  25566906.099                       -1660.938          26.661    25566908.498   100330041.357       -1240.204          28.236  
G06  23664516.696   124357869.415        1186.775          29.565    23664521.493    92864620.198         886.226          27.975  
G11  24184097.797   127088275.099        2737.370          28.431  
G12  20237002.115   106346130.250        -552.461          31.657  
G19  23982410.922                       -2963.711          15.911  
G22  23404062.405                        2750.162          23.063  
G24  21557535.429                       -2296.780          20.215    21557560.312    84596494.808       -1716.057          30.034  
G25  20440872.678   107417521.677        1835.252          31.148    20440872.978    80214382.960        1370.423          33.787  
G29  23864863.199   125410617.5861       4093.592          25.582  
G32  21920802.644   115194583.614        1026.753          29.576  
R05  21496394.856                       -2662.916          17.688  
R14  20842000.383   111099560.966       -1858.518          28.168  
R15  19674885.260                        1152.603          19.324  
R17  21398384.307   114507057.481        4021.026          29.275  
R23  23014144.839   123110210.395       -2849.473          25.864  
R24  20779761.071   111118884.347         333.043          27.892  
